% program   : RTKPOST ver.2.4.2
% inp file  : D:\ligo\m2dgr\bridge2.obs
% inp file  : D:\ligo\m2dgr\m2dgr-bridge2.rnx
% inp file  : D:\ligo\m2dgr\bridge2.sp3
% obs start : 2022/11/07 04:24:56.0 GPST (week2235 102296.0s)
% obs end   : 2022/11/07 04:33:08.0 GPST (week2235 102788.0s)
% pos mode  : ppp-kinematic
% solution  : forward
% elev mask : 15.0 deg
% dynamics  : off
% tidecorr  : on
% tropo opt : est ztd+grad
% ephemeris : precise
% navi sys  : gps glonass galileo
% antenna1  :                       ( 0.0000  0.0000  0.0000)
%
% (x/y/z-ecef=WGS84,Q=1:fix,2:float,3:sbas,4:dgps,5:single,6:ppp,ns=# of satellites)
%  GPST              x-ecef(m)      y-ecef(m)      z-ecef(m)   Q  ns   sdx(m)   sdy(m)   sdz(m)  sdxy(m)  sdyz(m)  sdzx(m) age(s)  ratio
2235 102296.000  -2853343.0340   4667304.0381   3268572.4050   6   8   2.0503   2.9358   1.6740  -2.0114   1.5513  -1.3869   0.00    0.0
2235 102297.000  -2853343.2489   4667304.2494   3268572.2616   6   8   1.4727   2.1089   1.2050  -1.4484   1.1219  -1.0003   0.00    0.0
2235 102298.000  -2853343.3489   4667304.1986   3268572.1451   6   8   1.2207   1.7480   1.0007  -1.2033   0.9357  -0.8323   0.00    0.0
2235 102299.000  -2853343.4516   4667304.1228   3268572.0530   6   8   1.0725   1.5358   0.8808  -1.0594   0.8268  -0.7338   0.00    0.0
2235 102300.000  -2853343.5141   4667304.0631   3268571.9609   6   8   0.9726   1.3928   0.8002  -0.9627   0.7538  -0.6677   0.00    0.0
2235 102301.000  -2853343.7120   4667304.1172   3268571.8593   6   8   0.8997   1.2885   0.7414  -0.8922   0.7009  -0.6196   0.00    0.0
2235 102302.000  -2853343.9289   4667304.1270   3268571.6874   6   8   0.8437   1.2083   0.6964  -0.8382   0.6603  -0.5827   0.00    0.0
2235 102303.000  -2853344.2117   4667304.2254   3268571.4600   6   8   0.7990   1.1443   0.6605  -0.7951   0.6281  -0.5534   0.00    0.0
2235 102304.000  -2853344.4569   4667304.2579   3268571.2411   6   8   0.7623   1.0917   0.6310  -0.7597   0.6017  -0.5294   0.00    0.0
2235 102305.000  -2853344.6766   4667304.3901   3268570.9682   6   8   0.7316   1.0477   0.6064  -0.7301   0.5797  -0.5092   0.00    0.0
2235 102306.000  -2853344.7459   4667304.4990   3268570.6064   6   8   0.7053   1.0101   0.5853  -0.7049   0.5609  -0.4921   0.00    0.0
2235 102307.000  -2853344.8406   4667304.6300   3268570.2241   6   8   0.6825   0.9775   0.5671  -0.6830   0.5447  -0.4773   0.00    0.0
2235 102308.000  -2853345.0064   4667304.8797   3268569.9444   6   8   0.6626   0.9489   0.5512  -0.6639   0.5305  -0.4643   0.00    0.0
2235 102309.000  -2853345.1336   4667305.0232   3268569.5736   6   8   0.6449   0.9236   0.5371  -0.6469   0.5180  -0.4528   0.00    0.0
2235 102310.000  -2853345.3533   4667305.0597   3268569.2539   6   8   0.6291   0.9010   0.5245  -0.6318   0.5068  -0.4426   0.00    0.0
2235 102311.000  -2853345.6264   4667305.0896   3268568.9617   6   8   0.6149   0.8806   0.5132  -0.6181   0.4967  -0.4334   0.00    0.0
2235 102312.000  -2853345.8588   4667305.0960   3268568.6970   6   8   0.6020   0.8622   0.5030  -0.6058   0.4876  -0.4250   0.00    0.0
2235 102313.000  -2853346.0661   4667305.0864   3268568.4143   6   8   0.5902   0.8453   0.4936  -0.5945   0.4793  -0.4174   0.00    0.0
2235 102314.000  -2853346.2941   4667305.0425   3268568.1656   6   8   0.5794   0.8298   0.4850  -0.5842   0.4717  -0.4105   0.00    0.0
2235 102315.000  -2853346.5601   4667305.0895   3268567.9937   6   8   0.5694   0.8156   0.4771  -0.5746   0.4647  -0.4040   0.00    0.0
2235 102316.000  -2853346.8300   4667305.1480   3268567.7595   6   8   0.5602   0.8024   0.4698  -0.5658   0.4582  -0.3981   0.00    0.0
2235 102317.000  -2853347.1621   4667305.2083   3268567.5074   6   8   0.5516   0.7901   0.4630  -0.5576   0.4522  -0.3926   0.00    0.0
2235 102318.000  -2853347.4930   4667305.2283   3268567.2232   6   8   0.5436   0.7786   0.4567  -0.5499   0.4466  -0.3874   0.00    0.0
2235 102319.000  -2853347.8062   4667305.2207   3268566.9098   6   8   0.5361   0.7679   0.4508  -0.5427   0.4413  -0.3826   0.00    0.0
2235 102320.000  -2853348.1492   4667305.2879   3268566.6397   6   8   0.5291   0.7578   0.4452  -0.5360   0.4364  -0.3781   0.00    0.0
2235 102321.000  -2853348.4778   4667305.2791   3268566.3419   6   8   0.5224   0.7483   0.4400  -0.5296   0.4317  -0.3738   0.00    0.0
2235 102322.000  -2853348.7582   4667305.2610   3268566.0094   6   8   0.5161   0.7393   0.4350  -0.5236   0.4273  -0.3698   0.00    0.0
2235 102323.000  -2853349.1029   4667305.2754   3268565.6915   6   8   0.5102   0.7308   0.4304  -0.5179   0.4231  -0.3660   0.00    0.0
2235 102324.000  -2853349.3889   4667305.2778   3268565.3531   6   8   0.5045   0.7228   0.4259  -0.5125   0.4192  -0.3623   0.00    0.0
2235 102325.000  -2853349.6967   4667305.2886   3268565.0209   6   8   0.4992   0.7151   0.4217  -0.5074   0.4154  -0.3589   0.00    0.0
2235 102326.000  -2853350.0055   4667305.3001   3268564.6576   6   8   0.4941   0.7077   0.4177  -0.5025   0.4118  -0.3556   0.00    0.0
2235 102327.000  -2853350.3175   4667305.2971   3268564.3551   6   8   0.4892   0.7008   0.4138  -0.4978   0.4084  -0.3525   0.00    0.0
2235 102328.000  -2853350.7065   4667305.2381   3268564.0807   6   8   0.4845   0.6941   0.4102  -0.4933   0.4051  -0.3495   0.00    0.0
2235 102329.000  -2853351.0187   4667305.2967   3268563.7208   6   8   0.4800   0.6876   0.4066  -0.4890   0.4020  -0.3466   0.00    0.0
2235 102330.000  -2853351.1658   4667305.4308   3268563.2904   6   8   0.4757   0.6815   0.4033  -0.4848   0.3990  -0.3438   0.00    0.0
2235 102331.000  -2853351.3116   4667305.6132   3268562.8705   6   8   0.4715   0.6755   0.4000  -0.4809   0.3960  -0.3412   0.00    0.0
2235 102332.000  -2853351.4595   4667305.7744   3268562.4960   6   8   0.4675   0.6698   0.3969  -0.4770   0.3932  -0.3386   0.00    0.0
2235 102333.000  -2853351.5779   4667305.9551   3268562.0742   6   8   0.4637   0.6643   0.3939  -0.4733   0.3905  -0.3361   0.00    0.0
2235 102334.000  -2853351.6703   4667306.1317   3268561.7138   6   8   0.4600   0.6590   0.3910  -0.4697   0.3879  -0.3337   0.00    0.0
2235 102335.000  -2853351.7471   4667306.3312   3268561.3310   6   8   0.4564   0.6539   0.3881  -0.4663   0.3854  -0.3314   0.00    0.0
2235 102336.000  -2853351.8657   4667306.5347   3268560.9343   6   8   0.4529   0.6489   0.3854  -0.4629   0.3829  -0.3292   0.00    0.0
2235 102337.000  -2853352.1098   4667306.6562   3268560.5493   6   8   0.4495   0.6441   0.3828  -0.4597   0.3806  -0.3270   0.00    0.0
2235 102338.000  -2853352.4383   4667306.6382   3268560.2194   6   8   0.4462   0.6394   0.3802  -0.4565   0.3782  -0.3249   0.00    0.0
2235 102339.000  -2853352.8027   4667306.5043   3268559.9263   6   8   0.4430   0.6349   0.3777  -0.4534   0.3760  -0.3229   0.00    0.0
2235 102340.000  -2853353.2499   4667306.4671   3268559.7220   6   8   0.4399   0.6304   0.3753  -0.4505   0.3738  -0.3209   0.00    0.0
2235 102341.000  -2853353.5879   4667306.4201   3268559.3970   6   8   0.4369   0.6261   0.3730  -0.4475   0.3717  -0.3190   0.00    0.0
2235 102342.000  -2853353.8306   4667306.4957   3268559.0094   6   8   0.4340   0.6219   0.3707  -0.4447   0.3696  -0.3171   0.00    0.0
2235 102343.000  -2853353.9843   4667306.6878   3268558.5917   6   8   0.4311   0.6179   0.3685  -0.4420   0.3676  -0.3153   0.00    0.0
2235 102344.000  -2853354.1272   4667306.8892   3268558.1800   6   8   0.4283   0.6139   0.3663  -0.4393   0.3656  -0.3135   0.00    0.0
2235 102345.000  -2853354.2755   4667307.0692   3268557.7267   6   8   0.4256   0.6100   0.3642  -0.4366   0.3637  -0.3117   0.00    0.0
2235 102346.000  -2853354.5295   4667307.2324   3268557.3536   6   8   0.4230   0.6062   0.3621  -0.4340   0.3618  -0.3100   0.00    0.0
2235 102347.000  -2853354.7705   4667307.3365   3268556.9690   6   8   0.4204   0.6025   0.3601  -0.4315   0.3600  -0.3084   0.00    0.0
2235 102348.000  -2853355.1556   4667307.3733   3268556.5874   6   8   0.4178   0.5989   0.3581  -0.4291   0.3582  -0.3067   0.00    0.0
2235 102349.000  -2853355.4975   4667307.2906   3268556.2700   6   7   0.4169   0.5964   0.3707  -0.4282   0.3512  -0.2990   0.00    0.0
2235 102350.000  -2853355.8235   4667307.2444   3268555.9201   6   8   0.4144   0.5929   0.3679  -0.4258   0.3497  -0.2977   0.00    0.0
2235 102351.000  -2853355.9970   4667307.4163   3268555.5116   6   8   0.4113   0.5890   0.3593  -0.4227   0.3505  -0.2991   0.00    0.0
2235 102352.000  -2853356.0439   4667307.6295   3268555.0992   6   7   0.4097   0.5862   0.3652  -0.4212   0.3461  -0.2944   0.00    0.0
2235 102353.000  -2853356.1178   4667307.8463   3268554.5616   6   8   0.4074   0.5829   0.3625  -0.4189   0.3447  -0.2932   0.00    0.0
2235 102354.000  -2853356.2745   4667307.9841   3268554.0624   6   8   0.4043   0.5791   0.3541  -0.4160   0.3455  -0.2947   0.00    0.0
2235 102355.000  -2853356.4626   4667308.0609   3268553.6679   6   8   0.4019   0.5758   0.3501  -0.4136   0.3448  -0.2942   0.00    0.0
2235 102356.000  -2853356.6313   4667308.0933   3268553.3629   6   7   0.4124   0.5732   0.3479  -0.4144   0.3430  -0.2898   0.00    0.0
2235 102357.000  -2853357.0031   4667308.3147   3268552.8458   6   8   0.3974   0.5695   0.3451  -0.4091   0.3424  -0.2921   0.00    0.0
2235 102358.000  -2853357.1640   4667308.3021   3268552.4239   6   8   0.3952   0.5665   0.3429  -0.4070   0.3411  -0.2909   0.00    0.0
2235 102359.000  -2853357.4402   4667308.4422   3268552.0171   6   7   0.4052   0.5640   0.3414  -0.4078   0.3392  -0.2871   0.00    0.0
2235 102360.000  -2853357.6259   4667308.5005   3268551.5833   6   7   0.4031   0.5611   0.3396  -0.4057   0.3379  -0.2859   0.00    0.0
2235 102361.000  -2853357.7711   4667308.6120   3268551.1484   6   8   0.4005   0.5582   0.3378  -0.4037   0.3366  -0.2850   0.00    0.0
2235 102362.000  -2853357.8876   4667308.6955   3268550.6883   6   7   0.4000   0.7156   0.3540  -0.4405   0.4035  -0.2989   0.00    0.0
2235 102363.000  -2853358.0219   4667308.8325   3268550.2763   6   6   0.4002   0.7357   0.3570  -0.4298   0.4148  -0.2936   0.00    0.0
2235 102364.000  -2853358.1613   4667309.3083   3268549.8796   6   8   0.3978   0.7223   0.3538  -0.4271   0.4083  -0.2923   0.00    0.0
2235 102365.000  -2853358.3824   4667309.3974   3268549.4095   6   8   0.3942   0.7021   0.3489  -0.4316   0.3974  -0.2940   0.00    0.0
2235 102366.000  -2853358.4826   4667309.5134   3268548.9751   6   8   0.3861   0.6292   0.3397  -0.4091   0.3671  -0.2862   0.00    0.0
2235 102367.000  -2853358.5985   4667309.5577   3268548.5431   6   6   0.3924   0.7217   0.3501  -0.4220   0.4072  -0.2888   0.00    0.0
2235 102368.000  -2853358.6403   4667309.8442   3268548.1392   6   6   0.3905   0.7185   0.3485  -0.4201   0.4055  -0.2876   0.00    0.0
2235 102369.000  -2853358.7643   4667309.8337   3268547.6764   6   7   0.3884   0.7138   0.3464  -0.4190   0.4027  -0.2868   0.00    0.0
2235 102370.000  -2853358.7783   4667309.5050   3268547.3363   6   7   0.3851   0.8475   0.3422  -0.4187   0.3797  -0.2888   0.00    0.0
2235 102371.000  -2853358.8866   4667309.6006   3268546.9216   6   7   0.3829   0.7927   0.3390  -0.4183   0.3852  -0.2883   0.00    0.0
2235 102372.000  -2853359.1306   4667309.6711   3268546.4627   6   7   0.3834   0.8063   0.3420  -0.4043   0.4039  -0.2830   0.00    0.0
2235 102373.000  -2853359.4067   4667309.6998   3268546.0051   6   7   0.3815   0.7862   0.3405  -0.4043   0.4021  -0.2819   0.00    0.0
2235 102374.000  -2853359.8241   4667310.0565   3268545.7551   6   8   0.3780   0.7451   0.3352  -0.4082   0.3879  -0.2831   0.00    0.0
2235 102375.000  -2853360.1900   4667309.9179   3268545.4123   6   8   0.3703   0.6715   0.3265  -0.3872   0.3590  -0.2756   0.00    0.0
2235 102376.000  -2853360.5008   4667309.6976   3268545.0154   6   7   0.3738   0.7239   0.3314  -0.4111   0.3830  -0.2827   0.00    0.0
2235 102377.000  -2853360.7759   4667309.8997   3268544.6455   6   7   0.3719   0.7150   0.3297  -0.4104   0.3806  -0.2819   0.00    0.0
2235 102378.000  -2853360.9224   4667309.9107   3268544.1984   6   8   0.3725   0.7237   0.3325  -0.3975   0.3896  -0.2761   0.00    0.0
2235 102379.000  -2853361.1118   4667309.8676   3268543.7593   6   8   0.3690   0.6461   0.3221  -0.3816   0.3558  -0.2699   0.00    0.0
2235 102380.000  -2853361.3034   4667309.9175   3268543.3282   6   8   0.3616   0.6144   0.3176  -0.3742   0.3431  -0.2678   0.00    0.0
2235 102381.000  -2853361.4875   4667309.9426   3268542.9207   6   8   0.3604   0.6017   0.3232  -0.3651   0.3265  -0.2719   0.00    0.0
2235 102382.000  -2853361.6485   4667310.0830   3268542.5220   6   8   0.3633   0.7135   0.3231  -0.4006   0.3650  -0.2760   0.00    0.0
2235 102383.000  -2853361.8880   4667310.3746   3268542.1334   6   7   0.3618   0.7064   0.3217  -0.4010   0.3672  -0.2756   0.00    0.0
2235 102384.000  -2853362.0724   4667310.5851   3268541.7366   6   7   0.3600   0.6960   0.3202  -0.3997   0.3663  -0.2747   0.00    0.0
2235 102385.000  -2853362.2615   4667310.6054   3268541.2828   6   8   0.3582   0.6804   0.3183  -0.3969   0.3629  -0.2734   0.00    0.0
2235 102386.000  -2853362.4823   4667310.8216   3268540.9172   6   8   0.3514   0.6173   0.3109  -0.3747   0.3381  -0.2655   0.00    0.0
2235 102387.000  -2853362.6898   4667311.0897   3268540.5268   6   7   0.3556   0.5928   0.3082  -0.3618   0.3300  -0.2595   0.00    0.0
2235 102388.000  -2853362.8804   4667311.3386   3268540.1500   6   8   0.3535   0.5774   0.3058  -0.3593   0.3245  -0.2582   0.00    0.0
2235 102389.000  -2853363.1667   4667311.4243   3268539.7547   6   8   0.3469   0.5656   0.3038  -0.3559   0.3207  -0.2574   0.00    0.0
2235 102390.000  -2853363.4095   4667311.6466   3268539.4141   6   8   0.3436   0.5562   0.3021  -0.3535   0.3176  -0.2564   0.00    0.0
2235 102391.000  -2853363.5598   4667311.7977   3268539.0042   6   8   0.3412   0.5483   0.3006  -0.3515   0.3150  -0.2554   0.00    0.0
2235 102392.000  -2853363.7611   4667312.0197   3268538.6236   6   8   0.3392   0.5414   0.2991  -0.3497   0.3127  -0.2543   0.00    0.0
2235 102393.000  -2853363.9567   4667312.2427   3268538.2274   6   8   0.3458   0.6388   0.3085  -0.3842   0.3530  -0.2651   0.00    0.0
2235 102394.000  -2853364.1241   4667312.3740   3268537.8073   6   7   0.3444   0.6392   0.3075  -0.3841   0.3530  -0.2646   0.00    0.0
2235 102395.000  -2853364.2853   4667312.6197   3268537.4370   6   7   0.3429   0.6352   0.3063  -0.3828   0.3514  -0.2637   0.00    0.0
2235 102396.000  -2853364.4716   4667312.8091   3268537.0636   6   7   0.3413   0.6314   0.3050  -0.3814   0.3499  -0.2628   0.00    0.0
2235 102397.000  -2853364.6134   4667312.9736   3268536.8212   6   8   0.3396   0.6229   0.3035  -0.3788   0.3468  -0.2615   0.00    0.0
2235 102398.000  -2853364.6666   4667312.8686   3268536.8399   6   8   0.3333   0.5653   0.2966  -0.3579   0.3233  -0.2542   0.00    0.0
2235 102399.000  -2853364.8030   4667312.6993   3268536.9164   6   8   0.3302   0.5427   0.2935  -0.3499   0.3143  -0.2511   0.00    0.0
2235 102400.000  -2853364.9762   4667312.5590   3268536.9941   6   8   0.3280   0.5295   0.2915  -0.3452   0.3091  -0.2492   0.00    0.0
2235 102401.000  -2853365.1689   4667312.3329   3268537.0489   6   8   0.3261   0.5203   0.2898  -0.3419   0.3055  -0.2477   0.00    0.0
2235 102402.000  -2853365.3757   4667312.1677   3268537.1092   6   8   0.3244   0.5132   0.2883  -0.3393   0.3027  -0.2464   0.00    0.0
2235 102403.000  -2853365.5470   4667312.0467   3268537.1697   6   8   0.3227   0.5073   0.2869  -0.3371   0.3004  -0.2452   0.00    0.0
2235 102404.000  -2853365.6848   4667311.9482   3268537.1683   6   8   0.3212   0.5022   0.2857  -0.3351   0.2984  -0.2441   0.00    0.0
2235 102405.000  -2853365.9316   4667312.1307   3268536.7735   6   8   0.3197   0.4976   0.2844  -0.3333   0.2966  -0.2431   0.00    0.0
2235 102406.000  -2853366.1052   4667312.2111   3268536.3488   6   8   0.3182   0.4935   0.2833  -0.3316   0.2950  -0.2421   0.00    0.0
2235 102407.000  -2853366.3546   4667312.3939   3268535.9868   6   8   0.3168   0.4897   0.2821  -0.3300   0.2934  -0.2412   0.00    0.0
2235 102408.000  -2853366.5773   4667312.5468   3268535.5669   6   8   0.3154   0.4861   0.2810  -0.3284   0.2920  -0.2403   0.00    0.0
2235 102409.000  -2853366.7642   4667312.6740   3268535.1551   6   8   0.3140   0.4828   0.2799  -0.3269   0.2906  -0.2394   0.00    0.0
2235 102410.000  -2853366.9625   4667312.8521   3268534.7462   6   8   0.3126   0.4796   0.2788  -0.3255   0.2893  -0.2385   0.00    0.0
2235 102411.000  -2853367.2026   4667313.0218   3268534.3472   6   8   0.3112   0.4765   0.2778  -0.3241   0.2880  -0.2376   0.00    0.0
2235 102412.000  -2853367.4078   4667313.2012   3268533.9658   6   8   0.3099   0.4736   0.2767  -0.3227   0.2868  -0.2367   0.00    0.0
2235 102413.000  -2853367.6073   4667313.4318   3268533.5756   6   7   0.3171   0.5726   0.2858  -0.3564   0.3257  -0.2473   0.00    0.0
2235 102414.000  -2853367.7875   4667313.5953   3268533.1512   6   7   0.3158   0.5699   0.2847  -0.3550   0.3244  -0.2464   0.00    0.0
2235 102415.000  -2853367.9878   4667313.8159   3268532.7473   6   7   0.3144   0.5672   0.2837  -0.3535   0.3232  -0.2455   0.00    0.0
2235 102416.000  -2853368.2087   4667313.9461   3268532.3625   6   7   0.3131   0.5646   0.2826  -0.3521   0.3219  -0.2446   0.00    0.0
2235 102417.000  -2853368.4004   4667313.9481   3268531.9221   6   8   0.3116   0.5589   0.2814  -0.3498   0.3197  -0.2435   0.00    0.0
2235 102418.000  -2853368.4680   4667314.0365   3268531.7909   6   8   0.3060   0.5075   0.2753  -0.3312   0.2989  -0.2370   0.00    0.0
2235 102419.000  -2853368.6511   4667314.2044   3268531.5423   6   8   0.3033   0.4878   0.2726  -0.3240   0.2911  -0.2343   0.00    0.0
2235 102420.000  -2853368.8732   4667314.3763   3268531.1334   6   8   0.3077   0.5505   0.2783  -0.3455   0.3159  -0.2410   0.00    0.0
2235 102421.000  -2853369.0703   4667314.5246   3268530.7102   6   8   0.3022   0.5000   0.2724  -0.3272   0.2956  -0.2345   0.00    0.0
2235 102422.000  -2853369.2451   4667314.6695   3268530.3258   6   8   0.2995   0.4807   0.2697  -0.3202   0.2879  -0.2319   0.00    0.0
2235 102423.000  -2853369.5332   4667314.8369   3268529.9363   6   8   0.2975   0.4698   0.2680  -0.3160   0.2835  -0.2301   0.00    0.0
2235 102424.000  -2853369.8025   4667315.0230   3268529.5772   6   8   0.2959   0.4623   0.2665  -0.3130   0.2805  -0.2288   0.00    0.0
2235 102425.000  -2853369.8413   4667315.1476   3268529.4118   6   8   0.2944   0.4566   0.2653  -0.3106   0.2782  -0.2276   0.00    0.0
2235 102426.000  -2853369.6496   4667315.2741   3268529.3075   6   8   0.2929   0.4520   0.2641  -0.3086   0.2762  -0.2266   0.00    0.0
2235 102427.000  -2853369.4731   4667315.4971   3268529.2305   6   7   0.2988   0.5340   0.2715  -0.3363   0.3081  -0.2352   0.00    0.0
2235 102428.000  -2853369.5034   4667315.6314   3268529.0310   6   7   0.2975   0.5315   0.2705  -0.3348   0.3069  -0.2344   0.00    0.0
2235 102429.000  -2853369.7502   4667315.7689   3268528.6893   6   7   0.2963   0.5290   0.2696  -0.3334   0.3058  -0.2335   0.00    0.0
2235 102430.000  -2853370.0686   4667315.8245   3268528.3374   6   7   0.2950   0.5266   0.2686  -0.3320   0.3046  -0.2327   0.00    0.0
2235 102431.000  -2853370.4311   4667315.8084   3268528.0081   6   7   0.2938   0.5241   0.2676  -0.3306   0.3034  -0.2319   0.00    0.0
2235 102432.000  -2853370.7863   4667315.7581   3268527.7249   6   7   0.2925   0.5217   0.2667  -0.3292   0.3022  -0.2310   0.00    0.0
2235 102433.000  -2853371.2078   4667315.7564   3268527.4256   6   8   0.2912   0.5170   0.2656  -0.3273   0.3003  -0.2301   0.00    0.0
2235 102434.000  -2853371.5633   4667315.7561   3268527.0729   6   8   0.2861   0.4707   0.2601  -0.3106   0.2818  -0.2242   0.00    0.0
2235 102435.000  -2853371.8703   4667315.7002   3268526.7394   6   8   0.2837   0.4531   0.2577  -0.3041   0.2748  -0.2218   0.00    0.0
2235 102436.000  -2853372.2481   4667315.8681   3268526.4354   6   8   0.2819   0.4431   0.2561  -0.3002   0.2708  -0.2202   0.00    0.0
2235 102437.000  -2853372.5568   4667315.8457   3268526.0696   6   8   0.2803   0.4363   0.2547  -0.2975   0.2681  -0.2190   0.00    0.0
2235 102438.000  -2853372.8512   4667315.8631   3268525.7553   6   8   0.2789   0.4312   0.2536  -0.2953   0.2659  -0.2179   0.00    0.0
2235 102439.000  -2853373.1888   4667315.9862   3268525.4368   6   8   0.2776   0.4270   0.2525  -0.2934   0.2642  -0.2169   0.00    0.0
2235 102440.000  -2853373.4783   4667316.0749   3268525.0557   6   8   0.2763   0.4233   0.2515  -0.2917   0.2626  -0.2160   0.00    0.0
2235 102441.000  -2853373.7806   4667316.1371   3268524.6876   6   8   0.2750   0.4201   0.2505  -0.2901   0.2613  -0.2152   0.00    0.0
2235 102442.000  -2853374.0182   4667316.2466   3268524.3015   6   8   0.2738   0.4172   0.2496  -0.2887   0.2600  -0.2144   0.00    0.0
2235 102443.000  -2853374.2749   4667316.3884   3268523.9166   6   8   0.2726   0.4145   0.2486  -0.2873   0.2588  -0.2136   0.00    0.0
2235 102444.000  -2853374.5375   4667316.5261   3268523.5270   6   7   0.2780   0.4912   0.2555  -0.3128   0.2882  -0.2214   0.00    0.0
2235 102445.000  -2853374.7798   4667316.6428   3268523.1297   6   8   0.2703   0.4105   0.2469  -0.2849   0.2569  -0.2121   0.00    0.0
2235 102446.000  -2853374.9315   4667316.7582   3268522.8414   6   8   0.2692   0.4081   0.2460  -0.2836   0.2558  -0.2113   0.00    0.0
2235 102447.000  -2853375.1349   4667316.8237   3268522.5151   6   8   0.2680   0.4058   0.2452  -0.2824   0.2548  -0.2106   0.00    0.0
2235 102448.000  -2853375.4093   4667316.8784   3268522.1855   6   8   0.2669   0.4036   0.2443  -0.2811   0.2538  -0.2099   0.00    0.0
2235 102449.000  -2853375.6831   4667317.0139   3268521.8523   6   8   0.2658   0.4014   0.2434  -0.2799   0.2528  -0.2091   0.00    0.0
2235 102450.000  -2853375.9520   4667317.0890   3268521.5202   6   8   0.2647   0.3994   0.2426  -0.2788   0.2518  -0.2084   0.00    0.0
2235 102451.000  -2853376.1830   4667317.1329   3268521.2106   6   8   0.2635   0.3973   0.2418  -0.2776   0.2509  -0.2077   0.00    0.0
2235 102452.000  -2853376.4067   4667317.2055   3268520.8978   6   8   0.2624   0.3954   0.2409  -0.2764   0.2500  -0.2070   0.00    0.0
2235 102453.000  -2853376.6350   4667317.2847   3268520.5806   6   8   0.2613   0.3935   0.2401  -0.2753   0.2491  -0.2063   0.00    0.0
2235 102454.000  -2853376.8894   4667317.3899   3268520.2560   6   8   0.2603   0.3916   0.2393  -0.2742   0.2482  -0.2056   0.00    0.0
2235 102455.000  -2853377.1294   4667317.4949   3268519.9462   6   8   0.2592   0.3897   0.2385  -0.2731   0.2474  -0.2049   0.00    0.0
2235 102456.000  -2853377.3764   4667317.5676   3268519.6012   6   8   0.2642   0.4610   0.2448  -0.2967   0.2745  -0.2122   0.00    0.0
2235 102457.000  -2853377.6498   4667317.6445   3268519.2165   6   8   0.2599   0.4223   0.2403  -0.2828   0.2593  -0.2074   0.00    0.0
2235 102458.000  -2853377.9323   4667317.7731   3268518.8472   6   8   0.2578   0.4076   0.2383  -0.2774   0.2535  -0.2053   0.00    0.0
2235 102459.000  -2853378.1639   4667317.8014   3268518.4579   6   8   0.2562   0.3993   0.2369  -0.2741   0.2502  -0.2039   0.00    0.0
2235 102460.000  -2853378.4243   4667317.9383   3268518.0852   6   8   0.2548   0.3936   0.2357  -0.2718   0.2479  -0.2029   0.00    0.0
2235 102461.000  -2853378.6817   4667318.0582   3268517.6838   6   7   0.2587   0.4508   0.2406  -0.2906   0.2696  -0.2086   0.00    0.0
2235 102462.000  -2853378.9621   4667318.2067   3268517.2943   6   8   0.2575   0.4474   0.2397  -0.2890   0.2682  -0.2078   0.00    0.0
2235 102463.000  -2853379.2005   4667318.3286   3268516.9095   6   8   0.2534   0.4107   0.2355  -0.2759   0.2538  -0.2032   0.00    0.0
2235 102464.000  -2853379.4323   4667318.4141   3268516.5131   6   8   0.2514   0.3967   0.2335  -0.2708   0.2483  -0.2013   0.00    0.0
2235 102464.999  -2853379.6809   4667318.5111   3268516.1249   6   8   0.2499   0.3888   0.2322  -0.2677   0.2452  -0.2000   0.00    0.0
2235 102465.999  -2853379.8464   4667318.6342   3268515.8853   6   8   0.2485   0.3834   0.2311  -0.2654   0.2430  -0.1990   0.00    0.0
2235 102467.000  -2853379.7535   4667318.7184   3268515.8600   6   8   0.2473   0.3793   0.2301  -0.2636   0.2413  -0.1981   0.00    0.0
2235 102468.000  -2853379.5536   4667318.8989   3268515.7769   6   8   0.2462   0.3760   0.2292  -0.2620   0.2399  -0.1972   0.00    0.0
2235 102469.000  -2853379.3138   4667319.1025   3268515.6789   6   8   0.2451   0.3731   0.2283  -0.2606   0.2386  -0.1965   0.00    0.0
2235 102470.000  -2853379.1161   4667319.2932   3268515.5918   6   8   0.2440   0.3705   0.2275  -0.2593   0.2375  -0.1958   0.00    0.0
2235 102471.000  -2853378.9737   4667319.4468   3268515.5373   6   8   0.2429   0.3681   0.2267  -0.2580   0.2365  -0.1951   0.00    0.0
2235 102472.000  -2853379.1929   4667319.5553   3268515.1574   6   8   0.2419   0.3659   0.2259  -0.2568   0.2355  -0.1944   0.00    0.0
2235 102473.000  -2853379.4573   4667319.7303   3268514.7721   6   8   0.2408   0.3639   0.2251  -0.2557   0.2346  -0.1937   0.00    0.0
2235 102474.000  -2853379.7196   4667319.8219   3268514.3908   6   8   0.2398   0.3619   0.2244  -0.2546   0.2337  -0.1931   0.00    0.0
2235 102475.000  -2853379.9957   4667319.9469   3268514.0171   6   8   0.2388   0.3600   0.2236  -0.2535   0.2328  -0.1924   0.00    0.0
2235 102476.000  -2853380.2571   4667319.9865   3268513.6421   6   8   0.2378   0.3582   0.2229  -0.2524   0.2320  -0.1918   0.00    0.0
2235 102477.000  -2853380.5675   4667320.0781   3268513.2673   6   7   0.2416   0.4151   0.2277  -0.2708   0.2531  -0.1973   0.00    0.0
2235 102478.000  -2853380.8460   4667320.2185   3268512.8926   6   8   0.2358   0.3551   0.2214  -0.2504   0.2305  -0.1906   0.00    0.0
2235 102479.000  -2853381.1229   4667320.2958   3268512.5275   6   8   0.2349   0.3534   0.2207  -0.2494   0.2297  -0.1899   0.00    0.0
2235 102480.000  -2853381.3931   4667320.3965   3268512.1535   6   8   0.2339   0.3517   0.2200  -0.2484   0.2289  -0.1893   0.00    0.0
2235 102481.000  -2853381.6355   4667320.4776   3268511.7828   6   8   0.2329   0.3501   0.2193  -0.2474   0.2281  -0.1887   0.00    0.0
2235 102482.000  -2853381.8888   4667320.5875   3268511.4376   6   8   0.2319   0.3485   0.2186  -0.2464   0.2274  -0.1881   0.00    0.0
2235 102483.000  -2853382.2038   4667320.6915   3268511.0794   6   8   0.2310   0.3469   0.2179  -0.2454   0.2266  -0.1875   0.00    0.0
2235 102484.000  -2853382.5545   4667320.6670   3268510.7781   6   8   0.2300   0.3454   0.2172  -0.2445   0.2259  -0.1869   0.00    0.0
2235 102485.000  -2853382.9059   4667320.6781   3268510.4397   6   8   0.2291   0.3438   0.2165  -0.2435   0.2252  -0.1864   0.00    0.0
2235 102486.000  -2853383.2508   4667320.6942   3268510.0977   6   8   0.2281   0.3423   0.2158  -0.2426   0.2245  -0.1858   0.00    0.0
2235 102487.000  -2853383.6147   4667320.7574   3268509.7662   6   8   0.2272   0.3409   0.2151  -0.2416   0.2238  -0.1852   0.00    0.0
2235 102488.000  -2853383.9473   4667320.7633   3268509.4250   6   8   0.2263   0.3394   0.2145  -0.2407   0.2231  -0.1846   0.00    0.0
2235 102489.000  -2853384.2794   4667320.7515   3268509.0753   6   8   0.2253   0.3379   0.2138  -0.2398   0.2224  -0.1841   0.00    0.0
2235 102490.000  -2853384.6106   4667320.7956   3268508.7447   6   7   0.2286   0.3878   0.2179  -0.2557   0.2406  -0.1888   0.00    0.0
2235 102491.000  -2853384.9515   4667320.8761   3268508.4091   6   8   0.2276   0.3852   0.2172  -0.2544   0.2395  -0.1881   0.00    0.0
2235 102492.000  -2853385.2395   4667320.9787   3268508.0120   6   8   0.2245   0.3583   0.2140  -0.2449   0.2293  -0.1848   0.00    0.0
2235 102493.000  -2853385.4423   4667321.1477   3268507.6095   6   8   0.2229   0.3481   0.2126  -0.2411   0.2253  -0.1834   0.00    0.0
2235 102494.000  -2853385.6289   4667321.2979   3268507.2015   6   8   0.2216   0.3422   0.2115  -0.2387   0.2230  -0.1823   0.00    0.0
2235 102495.000  -2853385.7771   4667321.4829   3268506.7951   6   8   0.2205   0.3382   0.2106  -0.2370   0.2214  -0.1815   0.00    0.0
2235 102496.000  -2853385.8899   4667321.7424   3268506.3887   6   8   0.2195   0.3351   0.2098  -0.2355   0.2201  -0.1808   0.00    0.0
2235 102497.000  -2853386.0489   4667321.9309   3268505.9769   6   8   0.2185   0.3324   0.2091  -0.2343   0.2190  -0.1801   0.00    0.0
2235 102498.000  -2853386.2710   4667322.1154   3268505.5933   6   8   0.2176   0.3302   0.2083  -0.2331   0.2180  -0.1795   0.00    0.0
2235 102499.000  -2853386.4430   4667322.2409   3268505.1860   6   8   0.2166   0.3282   0.2077  -0.2320   0.2172  -0.1789   0.00    0.0
2235 102500.000  -2853386.6569   4667322.4264   3268504.8015   6   8   0.2157   0.3263   0.2070  -0.2310   0.2163  -0.1783   0.00    0.0
2235 102501.000  -2853386.9523   4667322.5038   3268504.4592   6   8   0.2148   0.3245   0.2063  -0.2300   0.2155  -0.1778   0.00    0.0
2235 102502.000  -2853387.2958   4667322.5037   3268504.1426   6   8   0.2139   0.3229   0.2057  -0.2290   0.2148  -0.1772   0.00    0.0
2235 102503.000  -2853387.6533   4667322.4924   3268503.8441   6   8   0.2130   0.3213   0.2050  -0.2281   0.2141  -0.1767   0.00    0.0
2235 102504.000  -2853387.9994   4667322.4878   3268503.5069   6   8   0.2122   0.3197   0.2044  -0.2272   0.2134  -0.1761   0.00    0.0
2235 102505.000  -2853388.3790   4667322.5328   3268503.2049   6   8   0.2113   0.3183   0.2038  -0.2263   0.2127  -0.1756   0.00    0.0
2235 102506.000  -2853388.7198   4667322.4732   3268502.8822   6   8   0.2105   0.3168   0.2032  -0.2254   0.2120  -0.1751   0.00    0.0
2235 102507.000  -2853389.0629   4667322.5024   3268502.5519   6   8   0.2096   0.3154   0.2026  -0.2245   0.2114  -0.1745   0.00    0.0
2235 102508.000  -2853389.4062   4667322.5203   3268502.2259   6   8   0.2088   0.3141   0.2020  -0.2237   0.2107  -0.1740   0.00    0.0
2235 102509.000  -2853389.7265   4667322.5933   3268501.8722   6   8   0.2079   0.3127   0.2014  -0.2228   0.2101  -0.1735   0.00    0.0
2235 102510.000  -2853390.0416   4667322.6520   3268501.5230   6   8   0.2071   0.3114   0.2008  -0.2220   0.2095  -0.1730   0.00    0.0
2235 102511.000  -2853390.2337   4667322.8204   3268501.0991   6   8   0.2063   0.3101   0.2002  -0.2212   0.2089  -0.1725   0.00    0.0
2235 102512.000  -2853390.3266   4667323.0268   3268500.6939   6   8   0.2055   0.3088   0.1996  -0.2203   0.2083  -0.1720   0.00    0.0
2235 102513.000  -2853390.4347   4667323.2478   3268500.2805   6   8   0.2047   0.3076   0.1990  -0.2195   0.2077  -0.1715   0.00    0.0
2235 102514.000  -2853390.5391   4667323.4344   3268499.8678   6   8   0.2039   0.3063   0.1984  -0.2187   0.2071  -0.1710   0.00    0.0
2235 102515.000  -2853390.6627   4667323.6913   3268499.4754   6   7   0.2058   0.3395   0.2010  -0.2290   0.2188  -0.1740   0.00    0.0
2235 102516.000  -2853390.7658   4667323.9004   3268499.0667   6   8   0.2049   0.3374   0.2004  -0.2280   0.2180  -0.1734   0.00    0.0
2235 102517.000  -2853390.8801   4667324.1401   3268498.6739   6   8   0.2027   0.3188   0.1982  -0.2214   0.2110  -0.1711   0.00    0.0
2235 102518.000  -2853391.0836   4667324.2758   3268498.2475   6   8   0.2014   0.3117   0.1971  -0.2187   0.2083  -0.1701   0.00    0.0
2235 102519.000  -2853391.3080   4667324.4448   3268497.8780   6   8   0.2004   0.3075   0.1962  -0.2170   0.2067  -0.1693   0.00    0.0
2235 102520.000  -2853391.6003   4667324.5346   3268497.5149   6   8   0.1995   0.3046   0.1955  -0.2157   0.2055  -0.1687   0.00    0.0
2235 102521.000  -2853391.9816   4667324.5231   3268497.2195   6   8   0.1987   0.3022   0.1949  -0.2145   0.2046  -0.1681   0.00    0.0
2235 102522.000  -2853392.3466   4667324.5228   3268496.9255   6   8   0.1978   0.3003   0.1943  -0.2135   0.2037  -0.1676   0.00    0.0
2235 102523.000  -2853392.7085   4667324.4916   3268496.6209   6   8   0.1970   0.2985   0.1937  -0.2126   0.2030  -0.1671   0.00    0.0
2235 102524.000  -2853393.0700   4667324.4827   3268496.3227   6   8   0.1963   0.2969   0.1931  -0.2117   0.2023  -0.1666   0.00    0.0
2235 102525.000  -2853393.4149   4667324.5535   3268495.9743   6   8   0.1955   0.2955   0.1926  -0.2109   0.2016  -0.1661   0.00    0.0
2235 102526.000  -2853393.6753   4667324.6650   3268495.5890   6   8   0.1947   0.2941   0.1920  -0.2101   0.2010  -0.1656   0.00    0.0
2235 102527.000  -2853393.8856   4667324.8360   3268495.1951   6   8   0.1940   0.2928   0.1915  -0.2093   0.2004  -0.1651   0.00    0.0
2235 102528.000  -2853394.0904   4667325.0407   3268494.7844   6   8   0.1932   0.2915   0.1909  -0.2085   0.1998  -0.1647   0.00    0.0
2235 102529.000  -2853394.2645   4667325.1836   3268494.3808   6   8   0.1925   0.2903   0.1904  -0.2077   0.1992  -0.1642   0.00    0.0
2235 102530.000  -2853394.4583   4667325.3809   3268493.9795   6   8   0.1918   0.2891   0.1899  -0.2070   0.1987  -0.1638   0.00    0.0
2235 102531.000  -2853394.6425   4667325.5238   3268493.5829   6   8   0.1930   0.3119   0.1915  -0.2140   0.2066  -0.1657   0.00    0.0
2235 102532.000  -2853394.8183   4667325.7117   3268493.1657   6   8   0.1912   0.2979   0.1899  -0.2091   0.2015  -0.1640   0.00    0.0
2235 102533.000  -2853394.9934   4667325.9023   3268492.7667   6   8   0.1901   0.2925   0.1890  -0.2070   0.1994  -0.1631   0.00    0.0
2235 102534.000  -2853395.1574   4667326.0879   3268492.3729   6   8   0.1893   0.2893   0.1883  -0.2056   0.1982  -0.1625   0.00    0.0
2235 102535.000  -2853395.3223   4667326.2582   3268491.9970   6   8   0.1885   0.2869   0.1877  -0.2045   0.1972  -0.1620   0.00    0.0
2235 102536.000  -2853395.4912   4667326.4436   3268491.5973   6   8   0.1877   0.2850   0.1871  -0.2036   0.1965  -0.1615   0.00    0.0
2235 102537.000  -2853395.6520   4667326.6636   3268491.2135   6   8   0.1870   0.2835   0.1866  -0.2027   0.1958  -0.1610   0.00    0.0
2235 102538.000  -2853395.8031   4667326.8384   3268490.8329   6   8   0.1863   0.2820   0.1861  -0.2019   0.1951  -0.1606   0.00    0.0
2235 102539.000  -2853396.0770   4667326.9571   3268490.4970   6   8   0.1856   0.2807   0.1856  -0.2012   0.1946  -0.1602   0.00    0.0
2235 102540.000  -2853396.4347   4667327.0086   3268490.2038   6   8   0.1850   0.2795   0.1851  -0.2004   0.1940  -0.1598   0.00    0.0
2235 102541.000  -2853396.7798   4667327.0331   3268489.8926   6   8   0.1843   0.2783   0.1846  -0.1997   0.1935  -0.1593   0.00    0.0
2235 102542.000  -2853397.1337   4667327.0348   3268489.5683   6   8   0.1837   0.2772   0.1842  -0.1991   0.1930  -0.1589   0.00    0.0
2235 102543.000  -2853397.4879   4667327.0093   3268489.2488   6   7   0.1843   0.2935   0.1852  -0.2039   0.1985  -0.1602   0.00    0.0
2235 102544.000  -2853397.8734   4667326.9772   3268488.9563   6   7   0.1837   0.2921   0.1847  -0.2031   0.1978  -0.1598   0.00    0.0
2235 102545.000  -2853398.1938   4667326.9503   3268488.6980   6   8   0.1830   0.2906   0.1842  -0.2023   0.1972  -0.1593   0.00    0.0
2235 102546.000  -2853398.5649   4667326.9229   3268488.4309   6   8   0.1817   0.2806   0.1830  -0.1988   0.1936  -0.1581   0.00    0.0
2235 102547.000  -2853398.9390   4667326.9066   3268488.1619   6   8   0.1808   0.2766   0.1823  -0.1972   0.1921  -0.1574   0.00    0.0
2235 102548.000  -2853399.2448   4667327.0074   3268487.8289   6   8   0.1801   0.2742   0.1817  -0.1961   0.1911  -0.1569   0.00    0.0
2235 102549.000  -2853399.4365   4667327.1903   3268487.4280   6   8   0.1794   0.2724   0.1812  -0.1952   0.1904  -0.1565   0.00    0.0
2235 102550.000  -2853399.5787   4667327.3709   3268487.0060   6   8   0.1788   0.2709   0.1807  -0.1945   0.1898  -0.1561   0.00    0.0
2235 102551.000  -2853399.6798   4667327.6186   3268486.6075   6   8   0.1782   0.2696   0.1803  -0.1938   0.1892  -0.1557   0.00    0.0
2235 102552.000  -2853399.8155   4667327.8797   3268486.2029   6   8   0.1776   0.2685   0.1798  -0.1931   0.1887  -0.1553   0.00    0.0
2235 102553.000  -2853399.9523   4667328.1155   3268485.7974   6   8   0.1769   0.2674   0.1794  -0.1925   0.1882  -0.1549   0.00    0.0
2235 102554.000  -2853400.1123   4667328.2848   3268485.4193   6   8   0.1764   0.2664   0.1790  -0.1919   0.1877  -0.1546   0.00    0.0
2235 102555.000  -2853400.2962   4667328.3446   3268485.1001   6   8   0.1758   0.2654   0.1786  -0.1913   0.1873  -0.1542   0.00    0.0
2235 102556.000  -2853400.5272   4667328.5115   3268484.7787   6   8   0.1752   0.2644   0.1782  -0.1907   0.1868  -0.1539   0.00    0.0
2235 102557.000  -2853400.7643   4667328.6226   3268484.4368   6   8   0.1747   0.2635   0.1778  -0.1901   0.1864  -0.1535   0.00    0.0
2235 102558.000  -2853400.9936   4667328.7695   3268484.0910   6   8   0.1742   0.2626   0.1774  -0.1896   0.1860  -0.1532   0.00    0.0
2235 102559.000  -2853401.2123   4667328.8639   3268483.7485   6   8   0.1736   0.2618   0.1770  -0.1890   0.1856  -0.1528   0.00    0.0
2235 102560.000  -2853401.4645   4667329.0166   3268483.3526   6   8   0.1731   0.2609   0.1766  -0.1885   0.1852  -0.1525   0.00    0.0
2235 102561.000  -2853401.7197   4667329.0687   3268483.0018   6   8   0.1732   0.2697   0.1770  -0.1909   0.1880  -0.1531   0.00    0.0
2235 102562.000  -2853402.0496   4667329.1130   3268482.6760   6   8   0.1723   0.2636   0.1762  -0.1887   0.1858  -0.1523   0.00    0.0
2235 102563.000  -2853402.4068   4667329.1539   3268482.3523   6   8   0.1717   0.2610   0.1756  -0.1876   0.1848  -0.1518   0.00    0.0
2235 102564.000  -2853402.7608   4667329.1557   3268482.0454   6   8   0.1711   0.2594   0.1752  -0.1869   0.1841  -0.1514   0.00    0.0
2235 102565.000  -2853403.1246   4667329.1510   3268481.7970   6   8   0.1706   0.2581   0.1748  -0.1862   0.1836  -0.1510   0.00    0.0
2235 102566.000  -2853403.4391   4667329.2108   3268481.4026   6   7   0.1706   0.2640   0.1750  -0.1878   0.1855  -0.1514   0.00    0.0
2235 102567.000  -2853403.6060   4667329.3818   3268481.0235   6   7   0.1701   0.2630   0.1746  -0.1872   0.1850  -0.1510   0.00    0.0
2235 102568.000  -2853403.6762   4667329.6153   3268480.6043   6   7   0.1696   0.2619   0.1743  -0.1866   0.1845  -0.1507   0.00    0.0
2235 102569.000  -2853403.7325   4667329.8838   3268480.2120   6   7   0.1691   0.2609   0.1739  -0.1860   0.1840  -0.1504   0.00    0.0
2235 102570.000  -2853403.8544   4667330.1025   3268479.8325   6   8   0.1686   0.2598   0.1735  -0.1854   0.1836  -0.1500   0.00    0.0
2235 102571.000  -2853404.0357   4667330.2199   3268479.4911   6   8   0.1682   0.2589   0.1731  -0.1849   0.1831  -0.1498   0.00    0.0
2235 102572.000  -2853404.2445   4667330.3321   3268479.1665   6   8   0.1674   0.2547   0.1725  -0.1834   0.1816  -0.1492   0.00    0.0
2235 102573.000  -2853404.4416   4667330.4767   3268478.8584   6   8   0.1669   0.2528   0.1721  -0.1825   0.1808  -0.1488   0.00    0.0
2235 102574.000  -2853404.5952   4667330.5348   3268478.5456   6   8   0.1664   0.2516   0.1718  -0.1819   0.1804  -0.1484   0.00    0.0
2235 102575.000  -2853404.8168   4667330.6442   3268478.2106   6   8   0.1660   0.2506   0.1714  -0.1814   0.1799  -0.1481   0.00    0.0
2235 102576.000  -2853405.0064   4667330.7179   3268477.8923   6   8   0.1656   0.2497   0.1711  -0.1809   0.1795  -0.1478   0.00    0.0
2235 102577.000  -2853405.2234   4667330.8591   3268477.5923   6   8   0.1651   0.2489   0.1707  -0.1804   0.1791  -0.1475   0.00    0.0
2235 102578.000  -2853405.4290   4667330.9599   3268477.2807   6   8   0.1647   0.2482   0.1703  -0.1800   0.1787  -0.1472   0.00    0.0
2235 102579.000  -2853405.6239   4667331.0605   3268476.9713   6   7   0.1646   0.2514   0.1704  -0.1807   0.1798  -0.1474   0.00    0.0
2235 102580.000  -2853405.8348   4667331.1760   3268476.6688   6   7   0.1642   0.2506   0.1701  -0.1803   0.1793  -0.1471   0.00    0.0
2235 102581.000  -2853405.9981   4667331.2629   3268476.3402   6   7   0.1638   0.2498   0.1698  -0.1798   0.1790  -0.1468   0.00    0.0
2235 102582.000  -2853406.2335   4667331.3220   3268476.0775   6   7   0.1634   0.2490   0.1694  -0.1794   0.1786  -0.1466   0.00    0.0
2235 102583.000  -2853406.4670   4667331.3179   3268475.8190   6   7   0.1630   0.2483   0.1692  -0.1789   0.1782  -0.1463   0.00    0.0
2235 102584.000  -2853406.7278   4667331.3715   3268475.5692   6   7   0.1627   0.2475   0.1689  -0.1784   0.1778  -0.1461   0.00    0.0
2235 102585.000  -2853406.9723   4667331.4161   3268475.3004   6   7   0.1623   0.2468   0.1686  -0.1780   0.1775  -0.1458   0.00    0.0
2235 102586.000  -2853407.1939   4667331.4453   3268475.0326   6   7   0.1619   0.2461   0.1683  -0.1776   0.1771  -0.1456   0.00    0.0
2235 102587.000  -2853407.4207   4667331.5359   3268474.7515   6   7   0.1616   0.2454   0.1680  -0.1772   0.1767  -0.1454   0.00    0.0
2235 102588.000  -2853407.6187   4667331.6023   3268474.4911   6   7   0.1614   0.2448   0.1677  -0.1768   0.1764  -0.1451   0.00    0.0
2235 102589.000  -2853407.8101   4667331.6700   3268474.2079   6   7   0.1609   0.2441   0.1674  -0.1764   0.1761  -0.1449   0.00    0.0
2235 102590.000  -2853408.0190   4667331.7515   3268473.9210   6   7   0.1607   0.2435   0.1672  -0.1761   0.1758  -0.1447   0.00    0.0
2235 102591.000  -2853408.2006   4667331.8304   3268473.6694   6   7   0.1604   0.2429   0.1670  -0.1757   0.1755  -0.1445   0.00    0.0
2235 102592.000  -2853408.4034   4667331.9054   3268473.4245   6   7   0.1600   0.2423   0.1667  -0.1753   0.1751  -0.1443   0.00    0.0
2235 102593.000  -2853408.5982   4667331.9710   3268473.1476   6   8   0.1597   0.2417   0.1664  -0.1749   0.1748  -0.1440   0.00    0.0
2235 102594.000  -2853408.7875   4667332.0457   3268472.8785   6   8   0.1592   0.2401   0.1661  -0.1743   0.1741  -0.1437   0.00    0.0
2235 102595.000  -2853408.9836   4667332.1420   3268472.6089   6   8   0.1589   0.2393   0.1657  -0.1739   0.1738  -0.1435   0.00    0.0
2235 102596.000  -2853409.1830   4667332.2292   3268472.3678   6   8   0.1588   0.2387   0.1656  -0.1736   0.1735  -0.1433   0.00    0.0
2235 102597.000  -2853409.3382   4667332.2725   3268472.0960   6   8   0.1585   0.2380   0.1653  -0.1732   0.1732  -0.1430   0.00    0.0
2235 102598.000  -2853409.5222   4667332.3539   3268471.8402   6   8   0.1585   0.2375   0.1650  -0.1729   0.1730  -0.1428   0.00    0.0
2235 102599.000  -2853409.7400   4667332.4997   3268471.5875   6   7   0.1582   0.2388   0.1650  -0.1732   0.1733  -0.1429   0.00    0.0
2235 102600.000  -2853409.9252   4667332.5779   3268471.3254   6   7   0.1580   0.2384   0.1648  -0.1730   0.1730  -0.1427   0.00    0.0
2235 102601.000  -2853410.1497   4667332.6566   3268471.0423   6   7   0.1579   0.2385   0.1648  -0.1730   0.1730  -0.1427   0.00    0.0
2235 102602.000  -2853410.4197   4667332.6258   3268470.7820   6   7   0.1578   0.2382   0.1647  -0.1728   0.1730  -0.1425   0.00    0.0
2235 102603.000  -2853410.7451   4667332.6282   3268470.5726   6   7   0.1576   0.2379   0.1644  -0.1726   0.1727  -0.1424   0.00    0.0
2235 102604.000  -2853411.0268   4667332.6273   3268470.3440   6   7   0.1573   0.2377   0.1644  -0.1724   0.1725  -0.1423   0.00    0.0
2235 102605.000  -2853411.3121   4667332.5715   3268470.1325   6   7   0.1573   0.2374   0.1641  -0.1722   0.1723  -0.1420   0.00    0.0
2235 102606.000  -2853411.6459   4667332.5141   3268469.9114   6   7   0.1571   0.2372   0.1641  -0.1721   0.1723  -0.1420   0.00    0.0
2235 102607.000  -2853411.9980   4667332.5105   3268469.7011   6   7   0.1570   0.2370   0.1639  -0.1719   0.1721  -0.1419   0.00    0.0
2235 102608.000  -2853412.3311   4667332.4781   3268469.4762   6   7   0.1568   0.2369   0.1638  -0.1717   0.1720  -0.1418   0.00    0.0
2235 102609.000  -2853412.6012   4667332.3960   3268469.2492   6   7   0.1567   0.2367   0.1636  -0.1716   0.1718  -0.1416   0.00    0.0
2235 102610.000  -2853412.9199   4667332.3648   3268469.0290   6   8   0.1565   0.2366   0.1636  -0.1715   0.1717  -0.1416   0.00    0.0
2235 102611.000  -2853413.2497   4667332.3181   3268468.8143   6   8   0.1564   0.2349   0.1633  -0.1710   0.1711  -0.1414   0.00    0.0
2235 102612.000  -2853413.5481   4667332.3361   3268468.5980   6   8   0.1562   0.2343   0.1631  -0.1707   0.1708  -0.1413   0.00    0.0
2235 102613.000  -2853413.8193   4667332.3208   3268468.3260   6   7   0.1563   0.2364   0.1631  -0.1713   0.1714  -0.1414   0.00    0.0
2235 102614.000  -2853414.1144   4667332.3126   3268468.0539   6   8   0.1563   0.2364   0.1632  -0.1712   0.1714  -0.1413   0.00    0.0
2235 102615.000  -2853414.3631   4667332.3815   3268467.7194   6   8   0.1561   0.2346   0.1630  -0.1706   0.1707  -0.1411   0.00    0.0
2235 102616.000  -2853414.5879   4667332.5528   3268467.3773   6   8   0.1560   0.2338   0.1628  -0.1703   0.1704  -0.1410   0.00    0.0
2235 102617.000  -2853414.7705   4667332.7205   3268467.0150   6   8   0.1559   0.2334   0.1628  -0.1701   0.1703  -0.1410   0.00    0.0
2235 102618.000  -2853414.9518   4667332.8972   3268466.6408   6   8   0.1558   0.2332   0.1627  -0.1701   0.1702  -0.1409   0.00    0.0
2235 102619.000  -2853415.1254   4667333.0497   3268466.2177   6   8   0.1558   0.2329   0.1626  -0.1700   0.1700  -0.1408   0.00    0.0
2235 102620.000  -2853415.2857   4667333.2107   3268465.8246   6   7   0.1562   0.2369   0.1629  -0.1713   0.1714  -0.1412   0.00    0.0
2235 102621.000  -2853415.3871   4667333.4354   3268465.4286   6   8   0.1562   0.2371   0.1629  -0.1714   0.1714  -0.1412   0.00    0.0
2235 102622.000  -2853415.4282   4667333.5229   3268465.2062   6   8   0.1561   0.2346   0.1627  -0.1706   0.1705  -0.1409   0.00    0.0
2235 102623.000  -2853415.4800   4667333.6865   3268465.0223   6   8   0.1559   0.2337   0.1625  -0.1703   0.1701  -0.1408   0.00    0.0
2235 102624.000  -2853415.5450   4667333.7959   3268464.7950   6   8   0.1559   0.2333   0.1624  -0.1702   0.1700  -0.1407   0.00    0.0
2235 102625.000  -2853415.6177   4667333.9600   3268464.5645   6   8   0.1560   0.2330   0.1624  -0.1701   0.1699  -0.1407   0.00    0.0
2235 102626.000  -2853415.7057   4667334.1602   3268464.2130   6   8   0.1560   0.2328   0.1624  -0.1701   0.1698  -0.1407   0.00    0.0
2235 102627.000  -2853415.8483   4667334.3639   3268463.8945   6   8   0.1560   0.2327   0.1624  -0.1701   0.1698  -0.1407   0.00    0.0
2235 102628.000  -2853415.9885   4667334.4739   3268463.5923   6   8   0.1562   0.2327   0.1624  -0.1701   0.1697  -0.1407   0.00    0.0
2235 102629.000  -2853416.1664   4667334.6040   3268463.2931   6   8   0.1562   0.2327   0.1624  -0.1701   0.1697  -0.1407   0.00    0.0
2235 102630.000  -2853416.3321   4667334.7028   3268462.9812   6   8   0.1562   0.2327   0.1624  -0.1702   0.1697  -0.1407   0.00    0.0
2235 102631.000  -2853416.5046   4667334.8243   3268462.6947   6   8   0.1564   0.2327   0.1624  -0.1703   0.1697  -0.1407   0.00    0.0
2235 102632.000  -2853416.6483   4667334.9317   3268462.3853   6   8   0.1564   0.2327   0.1625  -0.1703   0.1697  -0.1408   0.00    0.0
2235 102633.000  -2853416.8309   4667335.0854   3268462.0937   6   8   0.1566   0.2328   0.1625  -0.1704   0.1697  -0.1408   0.00    0.0
2235 102634.000  -2853416.9920   4667335.1741   3268461.7991   6   7   0.1574   0.2416   0.1633  -0.1732   0.1727  -0.1416   0.00    0.0
2235 102635.000  -2853417.1526   4667335.2961   3268461.4999   6   7   0.1575   0.2420   0.1634  -0.1735   0.1729  -0.1417   0.00    0.0
2235 102636.000  -2853417.3168   4667335.4552   3268461.2188   6   7   0.1577   0.2426   0.1635  -0.1737   0.1731  -0.1418   0.00    0.0
2235 102637.000  -2853417.4906   4667335.5171   3268460.9206   6   7   0.1580   0.2432   0.1636  -0.1739   0.1732  -0.1419   0.00    0.0
2235 102638.000  -2853417.7199   4667335.5984   3268460.6437   6   7   0.1581   0.2437   0.1637  -0.1742   0.1734  -0.1420   0.00    0.0
2235 102639.000  -2853417.9393   4667335.5957   3268460.3623   6   7   0.1583   0.2443   0.1638  -0.1745   0.1736  -0.1421   0.00    0.0
2235 102640.000  -2853418.2287   4667335.5759   3268460.1432   6   7   0.1586   0.2450   0.1640  -0.1748   0.1739  -0.1423   0.00    0.0
2235 102641.000  -2853418.5335   4667335.5522   3268459.9324   6   8   0.1588   0.2456   0.1641  -0.1751   0.1741  -0.1424   0.00    0.0
2235 102642.000  -2853418.8466   4667335.5186   3268459.7393   6   8   0.1585   0.2397   0.1636  -0.1733   0.1721  -0.1419   0.00    0.0
2235 102643.000  -2853419.1451   4667335.4784   3268459.5334   6   8   0.1585   0.2379   0.1636  -0.1729   0.1714  -0.1418   0.00    0.0
2235 102644.000  -2853419.4548   4667335.4408   3268459.3087   6   8   0.1587   0.2371   0.1636  -0.1727   0.1712  -0.1418   0.00    0.0
2235 102645.000  -2853419.7150   4667335.4423   3268459.0749   6   8   0.1588   0.2367   0.1636  -0.1727   0.1711  -0.1418   0.00    0.0
2235 102646.000  -2853419.9371   4667335.4562   3268458.7980   6   8   0.1590   0.2365   0.1637  -0.1728   0.1710  -0.1419   0.00    0.0
2235 102647.000  -2853420.1432   4667335.5734   3268458.5207   6   8   0.1593   0.2365   0.1638  -0.1729   0.1710  -0.1420   0.00    0.0
2235 102648.000  -2853420.2383   4667335.6675   3268458.1937   6   8   0.1595   0.2365   0.1639  -0.1731   0.1711  -0.1421   0.00    0.0
2235 102649.000  -2853420.3566   4667335.8553   3268457.9096   6   7   0.1609   0.2515   0.1654  -0.1779   0.1763  -0.1436   0.00    0.0
2235 102650.000  -2853420.4780   4667336.0600   3268457.5893   6   8   0.1612   0.2523   0.1656  -0.1784   0.1766  -0.1438   0.00    0.0
2235 102651.000  -2853420.5649   4667336.1920   3268457.2749   6   7   0.1616   0.2532   0.1658  -0.1788   0.1769  -0.1440   0.00    0.0
2235 102652.000  -2853420.6569   4667336.3741   3268456.9576   6   7   0.1619   0.2540   0.1660  -0.1792   0.1773  -0.1442   0.00    0.0
2235 102653.000  -2853420.7506   4667336.5052   3268456.6592   6   7   0.1622   0.2549   0.1662  -0.1796   0.1776  -0.1443   0.00    0.0
2235 102654.000  -2853420.8569   4667336.6724   3268456.3534   6   7   0.1626   0.2558   0.1664  -0.1801   0.1780  -0.1446   0.00    0.0
2235 102655.000  -2853420.9208   4667336.8469   3268456.0519   6   7   0.1629   0.2568   0.1667  -0.1805   0.1783  -0.1448   0.00    0.0
2235 102656.000  -2853421.0144   4667336.9916   3268455.7419   6   8   0.1633   0.2576   0.1669  -0.1810   0.1787  -0.1450   0.00    0.0
2235 102657.000  -2853421.1065   4667337.1831   3268455.4357   6   8   0.1628   0.2480   0.1661  -0.1781   0.1753  -0.1442   0.00    0.0
2235 102658.000  -2853421.1876   4667337.3225   3268455.1213   6   8   0.1629   0.2450   0.1660  -0.1773   0.1743  -0.1440   0.00    0.0
2235 102659.000  -2853421.2561   4667337.5449   3268454.8365   6   8   0.1631   0.2437   0.1661  -0.1771   0.1738  -0.1440   0.00    0.0
2235 102660.000  -2853421.3629   4667337.6231   3268454.5290   6   8   0.1634   0.2430   0.1661  -0.1771   0.1737  -0.1441   0.00    0.0
2235 102661.000  -2853421.5812   4667337.7441   3268454.2609   6   8   0.1637   0.2427   0.1663  -0.1772   0.1736  -0.1442   0.00    0.0
2235 102662.000  -2853421.8833   4667337.7057   3268453.9853   6   8   0.1640   0.2427   0.1665  -0.1774   0.1736  -0.1443   0.00    0.0
2235 102663.000  -2853422.2741   4667337.6326   3268453.7524   6   8   0.1643   0.2427   0.1667  -0.1776   0.1737  -0.1445   0.00    0.0
2235 102664.000  -2853422.6948   4667337.5801   3268453.5134   6   8   0.1647   0.2429   0.1668  -0.1779   0.1738  -0.1446   0.00    0.0
2235 102665.000  -2853423.1130   4667337.5242   3268453.2532   6   8   0.1669   0.2668   0.1693  -0.1856   0.1824  -0.1471   0.00    0.0
2235 102666.000  -2853423.4989   4667337.4453   3268452.9947   6   7   0.1674   0.2680   0.1696  -0.1862   0.1828  -0.1474   0.00    0.0
2235 102667.000  -2853423.8824   4667337.4076   3268452.7325   6   7   0.1678   0.2691   0.1699  -0.1868   0.1833  -0.1477   0.00    0.0
2235 102668.000  -2853424.1793   4667337.3879   3268452.3921   6   7   0.1683   0.2702   0.1702  -0.1874   0.1837  -0.1479   0.00    0.0
2235 102669.000  -2853424.4519   4667337.5073   3268452.0455   6   7   0.1688   0.2714   0.1705  -0.1879   0.1842  -0.1482   0.00    0.0
2235 102670.000  -2853424.6456   4667337.6572   3268451.6572   6   7   0.1693   0.2726   0.1708  -0.1885   0.1847  -0.1485   0.00    0.0
2235 102671.000  -2853424.8119   4667337.8319   3268451.2458   6   7   0.1697   0.2737   0.1712  -0.1891   0.1851  -0.1488   0.00    0.0
2235 102672.000  -2853424.9621   4667338.0050   3268450.8349   6   8   0.1702   0.2748   0.1715  -0.1898   0.1856  -0.1491   0.00    0.0
2235 102673.000  -2853425.0991   4667338.2085   3268450.4114   6   8   0.1695   0.2604   0.1703  -0.1854   0.1804  -0.1478   0.00    0.0
2235 102674.000  -2853425.2457   4667338.3989   3268450.0346   6   8   0.1695   0.2558   0.1701  -0.1841   0.1789  -0.1476   0.00    0.0
2235 102675.000  -2853425.3609   4667338.6117   3268449.5985   6   8   0.1698   0.2538   0.1701  -0.1837   0.1782  -0.1475   0.00    0.0
2235 102676.000  -2853425.4302   4667338.8274   3268449.2107   6   8   0.1701   0.2527   0.1703  -0.1837   0.1779  -0.1476   0.00    0.0
2235 102677.000  -2853425.5177   4667339.0619   3268448.7992   6   8   0.1705   0.2522   0.1705  -0.1838   0.1778  -0.1478   0.00    0.0
2235 102678.000  -2853425.6431   4667339.2979   3268448.4456   6   8   0.1710   0.2520   0.1707  -0.1840   0.1778  -0.1480   0.00    0.0
2235 102679.000  -2853425.7811   4667339.4984   3268448.0575   6   8   0.1714   0.2520   0.1709  -0.1843   0.1779  -0.1482   0.00    0.0
2235 102680.000  -2853425.9626   4667339.6278   3268447.7241   6   8   0.1719   0.2522   0.1712  -0.1846   0.1780  -0.1484   0.00    0.0
2235 102681.000  -2853426.1634   4667339.7566   3268447.3794   6   8   0.1723   0.2524   0.1715  -0.1849   0.1781  -0.1486   0.00    0.0
2235 102682.000  -2853426.3418   4667339.8923   3268447.0286   6   7   0.1755   0.2876   0.1751  -0.1964   0.1910  -0.1523   0.00    0.0
2235 102683.000  -2853426.5084   4667339.9878   3268446.6992   6   7   0.1761   0.2889   0.1755  -0.1971   0.1915  -0.1527   0.00    0.0
2235 102684.000  -2853426.6945   4667340.0998   3268446.3816   6   7   0.1767   0.2902   0.1759  -0.1978   0.1921  -0.1530   0.00    0.0
2235 102685.000  -2853426.9330   4667340.1428   3268446.1140   6   7   0.1773   0.2916   0.1763  -0.1985   0.1927  -0.1534   0.00    0.0
2235 102686.000  -2853427.1879   4667340.1701   3268445.8155   6   8   0.1779   0.2928   0.1767  -0.1992   0.1933  -0.1538   0.00    0.0
2235 102687.000  -2853427.4486   4667340.2014   3268445.5116   6   8   0.1768   0.2738   0.1751  -0.1933   0.1863  -0.1520   0.00    0.0
2235 102688.000  -2853427.6900   4667340.2491   3268445.2270   6   8   0.1768   0.2676   0.1748  -0.1916   0.1841  -0.1516   0.00    0.0
2235 102689.000  -2853427.9531   4667340.2765   3268444.9416   6   8   0.1771   0.2648   0.1748  -0.1911   0.1831  -0.1516   0.00    0.0
2235 102690.000  -2853428.1917   4667340.3759   3268444.6878   6   8   0.1775   0.2634   0.1749  -0.1909   0.1827  -0.1517   0.00    0.0
2235 102691.000  -2853428.4295   4667340.4094   3268444.3979   6   8   0.1809   0.2998   0.1789  -0.2029   0.1963  -0.1557   0.00    0.0
2235 102692.000  -2853428.6474   4667340.4526   3268444.1307   6   8   0.1797   0.2791   0.1770  -0.1965   0.1886  -0.1537   0.00    0.0
2235 102693.000  -2853428.8813   4667340.4745   3268443.8438   6   8   0.1797   0.2723   0.1767  -0.1946   0.1862  -0.1533   0.00    0.0
2235 102694.000  -2853429.1321   4667340.5586   3268443.5755   6   8   0.1800   0.2692   0.1767  -0.1940   0.1851  -0.1532   0.00    0.0
2235 102695.000  -2853429.3580   4667340.6416   3268443.2938   6   8   0.1804   0.2676   0.1768  -0.1938   0.1846  -0.1533   0.00    0.0
2235 102696.000  -2853429.5844   4667340.6826   3268443.0177   6   8   0.1809   0.2668   0.1771  -0.1939   0.1844  -0.1535   0.00    0.0
2235 102697.000  -2853429.8106   4667340.7293   3268442.7376   6   7   0.1848   0.3087   0.1816  -0.2076   0.2002  -0.1580   0.00    0.0
2235 102698.000  -2853430.0000   4667340.7880   3268442.4374   6   7   0.1854   0.3102   0.1821  -0.2084   0.2008  -0.1585   0.00    0.0
2235 102699.000  -2853430.2306   4667340.8624   3268442.1607   6   7   0.1861   0.3117   0.1825  -0.2092   0.2015  -0.1589   0.00    0.0
2235 102700.000  -2853430.3867   4667340.9262   3268441.8734   6   7   0.1868   0.3132   0.1830  -0.2100   0.2021  -0.1593   0.00    0.0
2235 102701.000  -2853430.4945   4667341.0720   3268441.5507   6   7   0.1875   0.3147   0.1835  -0.2109   0.2028  -0.1597   0.00    0.0
2235 102702.000  -2853430.6098   4667341.3155   3268441.1735   6   7   0.1881   0.3162   0.1840  -0.2117   0.2035  -0.1602   0.00    0.0
2235 102703.000  -2853430.6815   4667341.5004   3268440.8406   6   8   0.1888   0.3175   0.1845  -0.2125   0.2041  -0.1606   0.00    0.0
2235 102704.000  -2853430.7916   4667341.5948   3268440.5023   6   8   0.1874   0.2927   0.1822  -0.2046   0.1947  -0.1582   0.00    0.0
2235 102705.000  -2853431.0071   4667341.7103   3268440.2112   6   8   0.1873   0.2844   0.1817  -0.2024   0.1917  -0.1576   0.00    0.0
2235 102706.000  -2853431.2788   4667341.7277   3268439.9387   6   8   0.1876   0.2806   0.1817  -0.2015   0.1904  -0.1575   0.00    0.0
2235 102707.000  -2853431.6409   4667341.6784   3268439.7100   6   8   0.1880   0.2786   0.1819  -0.2012   0.1897  -0.1576   0.00    0.0
2235 102708.000  -2853432.0068   4667341.6395   3268439.4666   6   8   0.1885   0.2775   0.1821  -0.2012   0.1894  -0.1578   0.00    0.0
2235 102709.000  -2853432.3232   4667341.5786   3268439.2358   6   8   0.1891   0.2769   0.1824  -0.2014   0.1893  -0.1580   0.00    0.0
2235 102710.000  -2853432.6024   4667341.6053   3268438.9956   6   8   0.1897   0.2767   0.1828  -0.2017   0.1894  -0.1583   0.00    0.0
2235 102711.000  -2853432.7799   4667341.6813   3268438.6543   6   8   0.1903   0.2768   0.1831  -0.2021   0.1895  -0.1586   0.00    0.0
2235 102712.000  -2853432.9104   4667341.8530   3268438.3101   6   8   0.1909   0.2769   0.1835  -0.2025   0.1897  -0.1589   0.00    0.0
2235 102713.000  -2853433.0465   4667341.9970   3268437.9603   6   7   0.1960   0.3335   0.1897  -0.2211   0.2113  -0.1651   0.00    0.0
2235 102714.000  -2853433.1899   4667342.1988   3268437.6189   6   7   0.1967   0.3351   0.1902  -0.2220   0.2120  -0.1656   0.00    0.0
2235 102715.000  -2853433.3324   4667342.3529   3268437.2818   6   7   0.1975   0.3367   0.1908  -0.2229   0.2128  -0.1661   0.00    0.0
2235 102716.000  -2853433.4417   4667342.5497   3268436.9109   6   7   0.1982   0.3383   0.1913  -0.2238   0.2135  -0.1666   0.00    0.0
2235 102717.000  -2853433.6375   4667342.6616   3268436.5304   6   7   0.1990   0.3399   0.1919  -0.2247   0.2143  -0.1670   0.00    0.0
2235 102718.000  -2853433.8336   4667342.7663   3268436.1787   6   8   0.1997   0.3412   0.1924  -0.2255   0.2149  -0.1675   0.00    0.0
2235 102719.000  -2853434.0647   4667342.8561   3268435.8140   6   8   0.2005   0.3428   0.1930  -0.2264   0.2157  -0.1680   0.00    0.0
2235 102720.000  -2853434.2745   4667342.9980   3268435.4885   6   7   0.2013   0.3449   0.1936  -0.2274   0.2165  -0.1685   0.00    0.0
2235 102721.000  -2853434.5464   4667343.1312   3268435.1109   6   7   0.2020   0.3465   0.1941  -0.2283   0.2173  -0.1690   0.00    0.0
2235 102722.000  -2853434.7957   4667343.2135   3268434.7453   6   7   0.2028   0.3482   0.1947  -0.2292   0.2181  -0.1695   0.00    0.0
2235 102723.000  -2853435.0841   4667343.2524   3268434.4359   6   7   0.2036   0.3499   0.1953  -0.2301   0.2189  -0.1700   0.00    0.0
2235 102724.000  -2853435.4723   4667343.2587   3268434.1317   6   7   0.2044   0.3515   0.1959  -0.2311   0.2196  -0.1705   0.00    0.0
