% program   : RTKPOST ver.2.4.2
% inp file  : D:\ligo\deg1.rnx
% inp file  : D:\ligo\nav-dge.rnx
% inp file  : D:\ligo\deg.sp3
% obs start : 2023/02/16 03:51:53.4 GPST (week2249 359513.4s)
% obs end   : 2023/02/16 04:15:53.2 GPST (week2249 360953.2s)
% pos mode  : ppp-kinematic
% solution  : forward
% elev mask : 15.0 deg
% dynamics  : off
% tidecorr  : on
% tropo opt : est ztd+grad
% ephemeris : precise
% navi sys  : gps glonass galileo
% antenna1  :                       ( 0.0000  0.0000  0.0000)
%
% (x/y/z-ecef=WGS84,Q=1:fix,2:float,3:sbas,4:dgps,5:single,6:ppp,ns=# of satellites)
%  GPST              x-ecef(m)      y-ecef(m)      z-ecef(m)   Q  ns   sdx(m)   sdy(m)   sdz(m)  sdxy(m)  sdyz(m)  sdzx(m) age(s)  ratio
2249 359513.400  -2403427.2539   5387364.1834   2417112.2502   6   5   6.6695  38.8460  37.3455   6.5834  38.0308   6.6999   0.00    0.0
2249 359513.500  -2403427.2044   5387363.4754   2417111.6590   6   5   4.8607  36.2742  34.9051   6.9976  35.5504   6.9867   0.00    0.0
2249 359513.600  -2403426.8926   5387362.7964   2417111.1369   6   5   4.0793  35.3095  33.9895   7.1042  34.6196   7.0545   0.00    0.0
2249 359513.700  -2403426.7026   5387362.5114   2417110.9647   6   5   3.6249  34.8033  33.5096   7.1513  34.1314   7.0826   0.00    0.0
2249 359513.800  -2403426.7538   5387362.4684   2417111.0400   6   5   3.3221  34.4914  33.2141   7.1772  33.8306   7.0974   0.00    0.0
2249 359513.900  -2403426.7686   5387362.5988   2417111.2619   6   5   3.1037  34.2798  33.0141   7.1934  33.6268   7.1062   0.00    0.0
2249 359514.000  -2403426.7727   5387362.3106   2417111.0727   6   5   2.9376  34.1268  32.8697   7.2043  33.4796   7.1119   0.00    0.0
2249 359514.100  -2403415.2796   5387352.0761   2417101.6145   6   4  33.9947  44.9820  42.6921 -30.7458  43.8098 -29.6099   0.00    0.0
2249 359514.200  -2403426.3835   5387361.8798   2417110.7734   6   5   5.5230  34.2223  32.9485   5.5717  33.5684   5.5746   0.00    0.0
2249 359514.300  -2403426.4700   5387361.7855   2417110.6726   6   5   4.1562  33.9913  32.7377   6.5342  33.3484   6.4726   0.00    0.0
2249 359514.400  -2403426.6029   5387361.9131   2417110.7677   6   5   3.5740  33.8784  32.6340   6.8174  33.2407   6.7373   0.00    0.0
2249 359514.500  -2403426.6409   5387362.0073   2417110.9232   6   5   3.2362  33.8019  32.5635   6.9503  33.1677   6.8611   0.00    0.0
2249 359514.600  -2403426.5800   5387362.0780   2417110.9535   6   5   3.0104  33.7436  32.5099   7.0261  33.1122   6.9314   0.00    0.0
2249 359514.700  -2403415.1487   5387352.1993   2417101.6525   6   4  33.7494  44.9785  42.6816 -30.8073  43.7789 -29.7164   0.00    0.0
2249 359514.800  -2403414.9473   5387352.2417   2417101.6252   6   4  33.7237  44.9656  42.6765 -30.8240  43.7843 -29.7161   0.00    0.0
2249 359514.900  -2403414.5766   5387351.7266   2417101.1641   6   4  33.7046  44.9600  42.6742 -30.8328  43.7852 -29.7199   0.00    0.0
2249 359515.000  -2403414.5022   5387351.7566   2417101.3119   6   4  33.6883  44.9563  42.6729 -30.8392  43.7852 -29.7242   0.00    0.0
2249 359515.100  -2403427.7037   5387363.8379   2417112.5504   6   5   5.4428  33.8969  32.6324   5.4600  33.2454   5.4700   0.00    0.0
2249 359515.200  -2403427.4020   5387363.6116   2417112.3971   6   5   4.0650  33.7122  32.4692   6.4524  33.0730   6.3948   0.00    0.0
2249 359515.300  -2403427.4465   5387363.4431   2417112.2773   6   5   3.4819  33.6369  32.4036   6.7490  33.0036   6.6719   0.00    0.0
2249 359515.400  -2403427.5177   5387363.0306   2417111.8776   6   5   3.1471  33.5908  32.3638   6.8910  32.9615   6.8042   0.00    0.0
2249 359515.500  -2403427.5135   5387362.9508   2417111.7658   6   5   2.9256  33.5575  32.3352   6.9736  32.9312   6.8809   0.00    0.0
2249 359515.600  -2403427.5200   5387362.9986   2417111.8376   6   5   2.7664  33.5312  32.3128   7.0271  32.9073   6.9305   0.00    0.0
2249 359515.700  -2403427.4447   5387362.9936   2417111.8650   6   5   2.6456  33.5094  32.2944   7.0644  32.8877   6.9649   0.00    0.0
2249 359515.800  -2403427.3360   5387362.9737   2417111.8145   6   5   2.5501  33.4908  32.2787   7.0916  32.8709   6.9899   0.00    0.0
2249 359515.900  -2403427.2128   5387362.9209   2417111.8277   6   5   2.4725  33.4746  32.2650   7.1121  32.8562   7.0088   0.00    0.0
2249 359516.000  -2403427.2014   5387363.0540   2417111.8976   6   5   2.4078  33.4602  32.2530   7.1280  32.8433   7.0234   0.00    0.0
2249 359516.100  -2403415.3646   5387352.3745   2417101.9774   6   4  33.5618  44.9346  42.6673 -30.8805  43.7774 -29.7673   0.00    0.0
2249 359516.200  -2403425.7906   5387361.7213   2417110.7424   6   5   5.4068  33.7316  32.4994   5.4232  33.1023   5.4207   0.00    0.0
2249 359516.300  -2403425.8738   5387361.9289   2417110.8676   6   5   4.0218  33.5629  32.3484   6.4206  32.9428   6.3548   0.00    0.0
2249 359516.400  -2403425.9105   5387362.0461   2417111.0236   6   5   3.4359  33.5012  32.2937   6.7189  32.8848   6.6356   0.00    0.0
2249 359516.500  -2403425.9562   5387361.6946   2417110.7567   6   5   3.1003  33.4668  32.2636   6.8621  32.8527   6.7705   0.00    0.0
2249 359516.600  -2403425.8949   5387361.3782   2417110.5182   6   5   2.8791  33.4435  32.2435   6.9458  32.8312   6.8493   0.00    0.0
2249 359516.700  -2403425.8183   5387361.3665   2417110.4750   6   5   2.7208  33.4260  32.2286   7.0004  32.8152   6.9007   0.00    0.0
2249 359516.800  -2403425.8567   5387361.2299   2417110.4550   6   5   2.6011  33.4119  32.2169   7.0386  32.8024   6.9366   0.00    0.0
2249 359516.900  -2403425.8633   5387361.3396   2417110.5571   6   5   2.5070  33.4002  32.2072   7.0666  32.7918   6.9629   0.00    0.0
2249 359517.000  -2403425.9074   5387361.3481   2417110.5445   6   5   2.4307  33.3900  32.1990   7.0879  32.7827   6.9830   0.00    0.0
2249 359517.100  -2403425.7610   5387360.7729   2417110.0618   6   5   2.3675  33.3811  32.1918   7.1046  32.7747   6.9986   0.00    0.0
2249 359517.200  -2403425.6892   5387360.7206   2417109.9419   6   5   2.3142  33.3730  32.1855   7.1179  32.7676   7.0111   0.00    0.0
2249 359517.300  -2403425.7512   5387361.3099   2417110.5249   6   5   2.2684  33.3657  32.1799   7.1287  32.7613   7.0213   0.00    0.0
2249 359517.400  -2403425.9104   5387362.0214   2417111.1859   6   5   2.2287  33.3591  32.1748   7.1376  32.7554   7.0296   0.00    0.0
2249 359517.500  -2403426.2327   5387362.8136   2417111.8992   6   5   2.1938  33.3529  32.1701   7.1450  32.7501   7.0365   0.00    0.0
2249 359517.600  -2403426.4801   5387362.9039   2417112.0041   6   5   2.1628  33.3472  32.1659   7.1512  32.7452   7.0423   0.00    0.0
2249 359517.700  -2403426.7771   5387364.0325   2417113.1042   6   5   2.1352  33.3418  32.1620   7.1565  32.7407   7.0472   0.00    0.0
2249 359517.800  -2403427.0372   5387364.4859   2417113.4962   6   5   2.1103  33.3368  32.1585   7.1609  32.7364   7.0514   0.00    0.0
2249 359517.900  -2403427.1796   5387364.6945   2417113.7381   6   5   2.0878  33.3320  32.1551   7.1647  32.7325   7.0550   0.00    0.0
2249 359518.000  -2403427.3504   5387364.6805   2417113.6969   6   5   2.0673  33.3276  32.1521   7.1680  32.7287   7.0580   0.00    0.0
2249 359518.100  -2403427.3994   5387364.3170   2417113.3249   6   5   2.0485  33.3233  32.1492   7.1708  32.7252   7.0606   0.00    0.0
2249 359518.200  -2403427.6129   5387364.6379   2417113.6487   6   5   2.0313  33.3193  32.1466   7.1732  32.7220   7.0629   0.00    0.0
2249 359518.300  -2403418.4598   5387356.0102   2417105.5479   6   4  35.8352  48.7249  46.2399 -34.9376  47.4593 -33.7543   0.00    0.0
2249 359518.400  -2403419.1189   5387357.2490   2417106.6965   6   4  35.8337  48.7240  46.2404 -34.9377  47.4591 -33.7549   0.00    0.0
2249 359518.500  -2403419.1412   5387357.4736   2417106.9334   6   4  35.8323  48.7230  46.2409 -34.9378  47.4589 -33.7555   0.00    0.0
2249 359518.600  -2403419.1988   5387357.4274   2417106.9120   6   4  35.8309  48.7221  46.2414 -34.9378  47.4587 -33.7560   0.00    0.0
2249 359518.700  -2403418.9158   5387356.9227   2417106.4157   6   4  35.8295  48.7212  46.2419 -34.9379  47.4585 -33.7566   0.00    0.0
2249 359518.800  -2403418.7170   5387356.3706   2417105.9416   6   4  35.8283  48.7202  46.2424 -34.9379  47.4584 -33.7571   0.00    0.0
2249 359518.900  -2403422.1336   5387362.5710   2417111.7683   6   4  35.8270  48.7193  46.2429 -34.9380  47.4582 -33.7576   0.00    0.0
2249 359519.000  -2403422.1748   5387362.7311   2417111.8823   6   4  35.8258  48.7184  46.2434 -34.9380  47.4580 -33.7581   0.00    0.0
2249 359519.100  -2403421.9013   5387362.1770   2417111.3786   6   4  35.8246  48.7174  46.2439 -34.9380  47.4579 -33.7586   0.00    0.0
2249 359519.200  -2403421.8456   5387361.8621   2417111.1721   6   4  35.8234  48.7165  46.2445 -34.9380  47.4577 -33.7591   0.00    0.0
2249 359519.300  -2403423.8637   5387358.5954   2417112.7400   6   3  66.2406  75.0139  72.3088  44.2458 -30.3092 -65.0920   0.00    0.0
2249 359519.400  -2403423.6768   5387358.1320   2417112.2725   6   3  66.2391  75.0139  72.3094  44.2456 -30.3106 -65.0920   0.00    0.0
2249 359519.500  -2403423.8737   5387357.7467   2417112.3942   6   3  66.2377  75.0140  72.3101  44.2454 -30.3120 -65.0920   0.00    0.0
2249 359519.600  -2403423.3834   5387356.0697   2417111.3918   6   3  66.2362  75.0140  72.3108  44.2453 -30.3134 -65.0919   0.00    0.0
2249 359519.700  -2403424.2199   5387362.1395   2417115.5625   6   2  66.3230  79.2362  74.2588  43.2476 -22.0870 -65.5342   0.00    0.0
2249 359519.800  -2403423.5536   5387354.3494   2417110.9480   6   3  66.2334  75.0140  72.3122  44.2449 -30.3162 -65.0919   0.00    0.0
2249 359519.900  -2403423.8662   5387354.8901   2417111.4813   6   3  66.2319  75.0141  72.3128  44.2448 -30.3177 -65.0918   0.00    0.0
2249 359520.000  -2403423.1123   5387354.3104   2417110.5053   6   3  66.2305  75.0141  72.3135  44.2446 -30.3191 -65.0917   0.00    0.0
2249 359520.100  -2403423.5334   5387354.2283   2417111.0634   6   3  66.2291  75.0141  72.3142  44.2444 -30.3205 -65.0917   0.00    0.0
2249 359520.200  -2403421.4009   5387343.9943   2417105.4292   6   3  66.2277  75.0141  72.3149  44.2442 -30.3220 -65.0916   0.00    0.0
2249 359520.300  -2403422.0556   5387351.3394   2417110.0489   6   2  66.3146  79.2366  74.2629  43.2458 -22.0986 -65.5342   0.00    0.0
2249 359520.400  -2403422.7202   5387351.8285   2417110.8728   6   2  66.3132  79.2366  74.2636  43.2455 -22.1005 -65.5341   0.00    0.0
2249 359520.500  -2403423.0681   5387352.3800   2417111.4650   6   2  66.3119  79.2367  74.2643  43.2452 -22.1024 -65.5341   0.00    0.0
2249 359520.600  -2403422.9704   5387352.8369   2417111.6852   6   2  66.3105  79.2367  74.2650  43.2449 -22.1043 -65.5341   0.00    0.0
2249 359520.700  -2403423.2108   5387353.0452   2417112.0886   6   2  66.3091  79.2368  74.2657  43.2446 -22.1063 -65.5340   0.00    0.0
2249 359520.800  -2403422.9208   5387352.7163   2417111.8628   6   2  66.3078  79.2368  74.2664  43.2443 -22.1082 -65.5340   0.00    0.0
2249 359520.900  -2403423.7667   5387359.2053   2417114.9156   6   2  66.3064  79.2369  74.2671  43.2440 -22.1101 -65.5339   0.00    0.0
2249 359521.000  -2403423.5708   5387358.6190   2417114.4262   6   2  66.3051  79.2369  74.2678  43.2437 -22.1120 -65.5339   0.00    0.0
2249 359521.100  -2403423.0394   5387358.4286   2417114.0572   6   2  66.3037  79.2370  74.2685  43.2434 -22.1139 -65.5338   0.00    0.0
2249 359521.200  -2403423.1609   5387358.8190   2417114.3890   6   2  66.3024  79.2371  74.2692  43.2431 -22.1158 -65.5338   0.00    0.0
2249 359521.300  -2403423.5033   5387358.4288   2417114.6026   6   2  66.3010  79.2371  74.2700  43.2428 -22.1178 -65.5337   0.00    0.0
2249 359521.400  -2403423.5492   5387359.3265   2417115.0972   6   2  66.2997  79.2372  74.2707  43.2425 -22.1197 -65.5336   0.00    0.0
2249 359521.500  -2403423.8017   5387359.1563   2417115.4337   6   2  66.2984  79.2372  74.2714  43.2422 -22.1216 -65.5336   0.00    0.0
2249 359521.600  -2403423.9844   5387359.5421   2417115.8646   6   2  66.2970  79.2373  74.2722  43.2419 -22.1235 -65.5335   0.00    0.0
2249 359521.700  -2403424.5263   5387360.8945   2417116.8053   6   2  66.2957  79.2373  74.2729  43.2416 -22.1254 -65.5334   0.00    0.0
2249 359521.800  -2403424.7618   5387361.3172   2417117.2383   6   2  66.2944  79.2374  74.2736  43.2413 -22.1273 -65.5333   0.00    0.0
2249 359521.900  -2403424.6711   5387361.2729   2417117.0773   6   2  66.2931  79.2374  74.2744  43.2410 -22.1292 -65.5332   0.00    0.0
2249 359522.000  -2403424.9386   5387361.4900   2417117.4412   6   2  66.2917  79.2375  74.2751  43.2407 -22.1311 -65.5332   0.00    0.0
2249 359522.100  -2403425.0441   5387361.7102   2417117.7744   6   2  66.2904  79.2375  74.2759  43.2404 -22.1330 -65.5331   0.00    0.0
2249 359522.200  -2403424.3102   5387362.7097   2417117.2229   6   3  36.5334  53.2750  50.6627 -37.0766  51.9228 -35.9185   0.00    0.0
2249 359522.300  -2403424.4205   5387362.8251   2417117.1879   6   3  36.5248  53.2678  50.6577 -37.0851  51.9287 -35.9108   0.00    0.0
2249 359522.400  -2403424.2503   5387362.4094   2417116.8576   6   3  36.5216  53.2647  50.6565 -37.0880  51.9306 -35.9085   0.00    0.0
2249 359522.500  -2403423.6088   5387359.9419   2417115.6245   6   2  66.2852  79.2378  74.2789  43.2393 -22.1407 -65.5327   0.00    0.0
2249 359522.600  -2403419.8837   5387352.3373   2417108.6834   6   4  33.4556  44.8972  42.7041 -30.8863  43.7517 -29.8367   0.00    0.0
2249 359522.700  -2403419.8564   5387353.1069   2417108.9405   6   4  33.4471  44.8832  42.6982 -30.8956  43.7561 -29.8285   0.00    0.0
2249 359522.800  -2403420.2831   5387354.3791   2417109.7246   6   4  33.4440  44.8780  42.6966 -30.8987  43.7575 -29.8259   0.00    0.0
2249 359522.900  -2403420.7135   5387355.3424   2417110.3762   6   4  33.4421  44.8749  42.6960 -30.9002  43.7581 -29.8248   0.00    0.0
2249 359523.000  -2403425.3642   5387358.5821   2417113.6512   6   5   5.5867  33.6095  32.4397   5.0399  33.0069   5.0771   0.00    0.0
2249 359523.100  -2403423.0906   5387353.9206   2417111.9061   6   4  10.6287  64.8669  33.1685 -22.4655  38.7373  -6.0683   0.00    0.0
2249 359523.200  -2403421.6715   5387353.6938   2417110.5559   6   5   3.6580  33.4732  32.2410   6.3786  32.8072   6.3940   0.00    0.0
2249 359523.300  -2403420.9551   5387354.1247   2417110.0234   6   5   3.2899  33.3858  32.2119   6.6011  32.7692   6.5617   0.00    0.0
2249 359523.400  -2403419.1696   5387351.8341   2417107.4311   6   5   3.0468  33.3471  32.1942   6.7201  32.7478   6.6605   0.00    0.0
2249 359523.500  -2403417.9076   5387350.9453   2417106.2017   6   5   2.8705  33.3236  32.1822   6.7967  32.7335   6.7265   0.00    0.0
2249 359523.600  -2403417.0864   5387350.7785   2417105.3482   6   5   2.7353  33.3074  32.1734   6.8507  32.7230   6.7738   0.00    0.0
2249 359523.700  -2403417.2014   5387355.0481   2417105.8395   6   4  10.3552  64.8331  33.1018 -22.5770  38.7927  -5.6465   0.00    0.0
2249 359523.800  -2403416.7783   5387354.4120   2417105.7896   6   5   2.5824  33.3821  32.1642   6.8365  32.7233   6.8235   0.00    0.0
2249 359523.900  -2403416.1235   5387353.4019   2417104.7009   6   5   2.4860  33.3206  32.1588   6.9089  32.7101   6.8527   0.00    0.0
2249 359524.000  -2403415.6438   5387352.8633   2417104.4539   6   5   2.4158  33.2970  32.1549   6.9442  32.7032   6.8731   0.00    0.0
2249 359524.100  -2403410.1784   5387347.6487   2417099.4622   6   5   4.2815  33.4733  32.3244   5.9857  32.8794   5.9616   0.00    0.0
2249 359524.200  -2403411.2453   5387349.0057   2417100.6493   6   5   3.3666  33.3632  32.2303   6.5446  32.7794   6.4844   0.00    0.0
2249 359524.300  -2403414.2195   5387359.3466   2417103.8435   6   4  10.4152  64.8289  33.1234 -22.5749  38.7884  -5.7701   0.00    0.0
2249 359524.400  -2403413.5974   5387352.9923   2417102.7988   6   5   2.8050  33.3970  32.1841   6.7330  32.7407   6.7265   0.00    0.0
2249 359524.500  -2403413.6092   5387352.7870   2417102.7662   6   5   2.6365  33.3288  32.1725   6.8391  32.7212   6.7869   0.00    0.0
2249 359524.600  -2403414.2836   5387354.1847   2417104.1471   6   5   2.5215  33.3012  32.1650   6.8937  32.7104   6.8255   0.00    0.0
2249 359524.700  -2403415.3284   5387356.0687   2417105.4352   6   5   2.4343  33.2851  32.1597   6.9296  32.7031   6.8532   0.00    0.0
2249 359524.800  -2403415.5730   5387355.5951   2417104.6197   6   5   2.3649  33.2740  32.1556   6.9557  32.6975   6.8741   0.00    0.0
2249 359524.900  -2403416.0154   5387357.6309   2417105.0304   6   4  10.3255  64.8179  33.0983 -22.6102  38.8059  -5.6204   0.00    0.0
2249 359525.000  -2403416.4329   5387358.4817   2417105.0116   6   5   2.3064  33.3553  32.1522   6.9075  32.7040   6.8912   0.00    0.0
2249 359525.100  -2403415.5347   5387384.2820   2417129.7987   6   6   1.6560   3.3163   3.5527  -1.1818   3.2015  -0.6576   0.00    0.0
2249 359525.200  -2403416.0545   5387382.4044   2417127.7589   6   6   1.5840   2.5338   2.7392  -1.2233   2.4133  -0.8756   0.00    0.0
2249 359525.300  -2403416.2839   5387382.9814   2417128.1907   6   6   1.5283   2.2028   2.3709  -1.2127   2.0760  -0.9283   0.00    0.0
2249 359525.400  -2403416.2323   5387383.2551   2417128.4862   6   6   1.4811   2.0107   2.1486  -1.1922   1.8785  -0.9418   0.00    0.0
2249 359525.500  -2403419.8508   5387383.1962   2417115.0464   6   5   6.6134   1.8970  23.6807   0.4382   2.9573  12.3056   0.00    0.0
2249 359525.600  -2403416.0290   5387384.1010   2417130.6202   6   6   1.5164   1.7872   2.8164  -1.1406   1.6610   0.5814   0.00    0.0
2249 359525.700  -2403416.5904   5387384.9246   2417130.9967   6   6   1.4210   1.7139   2.2661  -1.1218   1.5764  -0.5652   0.00    0.0
2249 359525.800  -2403417.2857   5387385.5340   2417131.3755   6   6   1.3698   1.6548   2.0248  -1.1018   1.5118  -0.7145   0.00    0.0
2249 359525.900  -2403417.8886   5387385.9902   2417131.5519   6   6   1.3314   1.6058   1.8781  -1.0822   1.4589  -0.7663   0.00    0.0
2249 359526.000  -2403418.0516   5387386.3151   2417132.2669   6   6   1.2992   1.5642   1.7752  -1.0636   1.4142  -0.7873   0.00    0.0
2249 359526.100  -2403422.0056   5387386.2935   2417118.6460   6   5   6.5868   1.5494  23.6631   0.7421   2.8102  12.3251   0.00    0.0
2249 359526.200  -2403417.9077   5387386.5001   2417133.9504   6   6   1.3722   1.4971   2.6578  -1.0225   1.3595   0.7584   0.00    0.0
2249 359526.300  -2403417.8701   5387386.7050   2417134.9515   6   6   1.2800   1.4691   2.1041  -1.0101   1.3198  -0.3138   0.00    0.0
2249 359526.400  -2403418.0217   5387386.9070   2417135.9007   6   6   1.2354   1.4442   1.8729  -0.9960   1.2898  -0.5520   0.00    0.0
2249 359526.500  -2403418.2568   5387387.2795   2417136.9430   6   6   1.2041   1.4218   1.7386  -0.9821   1.2640  -0.6288   0.00    0.0
2249 359526.600  -2403418.5181   5387387.3289   2417137.2667   6   6   1.1786   1.4014   1.6476  -0.9686   1.2411  -0.6638   0.00    0.0
2249 359526.700  -2403418.7798   5387387.4366   2417137.5452   6   6   1.1565   1.3828   1.5803  -0.9557   1.2204  -0.6812   0.00    0.0
2249 359526.800  -2403418.9527   5387387.6300   2417137.9325   6   6   1.1367   1.3657   1.5274  -0.9433   1.2014  -0.6895   0.00    0.0
2249 359526.900  -2403419.2372   5387387.6196   2417137.6384   6   6   1.1185   1.3499   1.4843  -0.9314   1.1840  -0.6925   0.00    0.0
2249 359527.000  -2403419.3848   5387387.7102   2417137.5448   6   6   1.1017   1.3353   1.4480  -0.9201   1.1679  -0.6924   0.00    0.0
2249 359527.100  -2403419.4190   5387387.6922   2417137.5072   6   6   1.0858   1.3217   1.4169  -0.9092   1.1529  -0.6902   0.00    0.0
2249 359527.200  -2403419.3631   5387387.5742   2417137.2368   6   6   1.0709   1.3091   1.3896  -0.8987   1.1389  -0.6866   0.00    0.0
2249 359527.300  -2403419.3049   5387387.3419   2417136.8422   6   6   1.0568   1.2972   1.3655  -0.8886   1.1258  -0.6821   0.00    0.0
2249 359527.400  -2403419.1918   5387387.4174   2417136.6592   6   6   1.0434   1.2861   1.3439  -0.8790   1.1135  -0.6770   0.00    0.0
2249 359527.500  -2403419.1596   5387387.6522   2417136.6322   6   6   1.0306   1.2757   1.3244  -0.8697   1.1020  -0.6715   0.00    0.0
2249 359527.600  -2403419.0880   5387387.8202   2417136.5582   6   6   1.0184   1.2658   1.3067  -0.8607   1.0910  -0.6657   0.00    0.0
2249 359527.700  -2403419.0884   5387387.6626   2417136.1571   6   6   1.0067   1.2565   1.2904  -0.8521   1.0807  -0.6597   0.00    0.0
2249 359527.800  -2403419.2481   5387387.5595   2417136.0219   6   6   0.9954   1.2477   1.2754  -0.8438   1.0709  -0.6537   0.00    0.0
2249 359527.900  -2403419.1744   5387387.4559   2417135.8244   6   6   0.9846   1.2393   1.2616  -0.8358   1.0616  -0.6475   0.00    0.0
2249 359528.000  -2403419.1789   5387387.4246   2417135.7547   6   6   0.9742   1.2314   1.2487  -0.8281   1.0528  -0.6414   0.00    0.0
2249 359528.100  -2403419.1177   5387387.4449   2417135.8745   6   6   0.9642   1.2239   1.2366  -0.8206   1.0444  -0.6353   0.00    0.0
2249 359528.200  -2403419.0958   5387387.5297   2417136.0052   6   6   0.9546   1.2167   1.2254  -0.8133   1.0364  -0.6292   0.00    0.0
2249 359528.300  -2403419.0337   5387387.5560   2417136.0959   6   6   0.9452   1.2098   1.2148  -0.8063   1.0287  -0.6231   0.00    0.0
2249 359528.400  -2403418.9973   5387387.6298   2417136.3272   6   6   0.9362   1.2033   1.2048  -0.7995   1.0214  -0.6172   0.00    0.0
2249 359528.500  -2403418.8795   5387387.4576   2417136.3558   6   6   0.9275   1.1971   1.1955  -0.7930   1.0144  -0.6113   0.00    0.0
2249 359528.600  -2403418.8780   5387387.4411   2417136.4151   6   6   0.9191   1.1911   1.1866  -0.7866   1.0077  -0.6055   0.00    0.0
2249 359528.700  -2403418.6952   5387387.4270   2417136.6655   6   6   0.9109   1.1853   1.1782  -0.7804   1.0012  -0.5998   0.00    0.0
2249 359528.800  -2403418.6076   5387387.4020   2417136.8939   6   6   0.9030   1.1798   1.1702  -0.7744   0.9951  -0.5942   0.00    0.0
2249 359528.900  -2403418.4256   5387387.4007   2417137.2883   6   6   0.8953   1.1746   1.1626  -0.7686   0.9891  -0.5886   0.00    0.0
2249 359529.000  -2403418.3109   5387387.3726   2417137.6226   6   6   0.8878   1.1695   1.1553  -0.7629   0.9834  -0.5832   0.00    0.0
2249 359529.100  -2403418.2853   5387387.3114   2417137.7039   6   6   0.8805   1.1646   1.1484  -0.7574   0.9779  -0.5778   0.00    0.0
2249 359529.200  -2403418.2608   5387386.9227   2417137.4313   6   6   0.8735   1.1599   1.1418  -0.7521   0.9726  -0.5726   0.00    0.0
2249 359529.300  -2403418.2177   5387386.5821   2417137.2250   6   6   0.8666   1.1554   1.1355  -0.7468   0.9675  -0.5674   0.00    0.0
2249 359529.400  -2403418.1198   5387386.4370   2417137.1878   6   6   0.8599   1.1511   1.1295  -0.7418   0.9625  -0.5624   0.00    0.0
2249 359529.500  -2403418.1821   5387386.3381   2417137.1703   6   6   0.8534   1.1469   1.1237  -0.7368   0.9578  -0.5574   0.00    0.0
2249 359529.600  -2403418.0281   5387386.0507   2417136.9980   6   6   0.8471   1.1428   1.1181  -0.7320   0.9531  -0.5525   0.00    0.0
2249 359529.700  -2403418.1219   5387385.7858   2417136.6581   6   6   0.8409   1.1389   1.1128  -0.7273   0.9487  -0.5477   0.00    0.0
2249 359529.800  -2403418.1005   5387385.6531   2417136.5383   6   6   0.8349   1.1351   1.1077  -0.7228   0.9444  -0.5430   0.00    0.0
2249 359529.900  -2403417.9954   5387385.3560   2417136.3981   6   6   0.8291   1.1315   1.1027  -0.7183   0.9402  -0.5383   0.00    0.0
2249 359530.000  -2403417.9876   5387385.0616   2417136.1290   6   6   0.8233   1.1279   1.0980  -0.7139   0.9362  -0.5338   0.00    0.0
2249 359530.100  -2403420.3552   5387386.3422   2417137.3362   6   5  33.0100  22.9303  21.2161 -27.5007  22.0483 -26.4477   0.00    0.0
2249 359530.200  -2403419.7203   5387385.5418   2417136.5571   6   6   5.1661   3.7140   3.4518  -4.3084   3.5298  -4.1215   0.00    0.0
2249 359530.300  -2403419.6294   5387385.3169   2417136.4177   6   6   3.6737   2.7270   2.5440  -3.0670   2.5649  -2.9186   0.00    0.0
2249 359530.400  -2403419.5051   5387384.7741   2417135.9754   6   6   3.0154   2.3049   2.1568  -2.5201   2.1480  -2.3858   0.00    0.0
2249 359530.500  -2403419.3860   5387384.3716   2417135.5214   6   6   2.6246   2.0611   1.9334  -2.1957   1.9050  -2.0684   0.00    0.0
2249 359530.600  -2403420.3593   5387360.8516   2417112.8456   6   5   2.7928  33.2350  32.1988   6.7607  32.7073   6.6812   0.00    0.0
2249 359530.700  -2403419.1556   5387383.7845   2417135.2215   6   6   2.1637   1.7839   1.6796  -1.8138   1.6258  -1.6919   0.00    0.0
2249 359530.800  -2403420.1886   5387360.7271   2417113.0580   6   5   2.5119  33.2156  32.1835   6.8572  32.6901   6.7727   0.00    0.0
2249 359530.900  -2403420.1472   5387360.6501   2417113.1183   6   5   2.4171  33.2093  32.1790   6.8867  32.6847   6.8007   0.00    0.0
2249 359531.000  -2403420.1113   5387360.3319   2417112.9636   6   5   2.3405  33.2044  32.1756   6.9094  32.6806   6.8222   0.00    0.0
2249 359531.100  -2403420.1356   5387360.1888   2417112.9840   6   5   2.2772  33.2003  32.1731   6.9273  32.6773   6.8392   0.00    0.0
2249 359531.200  -2403420.0832   5387359.9939   2417112.9466   6   5   2.2239  33.1969  32.1711   6.9418  32.6746   6.8529   0.00    0.0
2249 359531.300  -2403420.0711   5387359.8359   2417112.8620   6   5   2.1784  33.1940  32.1695   6.9536  32.6724   6.8642   0.00    0.0
2249 359531.400  -2403419.9813   5387359.7095   2417112.7057   6   5   2.1390  33.1914  32.1683   6.9635  32.6706   6.8737   0.00    0.0
2249 359531.500  -2403419.8923   5387359.4478   2417112.6972   6   5   2.1045  33.1891  32.1674   6.9719  32.6690   6.8816   0.00    0.0
2249 359531.600  -2403419.8911   5387359.2136   2417112.4903   6   5   2.0740  33.1871  32.1666   6.9790  32.6676   6.8884   0.00    0.0
2249 359531.700  -2403419.8803   5387359.3165   2417112.6652   6   5   2.0469  33.1853  32.1661   6.9850  32.6664   6.8942   0.00    0.0
2249 359531.800  -2403419.7640   5387359.1241   2417112.6650   6   5   2.0226  33.1836  32.1657   6.9903  32.6654   6.8993   0.00    0.0
2249 359531.900  -2403419.6835   5387358.6740   2417112.4213   6   5   2.0006  33.1820  32.1654   6.9948  32.6645   6.9037   0.00    0.0
2249 359532.000  -2403419.5923   5387358.5468   2417112.3797   6   5   1.9807  33.1806  32.1652   6.9988  32.6637   6.9075   0.00    0.0
2249 359532.100  -2403419.5762   5387358.2085   2417112.1907   6   5   1.9625  33.1793  32.1650   7.0023  32.6630   6.9109   0.00    0.0
2249 359532.200  -2403419.6229   5387358.1541   2417112.1156   6   5   1.9459  33.1780  32.1650   7.0054  32.6624   6.9138   0.00    0.0
2249 359532.300  -2403419.5009   5387358.2538   2417112.2525   6   5   1.9305  33.1768  32.1650   7.0081  32.6618   6.9164   0.00    0.0
2249 359532.400  -2403419.5244   5387358.4990   2417112.4666   6   5   1.9163  33.1757  32.1651   7.0104  32.6613   6.9188   0.00    0.0
2249 359532.500  -2403419.5272   5387358.6440   2417112.5479   6   5   1.9032  33.1746  32.1652   7.0125  32.6609   6.9208   0.00    0.0
2249 359532.600  -2403419.4603   5387358.7079   2417112.6165   6   5   1.8909  33.1736  32.1654   7.0144  32.6604   6.9226   0.00    0.0
2249 359532.700  -2403419.5325   5387358.8086   2417112.4198   6   5   1.9437  33.2832  32.1680   6.9197  32.6764   6.9102   0.00    0.0
2249 359532.800  -2403419.4161   5387358.4504   2417112.2660   6   5   1.9008  33.2263  32.1671   6.9702  32.6679   6.9187   0.00    0.0
2249 359532.900  -2403419.5383   5387358.7851   2417112.0974   6   5   1.8799  33.2068  32.1669   6.9878  32.6648   6.9224   0.00    0.0
2249 359533.000  -2403419.6282   5387359.2854   2417112.2775   6   5   1.8650  33.1966  32.1671   6.9970  32.6632   6.9247   0.00    0.0
2249 359533.100  -2403419.6906   5387359.7446   2417112.1009   6   5   1.8529  33.1902  32.1673   7.0028  32.6621   6.9264   0.00    0.0
2249 359533.200  -2403419.8106   5387360.0614   2417112.1984   6   5   1.8423  33.1856  32.1675   7.0069  32.6614   6.9277   0.00    0.0
2249 359533.300  -2403419.8613   5387360.4572   2417112.1782   6   5   1.8328  33.1822  32.1679   7.0099  32.6608   6.9289   0.00    0.0
2249 359533.400  -2403419.7963   5387360.4426   2417112.1024   6   5   1.8241  33.1794  32.1682   7.0123  32.6603   6.9298   0.00    0.0
2249 359533.500  -2403419.7708   5387359.8064   2417111.9556   6   5   1.8160  33.1772  32.1686   7.0142  32.6600   6.9306   0.00    0.0
2249 359533.600  -2403419.5669   5387358.6668   2417111.7300   6   5   1.8085  33.1752  32.1690   7.0157  32.6596   6.9312   0.00    0.0
2249 359533.700  -2403419.4255   5387358.0199   2417111.6645   6   5   1.8014  33.1735  32.1694   7.0169  32.6594   6.9318   0.00    0.0
2249 359533.800  -2403419.3278   5387357.5600   2417111.6044   6   5   1.7947  33.1720  32.1699   7.0179  32.6592   6.9322   0.00    0.0
2249 359533.900  -2403419.2641   5387357.1764   2417111.5481   6   5   1.7884  33.1706  32.1703   7.0188  32.6590   6.9326   0.00    0.0
2249 359534.000  -2403419.1452   5387356.3288   2417111.2028   6   5   1.7824  33.1693  32.1708   7.0194  32.6588   6.9329   0.00    0.0
2249 359534.100  -2403419.1204   5387356.2735   2417111.2673   6   5   1.7766  33.1681  32.1713   7.0200  32.6586   6.9332   0.00    0.0
2249 359534.200  -2403418.9945   5387355.6377   2417111.0759   6   5   1.7711  33.1670  32.1718   7.0204  32.6585   6.9334   0.00    0.0
2249 359534.300  -2403418.9940   5387355.2428   2417110.7991   6   5   1.7659  33.1660  32.1723   7.0208  32.6584   6.9335   0.00    0.0
2249 359534.400  -2403418.9720   5387355.2231   2417110.8747   6   5   1.7609  33.1650  32.1728   7.0211  32.6583   6.9336   0.00    0.0
2249 359534.500  -2403418.9026   5387354.7959   2417110.7193   6   5   1.7561  33.1641  32.1733   7.0212  32.6583   6.9336   0.00    0.0
2249 359534.600  -2403418.8248   5387354.7736   2417110.7321   6   5   1.7515  33.1632  32.1739   7.0214  32.6582   6.9336   0.00    0.0
2249 359534.700  -2403418.8096   5387354.6134   2417110.6952   6   5   1.7470  33.1624  32.1744   7.0214  32.6582   6.9336   0.00    0.0
2249 359534.800  -2403418.8099   5387354.6611   2417110.7871   6   5   1.7427  33.1615  32.1750   7.0214  32.6581   6.9335   0.00    0.0
2249 359534.900  -2403418.7746   5387354.3637   2417110.6176   6   5   1.7386  33.1608  32.1755   7.0214  32.6581   6.9334   0.00    0.0
2249 359535.000  -2403418.6874   5387354.0767   2417110.5179   6   5   1.7346  33.1600  32.1761   7.0213  32.6581   6.9332   0.00    0.0
2249 359535.100  -2403418.7348   5387354.0160   2417110.4381   6   5   1.7307  33.1593  32.1767   7.0211  32.6581   6.9331   0.00    0.0
2249 359535.200  -2403418.6761   5387353.6494   2417110.2771   6   5   1.7270  33.1585  32.1772   7.0210  32.6581   6.9329   0.00    0.0
2249 359535.300  -2403418.6403   5387353.5370   2417110.1925   6   5   1.7234  33.1578  32.1778   7.0207  32.6581   6.9326   0.00    0.0
2249 359535.400  -2403418.6077   5387353.2633   2417110.1712   6   5   1.7199  33.1572  32.1784   7.0205  32.6581   6.9324   0.00    0.0
2249 359535.500  -2403418.6309   5387353.2169   2417110.1942   6   5   1.7165  33.1565  32.1790   7.0202  32.6581   6.9321   0.00    0.0
2249 359535.600  -2403418.5394   5387353.2005   2417110.3415   6   5   1.7132  33.1558  32.1796   7.0199  32.6581   6.9318   0.00    0.0
2249 359535.700  -2403418.5428   5387352.7325   2417110.1539   6   5   1.7100  33.1552  32.1802   7.0196  32.6582   6.9315   0.00    0.0
2249 359535.800  -2403418.4307   5387352.5712   2417110.2057   6   5   1.7069  33.1546  32.1808   7.0192  32.6582   6.9312   0.00    0.0
2249 359535.900  -2403418.5176   5387352.5758   2417110.2668   6   5   1.7039  33.1540  32.1814   7.0188  32.6583   6.9308   0.00    0.0
2249 359536.000  -2403418.5006   5387352.3232   2417110.1804   6   5   1.7010  33.1534  32.1821   7.0184  32.6583   6.9304   0.00    0.0
2249 359536.100  -2403418.4265   5387351.9708   2417109.9274   6   5   1.6981  33.1528  32.1827   7.0179  32.6584   6.9300   0.00    0.0
2249 359536.200  -2403418.4555   5387352.1655   2417110.1228   6   5   1.6953  33.1522  32.1833   7.0175  32.6584   6.9296   0.00    0.0
2249 359536.300  -2403418.4157   5387352.2250   2417110.2347   6   5   1.6926  33.1516  32.1839   7.0170  32.6585   6.9292   0.00    0.0
2249 359536.400  -2403418.4331   5387352.1089   2417110.2041   6   5   1.6900  33.1510  32.1846   7.0165  32.6586   6.9288   0.00    0.0
2249 359536.500  -2403418.5255   5387352.0423   2417110.1647   6   5   1.6874  33.1505  32.1852   7.0160  32.6586   6.9283   0.00    0.0
2249 359536.600  -2403418.4197   5387351.9261   2417110.1973   6   5   1.6849  33.1499  32.1858   7.0155  32.6587   6.9279   0.00    0.0
2249 359536.700  -2403418.4327   5387351.4298   2417109.9333   6   5   1.6824  33.1494  32.1865   7.0149  32.6588   6.9274   0.00    0.0
2249 359536.800  -2403418.4626   5387351.5929   2417110.1098   6   5   1.6800  33.1488  32.1871   7.0144  32.6589   6.9269   0.00    0.0
2249 359536.900  -2403418.4050   5387351.3731   2417109.9953   6   5   1.6777  33.1483  32.1878   7.0138  32.6590   6.9264   0.00    0.0
2249 359537.000  -2403418.3895   5387351.4765   2417110.1752   6   5   1.6754  33.1478  32.1884   7.0132  32.6591   6.9259   0.00    0.0
2249 359537.100  -2403418.4282   5387351.2290   2417110.1129   6   5   1.6731  33.1472  32.1891   7.0126  32.6591   6.9254   0.00    0.0
2249 359537.200  -2403418.3401   5387351.1180   2417110.1807   6   5   1.6709  33.1467  32.1898   7.0120  32.6592   6.9248   0.00    0.0
2249 359537.300  -2403418.4118   5387351.2622   2417110.4152   6   5   1.6687  33.1462  32.1904   7.0114  32.6593   6.9243   0.00    0.0
2249 359537.400  -2403418.3120   5387350.9676   2417110.3080   6   5   1.6666  33.1457  32.1911   7.0108  32.6594   6.9238   0.00    0.0
2249 359537.500  -2403418.3577   5387351.0406   2417110.3721   6   5   1.6646  33.1452  32.1917   7.0101  32.6596   6.9232   0.00    0.0
2249 359537.600  -2403418.3879   5387350.9786   2417110.4224   6   5   1.6625  33.1447  32.1924   7.0095  32.6597   6.9226   0.00    0.0
2249 359537.700  -2403418.4008   5387350.9618   2417110.3299   6   5   1.6605  33.1442  32.1931   7.0088  32.6598   6.9221   0.00    0.0
2249 359537.800  -2403418.3703   5387350.8685   2417110.3728   6   5   1.6586  33.1437  32.1938   7.0081  32.6599   6.9215   0.00    0.0
2249 359537.900  -2403418.4106   5387350.9024   2417110.4470   6   5   1.6567  33.1432  32.1944   7.0074  32.6600   6.9209   0.00    0.0
2249 359538.000  -2403418.4309   5387350.8668   2417110.4569   6   5   1.6548  33.1428  32.1951   7.0067  32.6601   6.9203   0.00    0.0
2249 359538.100  -2403419.8640   5387352.1482   2417111.6382   6   4  33.4023  44.7402  42.7706 -30.8800  43.7367 -29.8569   0.00    0.0
2249 359538.200  -2403419.7410   5387351.8969   2417111.5433   6   5   5.3144  33.4537  32.4783   5.1044  32.9569   5.1290   0.00    0.0
2249 359538.300  -2403419.8390   5387351.9628   2417111.5233   6   5   3.9154  33.2958  32.3368   6.1391  32.8074   6.0997   0.00    0.0
2249 359538.400  -2403419.9561   5387351.7315   2417111.3178   6   5   3.3199  33.2427  32.2899   6.4468  32.7575   6.3903   0.00    0.0
2249 359538.500  -2403419.9338   5387351.9086   2417111.4727   6   5   2.9775  33.2159  32.2668   6.5948  32.7326   6.5303   0.00    0.0
2249 359538.600  -2403419.9473   5387351.8064   2417111.3518   6   5   2.7515  33.1997  32.2532   6.6816  32.7177   6.6125   0.00    0.0
2249 359538.700  -2403419.9022   5387351.6010   2417111.2239   6   5   2.5897  33.1887  32.2444   6.7385  32.7078   6.6665   0.00    0.0
2249 359538.800  -2403419.9462   5387351.5782   2417111.1962   6   5   2.4676  33.1807  32.2383   6.7786  32.7008   6.7045   0.00    0.0
2249 359538.900  -2403419.8865   5387351.5469   2417111.0990   6   5   2.3718  33.1746  32.2339   6.8083  32.6956   6.7327   0.00    0.0
2249 359539.000  -2403420.0057   5387351.5511   2417111.0928   6   5   2.2944  33.1698  32.2306   6.8310  32.6916   6.7543   0.00    0.0
2249 359539.100  -2403419.9432   5387351.3836   2417110.9733   6   5   2.2305  33.1659  32.2282   6.8490  32.6884   6.7714   0.00    0.0
2249 359539.200  -2403420.0535   5387351.4333   2417110.8869   6   5   2.1767  33.1626  32.2263   6.8635  32.6858   6.7852   0.00    0.0
2249 359539.300  -2403420.0853   5387351.6445   2417111.0309   6   5   2.1308  33.1598  32.2249   6.8753  32.6837   6.7965   0.00    0.0
2249 359539.400  -2403420.1612   5387352.1662   2417111.3775   6   5   2.0910  33.1573  32.2238   6.8852  32.6820   6.8059   0.00    0.0
2249 359539.500  -2403420.1419   5387352.1251   2417111.3375   6   5   2.0563  33.1552  32.2229   6.8935  32.6805   6.8139   0.00    0.0
2249 359539.600  -2403420.1053   5387352.1462   2417111.3278   6   5   2.0257  33.1533  32.2223   6.9006  32.6792   6.8206   0.00    0.0
2249 359539.700  -2403420.2239   5387352.3832   2417111.4858   6   5   1.9985  33.1516  32.2219   6.9066  32.6782   6.8264   0.00    0.0
2249 359539.800  -2403420.1718   5387352.5073   2417111.4656   6   5   1.9741  33.1500  32.2215   6.9118  32.6772   6.8315   0.00    0.0
2249 359539.900  -2403420.1750   5387352.7221   2417111.5350   6   5   1.9521  33.1486  32.2213   6.9164  32.6764   6.8358   0.00    0.0
2249 359540.000  -2403420.2923   5387353.0365   2417111.7522   6   5   1.9322  33.1472  32.2212   6.9203  32.6757   6.8396   0.00    0.0
2249 359540.100  -2403420.2628   5387352.9239   2417111.5996   6   5   1.9140  33.1460  32.2212   6.9237  32.6751   6.8430   0.00    0.0
2249 359540.200  -2403420.1972   5387352.8825   2417111.5795   6   5   1.8974  33.1448  32.2213   6.9268  32.6746   6.8459   0.00    0.0
2249 359540.300  -2403420.2177   5387352.6418   2417111.3221   6   5   1.8821  33.1438  32.2214   6.9294  32.6741   6.8485   0.00    0.0
2249 359540.400  -2403420.2272   5387352.7759   2417111.4293   6   5   1.8680  33.1428  32.2216   6.9317  32.6737   6.8508   0.00    0.0
2249 359540.500  -2403420.1971   5387352.7446   2417111.2576   6   5   1.8549  33.1418  32.2218   6.9338  32.6734   6.8528   0.00    0.0
2249 359540.600  -2403420.2432   5387353.1023   2417111.3982   6   5   1.8428  33.1409  32.2221   6.9356  32.6731   6.8546   0.00    0.0
2249 359540.700  -2403420.1943   5387353.0358   2417111.3031   6   5   1.8315  33.1400  32.2224   6.9372  32.6728   6.8562   0.00    0.0
2249 359540.800  -2403420.2132   5387352.7765   2417111.0397   6   5   1.8209  33.1391  32.2227   6.9386  32.6725   6.8576   0.00    0.0
2249 359540.900  -2403420.1913   5387352.7621   2417110.9562   6   5   1.8110  33.1383  32.2231   6.9398  32.6723   6.8588   0.00    0.0
2249 359541.000  -2403420.1936   5387352.7498   2417110.8898   6   5   1.8017  33.1376  32.2235   6.9409  32.6722   6.8599   0.00    0.0
2249 359541.100  -2403420.1701   5387352.9473   2417110.8869   6   5   1.7930  33.1368  32.2239   6.9418  32.6720   6.8609   0.00    0.0
2249 359541.200  -2403420.1832   5387352.7629   2417110.6776   6   5   1.7847  33.1361  32.2243   6.9426  32.6719   6.8617   0.00    0.0
2249 359541.300  -2403420.1880   5387352.9464   2417110.7977   6   5   1.7769  33.1354  32.2248   6.9433  32.6718   6.8625   0.00    0.0
2249 359541.400  -2403420.2154   5387353.1226   2417110.7770   6   5   1.7695  33.1347  32.2253   6.9439  32.6717   6.8631   0.00    0.0
2249 359541.500  -2403420.2708   5387353.0926   2417110.6233   6   5   1.7625  33.1340  32.2257   6.9444  32.6716   6.8636   0.00    0.0
2249 359541.600  -2403420.2042   5387352.9820   2417110.4412   6   5   1.7559  33.1334  32.2263   6.9449  32.6715   6.8641   0.00    0.0
2249 359541.700  -2403420.2274   5387353.1107   2417110.5105   6   5   1.7495  33.1328  32.2268   6.9452  32.6715   6.8645   0.00    0.0
2249 359541.800  -2403420.3025   5387353.4918   2417110.5864   6   5   1.7435  33.1321  32.2273   6.9455  32.6715   6.8648   0.00    0.0
2249 359541.900  -2403420.2185   5387353.5617   2417110.5915   6   5   1.7377  33.1315  32.2279   6.9457  32.6714   6.8651   0.00    0.0
2249 359542.000  -2403420.2584   5387353.7110   2417110.6404   6   5   1.7322  33.1309  32.2284   6.9458  32.6714   6.8653   0.00    0.0
2249 359542.100  -2403420.2781   5387353.6880   2417110.5020   6   5   1.7270  33.1304  32.2290   6.9459  32.6714   6.8655   0.00    0.0
2249 359542.200  -2403420.2850   5387353.6585   2417110.2854   6   5   1.7219  33.1298  32.2296   6.9459  32.6715   6.8656   0.00    0.0
2249 359542.300  -2403420.3059   5387353.7986   2417110.3497   6   5   1.7171  33.1292  32.2301   6.9459  32.6715   6.8656   0.00    0.0
2249 359542.400  -2403420.2521   5387353.8604   2417110.3161   6   5   1.7124  33.1287  32.2307   6.9458  32.6715   6.8656   0.00    0.0
2249 359542.500  -2403420.2807   5387353.6848   2417110.1450   6   5   1.7079  33.1282  32.2313   6.9457  32.6716   6.8656   0.00    0.0
2249 359542.600  -2403420.2383   5387353.7192   2417110.0142   6   5   1.7036  33.1276  32.2320   6.9456  32.6716   6.8656   0.00    0.0
2249 359542.700  -2403420.3341   5387354.2265   2417110.2940   6   5   1.6995  33.1271  32.2326   6.9454  32.6717   6.8655   0.00    0.0
2249 359542.800  -2403420.3253   5387354.2261   2417110.2011   6   5   1.6955  33.1266  32.2332   6.9451  32.6717   6.8653   0.00    0.0
2249 359542.900  -2403420.3541   5387354.3360   2417110.2346   6   5   1.6916  33.1261  32.2338   6.9449  32.6718   6.8652   0.00    0.0
2249 359543.000  -2403420.3581   5387354.3584   2417110.1953   6   5   1.6879  33.1256  32.2345   6.9446  32.6719   6.8650   0.00    0.0
2249 359543.100  -2403420.3886   5387354.6705   2417110.2692   6   5   1.6843  33.1251  32.2351   6.9443  32.6719   6.8648   0.00    0.0
2249 359543.200  -2403420.4713   5387355.1089   2417110.4717   6   5   1.6808  33.1246  32.2357   6.9440  32.6720   6.8645   0.00    0.0
2249 359543.300  -2403420.4696   5387355.2859   2417110.6175   6   5   1.6774  33.1241  32.2364   6.9436  32.6721   6.8643   0.00    0.0
2249 359543.400  -2403420.4355   5387355.2096   2417110.4941   6   5   1.6742  33.1236  32.2370   6.9432  32.6722   6.8640   0.00    0.0
2249 359543.500  -2403420.4394   5387355.2820   2417110.4586   6   5   1.6710  33.1231  32.2377   6.9428  32.6723   6.8637   0.00    0.0
2249 359543.600  -2403420.5164   5387355.4241   2417110.5256   6   5   1.6679  33.1226  32.2384   6.9424  32.6724   6.8633   0.00    0.0
2249 359543.700  -2403420.4439   5387355.2512   2417110.3576   6   5   1.6649  33.1222  32.2390   6.9419  32.6725   6.8630   0.00    0.0
2249 359543.800  -2403420.4968   5387355.1176   2417110.2342   6   5   1.6620  33.1217  32.2397   6.9414  32.6726   6.8626   0.00    0.0
2249 359543.900  -2403420.5473   5387355.1997   2417110.3251   6   5   1.6592  33.1213  32.2404   6.9409  32.6728   6.8622   0.00    0.0
2249 359544.000  -2403420.4164   5387355.4320   2417110.4071   6   5   1.6564  33.1208  32.2411   6.9404  32.6729   6.8618   0.00    0.0
2249 359544.100  -2403420.4728   5387355.2152   2417110.3621   6   5   1.6538  33.1203  32.2417   6.9399  32.6730   6.8614   0.00    0.0
2249 359544.200  -2403420.4796   5387355.3676   2417110.5346   6   5   1.6511  33.1199  32.2424   6.9394  32.6731   6.8610   0.00    0.0
2249 359544.300  -2403420.4450   5387355.2271   2417110.3650   6   5   1.6486  33.1194  32.2431   6.9388  32.6733   6.8605   0.00    0.0
2249 359544.400  -2403420.4010   5387355.4751   2417110.5911   6   5   1.6461  33.1190  32.2438   6.9382  32.6734   6.8601   0.00    0.0
2249 359544.500  -2403420.4992   5387355.6104   2417110.7036   6   5   1.6437  33.1186  32.2445   6.9377  32.6735   6.8596   0.00    0.0
2249 359544.600  -2403420.4410   5387355.6671   2417110.6851   6   5   1.6414  33.1181  32.2452   6.9371  32.6737   6.8591   0.00    0.0
2249 359544.700  -2403420.4504   5387355.8008   2417110.7694   6   5   1.6390  33.1177  32.2459   6.9365  32.6738   6.8586   0.00    0.0
2249 359544.800  -2403420.4346   5387355.7171   2417110.8259   6   5   1.6368  33.1173  32.2466   6.9358  32.6739   6.8581   0.00    0.0
2249 359544.900  -2403420.5052   5387355.8335   2417110.8018   6   5   1.6346  33.1168  32.2473   6.9352  32.6741   6.8576   0.00    0.0
2249 359545.000  -2403420.4828   5387355.9487   2417110.8726   6   5   1.6324  33.1164  32.2480   6.9346  32.6742   6.8571   0.00    0.0
2249 359545.100  -2403420.2397   5387359.6081   2417114.4548   6   6   0.7278   3.1610   3.0667  -0.1092   3.0598   0.4226   0.00    0.0
2249 359545.200  -2403420.2962   5387359.2413   2417114.1176   6   6   0.7179   2.3490   2.2720  -0.4541   2.2373  -0.1039   0.00    0.0
2249 359545.300  -2403420.3152   5387359.2089   2417114.0937   6   6   0.7120   2.0062   1.9353  -0.5182   1.8845  -0.2677   0.00    0.0
2249 359545.400  -2403420.3365   5387359.4524   2417114.2356   6   6   0.7072   1.8102   1.7425  -0.5458   1.6802  -0.3170   0.00    0.0
2249 359545.500  -2403420.3047   5387359.5025   2417114.2509   6   6   0.7029   1.6814   1.6155  -0.5605   1.5444  -0.3413   0.00    0.0
2249 359545.600  -2403420.3551   5387359.6814   2417114.4297   6   6   0.6989   1.5896   1.5247  -0.5691   1.4466  -0.3552   0.00    0.0
2249 359545.700  -2403420.3765   5387360.1722   2417114.6767   6   6   0.6951   1.5204   1.4563  -0.5744   1.3723  -0.3636   0.00    0.0
2249 359545.800  -2403420.3074   5387360.6552   2417115.2695   6   6   0.6914   1.4662   1.4025  -0.5777   1.3136  -0.3689   0.00    0.0
2249 359545.900  -2403420.2856   5387360.9502   2417115.4499   6   6   0.6878   1.4225   1.3592  -0.5797   1.2659  -0.3721   0.00    0.0
2249 359546.000  -2403420.3353   5387361.1755   2417115.7447   6   6   0.6844   1.3864   1.3233  -0.5808   1.2263  -0.3740   0.00    0.0
2249 359546.100  -2403420.3121   5387361.5900   2417116.1646   6   6   0.6810   1.3561   1.2931  -0.5812   1.1928  -0.3749   0.00    0.0
2249 359546.200  -2403420.3622   5387362.1631   2417116.5921   6   6   0.6777   1.3302   1.2673  -0.5813   1.1640  -0.3752   0.00    0.0
2249 359546.300  -2403420.2827   5387362.5248   2417116.9438   6   6   0.6745   1.3077   1.2450  -0.5809   1.1390  -0.3749   0.00    0.0
2249 359546.400  -2403420.3110   5387362.9305   2417117.1931   6   6   0.6713   1.2881   1.2254  -0.5804   1.1170  -0.3742   0.00    0.0
2249 359546.500  -2403420.3136   5387363.4092   2417117.5804   6   6   0.6682   1.2708   1.2081  -0.5796   1.0976  -0.3732   0.00    0.0
2249 359546.600  -2403420.3414   5387364.2058   2417118.2633   6   6   0.6652   1.2554   1.1927  -0.5787   1.0801  -0.3720   0.00    0.0
2249 359546.700  -2403420.3428   5387365.1183   2417119.0575   6   6   0.6622   1.2416   1.1789  -0.5777   1.0645  -0.3706   0.00    0.0
2249 359546.800  -2403420.2890   5387365.8905   2417119.5974   6   6   0.6593   1.2291   1.1664  -0.5765   1.0503  -0.3691   0.00    0.0
2249 359546.900  -2403420.3658   5387366.5534   2417120.0556   6   6   0.6565   1.2178   1.1551  -0.5753   1.0374  -0.3674   0.00    0.0
2249 359547.000  -2403420.4216   5387367.1447   2417120.6117   6   6   0.6537   1.2075   1.1447  -0.5741   1.0255  -0.3657   0.00    0.0
2249 359547.100  -2403420.3643   5387367.9008   2417121.3294   6   6   0.6509   1.1980   1.1352  -0.5728   1.0147  -0.3638   0.00    0.0
2249 359547.200  -2403420.5254   5387368.8346   2417122.0246   6   6   0.6482   1.1893   1.1265  -0.5715   1.0046  -0.3619   0.00    0.0
2249 359547.300  -2403420.5443   5387369.6574   2417122.8223   6   6   0.6456   1.1813   1.1184  -0.5701   0.9953  -0.3600   0.00    0.0
2249 359547.400  -2403418.6346   5387413.2241   2417163.9779   6   6   1.5417  31.8502  31.0881   6.6539  31.4618   6.5882   0.00    0.0
2249 359547.500  -2403418.5931   5387411.0359   2417161.7457   6   6   1.3792  26.5960  26.1794   5.6804  26.3825   5.6494   0.00    0.0
2249 359547.600  -2403418.7747   5387406.2405   2417156.7379   6   6   1.3200  24.6098  24.3373   5.3197  24.4694   5.3030   0.00    0.0
2249 359547.700  -2403419.8377   5387381.4128   2417131.9277   6   7   0.6342   3.0983   3.0598   0.3590   3.0533   0.4988   0.00    0.0
2249 359547.800  -2403419.7104   5387380.8391   2417131.3900   6   7   0.6174   2.2926   2.2494  -0.2652   2.2450   0.1685   0.00    0.0
2249 359547.900  -2403419.6241   5387381.4643   2417131.8500   6   7   0.6086   1.9467   1.9035  -0.3616   1.9000  -0.2073   0.00    0.0
2249 359548.000  -2403418.8178   5387375.7196   2417125.7365   6   8   0.5971   1.6380   1.5857  -0.3330   1.5861  -0.1689   0.00    0.0
2249 359548.100  -2403418.2664   5387374.0993   2417123.1827   6   8   0.6061   1.5485   1.4194  -0.4197   1.3974  -0.0758   0.00    0.0
2249 359548.200  -2403417.6025   5387372.3766   2417121.2537   6   8   0.5865   1.4031   1.3069  -0.3623   1.2997  -0.1099   0.00    0.0
2249 359548.300  -2403417.3533   5387373.4877   2417122.5311   6   7   0.5770   1.3555   1.2896  -0.3583   1.2794  -0.1706   0.00    0.0
2249 359548.400  -2403417.3011   5387374.5027   2417123.5356   6   7   0.5702   1.3076   1.2496  -0.3614   1.2417  -0.2061   0.00    0.0
2249 359548.500  -2403417.1080   5387375.4131   2417124.3518   6   7   0.5647   1.2693   1.2164  -0.3656   1.2100  -0.2292   0.00    0.0
2249 359548.600  -2403417.1121   5387375.8995   2417124.7217   6   7   0.5601   1.2377   1.1883  -0.3697   1.1830  -0.2456   0.00    0.0
2249 359548.700  -2403416.4984   5387374.1627   2417122.6568   6   8   0.5514   1.1710   1.1157  -0.3504   1.1145  -0.2220   0.00    0.0
2249 359548.800  -2403416.6140   5387375.2826   2417123.5424   6   7   0.5474   1.1737   1.1264  -0.3579   1.1233  -0.2395   0.00    0.0
2249 359548.900  -2403415.9507   5387373.9535   2417122.0703   6   8   0.5395   1.1168   1.0651  -0.3409   1.0646  -0.2172   0.00    0.0
2249 359549.000  -2403415.4853   5387373.2194   2417121.1475   6   8   0.5321   1.0899   1.0390  -0.3296   1.0390  -0.2028   0.00    0.0
2249 359549.100  -2403415.2447   5387373.5741   2417122.6248   6   6   0.5564   1.1770   1.1107  -0.4293   0.9886   0.1022   0.00    0.0
2249 359549.200  -2403415.6768   5387375.0048   2417122.5845   6   7   0.5265   1.0922   1.0473  -0.3417   1.0455  -0.2258   0.00    0.0
2249 359549.300  -2403415.5496   5387375.4933   2417122.9705   6   7   0.5235   1.0811   1.0374  -0.3439   1.0358  -0.2322   0.00    0.0
2249 359549.400  -2403415.6172   5387376.0711   2417123.4262   6   7   0.5206   1.0710   1.0285  -0.3457   1.0270  -0.2376   0.00    0.0
2249 359549.500  -2403415.6581   5387376.2260   2417123.3372   6   7   0.5179   1.0619   1.0202  -0.3473   1.0189  -0.2422   0.00    0.0
2249 359549.600  -2403415.6339   5387376.6550   2417123.7072   6   7   0.5153   1.0535   1.0126  -0.3487   1.0114  -0.2461   0.00    0.0
2249 359549.700  -2403415.7097   5387376.9305   2417123.8373   6   7   0.5128   1.0458   1.0056  -0.3499   1.0045  -0.2494   0.00    0.0
2249 359549.800  -2403415.7751   5387377.2300   2417123.9400   6   7   0.5104   1.0387   0.9991  -0.3509   0.9981  -0.2524   0.00    0.0
2249 359549.900  -2403415.8550   5387377.3939   2417123.9896   6   7   0.5081   1.0321   0.9931  -0.3517   0.9921  -0.2549   0.00    0.0
2249 359550.000  -2403415.9698   5387377.8019   2417124.2318   6   7   0.5059   1.0260   0.9874  -0.3523   0.9866  -0.2571   0.00    0.0
2249 359550.100  -2403415.2143   5387393.6277   2417139.9626   6   6   1.1782  20.9217  20.9872   4.7044  20.9535   4.7181   0.00    0.0
2249 359550.200  -2403415.3514   5387391.7013   2417137.8296   6   6   1.1779  20.9370  21.0028   4.7072  20.9689   4.7209   0.00    0.0
2249 359550.300  -2403415.4404   5387393.8328   2417139.7979   6   6   1.1776  20.9527  21.0186   4.7100  20.9847   4.7237   0.00    0.0
2249 359550.400  -2403416.3155   5387378.6045   2417124.3949   6   7   0.4989   1.0184   0.9808  -0.3488   0.9804  -0.2547   0.00    0.0
2249 359550.500  -2403416.4234   5387378.7789   2417124.4145   6   7   0.4969   1.0129   0.9756  -0.3494   0.9752  -0.2565   0.00    0.0
2249 359550.600  -2403416.5484   5387379.0914   2417124.5510   6   7   0.4949   1.0077   0.9707  -0.3498   0.9704  -0.2580   0.00    0.0
2249 359550.700  -2403416.7124   5387379.2997   2417124.6113   6   7   0.4930   1.0028   0.9661  -0.3501   0.9659  -0.2594   0.00    0.0
2249 359550.800  -2403416.8120   5387379.2948   2417124.4730   6   7   0.4912   0.9982   0.9617  -0.3504   0.9616  -0.2605   0.00    0.0
2249 359550.900  -2403417.0061   5387379.3589   2417124.4175   6   7   0.4894   0.9939   0.9575  -0.3506   0.9575  -0.2616   0.00    0.0
2249 359551.000  -2403417.1053   5387379.5223   2417124.4233   6   7   0.4876   0.9897   0.9536  -0.3507   0.9536  -0.2625   0.00    0.0
2249 359551.100  -2403416.6436   5387392.3871   2417137.1524   6   6   1.1749  21.0476  21.1176   4.7294  21.0818   4.7432   0.00    0.0
2249 359551.200  -2403416.8898   5387389.8290   2417134.4408   6   6   1.1748  21.0664  21.1363   4.7327  21.1005   4.7465   0.00    0.0
2249 359551.300  -2403417.0224   5387389.8493   2417134.2412   6   6   1.1747  21.0853  21.1551   4.7361  21.1194   4.7498   0.00    0.0
2249 359551.400  -2403417.1539   5387390.0298   2417134.3099   6   6   1.1746  21.1043  21.1741   4.7395  21.1384   4.7531   0.00    0.0
2249 359551.500  -2403417.2850   5387391.0089   2417135.1558   6   6   1.1745  21.1235  21.1931   4.7428  21.1575   4.7565   0.00    0.0
2249 359551.600  -2403417.3572   5387390.0835   2417134.1204   6   6   1.1744  21.1427  21.2123   4.7463  21.1767   4.7599   0.00    0.0
2249 359551.700  -2403418.5873   5387363.8990   2417108.9574   6   5   1.5264  33.0896  32.2965   6.8819  32.6856   6.8130   0.00    0.0
2249 359551.800  -2403418.5882   5387363.9021   2417108.8563   6   5   1.5257  33.0892  32.2973   6.8810  32.6858   6.8121   0.00    0.0
2249 359551.900  -2403418.7435   5387363.9122   2417108.9496   6   5   1.5250  33.0889  32.2981   6.8800  32.6861   6.8113   0.00    0.0
2249 359552.000  -2403417.7744   5387390.4958   2417134.2648   6   6   1.1747  21.2286  21.2970   4.7614  21.2620   4.7748   0.00    0.0
2249 359552.100  -2403418.8015   5387364.2010   2417108.9935   6   5   1.5235  33.0882  32.2996   6.8782  32.6865   6.8097   0.00    0.0
2249 359552.200  -2403418.5750   5387369.3997   2417114.1621   6   6   1.4859  32.0184  31.2995   6.6719  31.6520   6.6106   0.00    0.0
2249 359552.300  -2403418.6676   5387369.4779   2417114.2508   6   6   1.3368  27.1292  26.7397   5.7880  26.9297   5.7588   0.00    0.0
2249 359552.400  -2403418.4957   5387371.5209   2417116.2901   6   6   1.2834  25.3026  25.0482   5.4640  25.1716   5.4477   0.00    0.0
2249 359552.500  -2403418.5868   5387371.5298   2417116.2916   6   6   1.2558  24.3476  24.1677   5.2963  24.2545   5.2870   0.00    0.0
2249 359552.600  -2403418.6333   5387368.9294   2417113.5377   6   8   0.4959   2.5332   2.4718   0.4177   2.4774   0.5189   0.00    0.0
2249 359552.700  -2403418.4311   5387368.9289   2417113.4825   6   8   0.4819   1.8918   1.8248   0.2197   1.8319   0.3615   0.00    0.0
2249 359552.800  -2403418.2103   5387368.9709   2417113.4253   6   8   0.4738   1.6160   1.5499   0.1012   1.5569   0.2925   0.00    0.0
2249 359552.900  -2403418.0644   5387370.3479   2417114.7817   6   8   0.4676   1.4560   1.3920  -0.0842   1.3987   0.2518   0.00    0.0
2249 359553.000  -2403417.9478   5387370.8525   2417115.2832   6   8   0.4622   1.3496   1.2879  -0.1290   1.2942   0.2246   0.00    0.0
2249 359553.100  -2403417.7909   5387371.1562   2417115.6214   6   8   0.4574   1.2730   1.2135  -0.1499   1.2194   0.2049   0.00    0.0
2249 359553.200  -2403417.7228   5387371.2442   2417115.6994   6   8   0.4530   1.2149   1.1574  -0.1621   1.1629   0.1899   0.00    0.0
2249 359553.300  -2403417.6360   5387371.4540   2417115.9048   6   8   0.4489   1.1692   1.1134  -0.1699   1.1186   0.1782   0.00    0.0
2249 359553.400  -2403417.5323   5387371.4377   2417115.8607   6   8   0.4449   1.1321   1.0778  -0.1752   1.0828   0.1687   0.00    0.0
2249 359553.500  -2403417.4691   5387371.6504   2417116.1408   6   8   0.4412   1.1014   1.0485  -0.1789   1.0532   0.1610   0.00    0.0
2249 359553.600  -2403417.4189   5387371.5195   2417115.9931   6   8   0.4376   1.0755   1.0239  -0.1815   1.0284   0.1545   0.00    0.0
2249 359553.700  -2403417.5196   5387371.8715   2417116.3174   6   8   0.4342   1.0534   1.0028  -0.1834   1.0071   0.1491   0.00    0.0
2249 359553.800  -2403417.4100   5387372.2628   2417116.7714   6   8   0.4308   1.0342   0.9847  -0.1847   0.9888   0.1445   0.00    0.0
2249 359553.900  -2403417.5311   5387372.5481   2417116.9218   6   8   0.4276   1.0174   0.9688  -0.1856   0.9728   0.1405   0.00    0.0
2249 359554.000  -2403417.6218   5387372.6416   2417116.8947   6   8   0.4245   1.0026   0.9548  -0.1862   0.9586   0.1371   0.00    0.0
2249 359554.100  -2403417.5966   5387372.8431   2417117.3029   6   8   0.4454   1.0940   0.9502  -0.3192   0.9155   0.1885   0.00    0.0
2249 359554.200  -2403417.5999   5387373.2856   2417117.5663   6   8   0.4302   1.0293   0.9349  -0.2584   0.9204   0.1598   0.00    0.0
2249 359554.300  -2403417.7612   5387373.5777   2417117.7545   6   8   0.4232   1.0005   0.9235  -0.2349   0.9156   0.1480   0.00    0.0
2249 359554.400  -2403417.8980   5387373.9374   2417117.9190   6   8   0.4184   0.9817   0.9138  -0.2223   0.9090   0.1410   0.00    0.0
2249 359554.500  -2403418.0515   5387373.9223   2417117.7495   6   8   0.4145   0.9674   0.9051  -0.2143   0.9022   0.1363   0.00    0.0
2249 359554.600  -2403418.1633   5387374.0004   2417117.6089   6   8   0.4110   0.9557   0.8973  -0.2088   0.8955   0.1327   0.00    0.0
2249 359554.700  -2403418.2090   5387374.1767   2417117.4532   6   8   0.4079   0.9457   0.8901  -0.2047   0.8892   0.1299   0.00    0.0
2249 359554.800  -2403418.3166   5387374.2134   2417117.1601   6   8   0.4050   0.9369   0.8836  -0.2015   0.8833   0.1276   0.00    0.0
2249 359554.900  -2403418.3162   5387374.1346   2417116.9586   6   8   0.4023   0.9291   0.8776  -0.1990   0.8777   0.1257   0.00    0.0
2249 359555.000  -2403418.5014   5387374.3615   2417116.8765   6   8   0.3997   0.9220   0.8720  -0.1968   0.8724   0.1240   0.00    0.0
2249 359555.100  -2403418.6966   5387374.4553   2417116.6432   6   8   0.3972   0.9156   0.8668  -0.1949   0.8675   0.1226   0.00    0.0
2249 359555.200  -2403418.9178   5387374.5901   2417116.5229   6   8   0.3948   0.9096   0.8620  -0.1933   0.8629   0.1214   0.00    0.0
2249 359555.300  -2403419.1987   5387374.9803   2417116.6296   6   8   0.3924   0.9042   0.8574  -0.1918   0.8586   0.1204   0.00    0.0
2249 359555.400  -2403419.3854   5387375.0266   2417116.4225   6   8   0.3902   0.8991   0.8532  -0.1905   0.8545   0.1194   0.00    0.0
2249 359555.500  -2403419.7214   5387375.2909   2417116.3474   6   8   0.3879   0.8944   0.8492  -0.1893   0.8506   0.1186   0.00    0.0
2249 359555.600  -2403420.0656   5387375.6112   2417116.2531   6   8   0.3858   0.8900   0.8455  -0.1882   0.8470   0.1179   0.00    0.0
2249 359555.700  -2403420.3379   5387375.6788   2417115.9856   6   8   0.3837   0.8858   0.8419  -0.1871   0.8435   0.1172   0.00    0.0
2249 359555.800  -2403420.6866   5387376.0333   2417115.9965   6   8   0.3817   0.8820   0.8386  -0.1861   0.8402   0.1166   0.00    0.0
2249 359555.900  -2403420.8825   5387377.7738   2417117.3455   6   7   0.3850   1.3273   1.2923   0.1654   1.2969   0.2730   0.00    0.0
2249 359556.000  -2403421.2181   5387378.2776   2417117.4459   6   7   0.3837   1.3255   1.2911   0.1700   1.2957   0.2749   0.00    0.0
2249 359556.100  -2403421.5695   5387378.5862   2417117.3672   6   7   0.3824   1.3239   1.2900   0.1742   1.2945   0.2767   0.00    0.0
2249 359556.200  -2403421.8596   5387379.7912   2417117.8302   6   6   0.4055   1.9419   1.4398  -0.4064   1.6078  -0.1064   0.00    0.0
