% program   : RTKPOST ver.2.4.2
% inp file  : D:\ligo\deg2.rnx
% inp file  : D:\ligo\nav-dge.rnx
% inp file  : D:\ligo\deg.sp3
% obs start : 2023/02/16 06:13:41.3 GPST (week2249 368021.3s)
% obs end   : 2023/02/16 06:36:59.5 GPST (week2249 369419.5s)
% pos mode  : ppp-kinematic
% solution  : forward
% elev mask : 15.0 deg
% dynamics  : off
% tidecorr  : on
% tropo opt : est ztd+grad
% ephemeris : precise
% navi sys  : gps glonass galileo
% antenna1  :                       ( 0.0000  0.0000  0.0000)
%
% (x/y/z-ecef=WGS84,Q=1:fix,2:float,3:sbas,4:dgps,5:single,6:ppp,ns=# of satellites)
%  GPST              x-ecef(m)      y-ecef(m)      z-ecef(m)   Q  ns   sdx(m)   sdy(m)   sdz(m)  sdxy(m)  sdyz(m)  sdzx(m) age(s)  ratio
2249 368031.700  -2403422.3707   5387332.4549   2417166.2162   6   3  33.5091  76.5174  32.5936 -36.1258  28.7795  26.4050   0.00    0.0
2249 368031.800  -2403422.7853   5387333.8554   2417166.4958   6   3  30.7923  76.4639  29.9245 -35.6187  29.4074  22.9898   0.00    0.0
2249 368031.900  -2403422.9174   5387334.4445   2417166.7091   6   3  29.7350  76.4443  28.8819 -35.4310  29.6350  21.6001   0.00    0.0
2249 368032.000  -2403423.1205   5387334.9435   2417166.8874   6   3  29.1717  76.4342  28.3252 -35.3335  29.7525  20.8416   0.00    0.0
2249 368032.100  -2403423.3736   5387335.4947   2417166.9920   6   3  28.8216  76.4281  27.9786 -35.2740  29.8242  20.3631   0.00    0.0
2249 368032.200  -2403423.3395   5387335.7970   2417167.1766   6   3  28.5832  76.4240  27.7420 -35.2342  29.8726  20.0333   0.00    0.0
2249 368032.300  -2403423.2766   5387335.5134   2417167.1233   6   3  28.4103  76.4211  27.5701 -35.2057  29.9074  19.7922   0.00    0.0
2249 368032.400  -2403423.2452   5387335.6442   2417167.2158   6   3  28.2794  76.4190  27.4396 -35.1845  29.9336  19.6082   0.00    0.0
2249 368032.500  -2403423.0606   5387335.1772   2417167.2288   6   3  28.1768  76.4173  27.3370 -35.1681  29.9541  19.4630   0.00    0.0
2249 368032.600  -2403423.1316   5387335.6412   2417167.2856   6   3  28.0943  76.4160  27.2544 -35.1551  29.9705  19.3457   0.00    0.0
2249 368032.700  -2403423.1169   5387335.2141   2417167.1497   6   3  28.0265  76.4149  27.1863 -35.1447  29.9840  19.2487   0.00    0.0
2249 368032.800  -2403422.9697   5387334.9648   2417167.2251   6   3  27.9700  76.4141  27.1292 -35.1362  29.9953  19.1674   0.00    0.0
2249 368032.900  -2403422.8609   5387335.0729   2417167.3943   6   3  27.9220  76.4134  27.0806 -35.1291  30.0048  19.0980   0.00    0.0
2249 368033.000  -2403422.9599   5387334.8626   2417167.1646   6   3  27.8809  76.4128  27.0389 -35.1232  30.0130  19.0383   0.00    0.0
2249 368033.100  -2403422.9623   5387334.5611   2417167.0730   6   3  27.8453  76.4123  27.0025 -35.1182  30.0201  18.9862   0.00    0.0
2249 368033.200  -2403422.9919   5387334.6468   2417166.9817   6   3  27.8142  76.4119  26.9705 -35.1139  30.0263  18.9405   0.00    0.0
2249 368033.300  -2403423.0596   5387334.9165   2417167.0573   6   3  27.7868  76.4116  26.9423 -35.1103  30.0318  18.8999   0.00    0.0
2249 368033.400  -2403423.0789   5387334.7278   2417166.9528   6   3  27.7624  76.4113  26.9170 -35.1072  30.0367  18.8638   0.00    0.0
2249 368033.500  -2403422.8760   5387334.7219   2417167.1384   6   3  27.7407  76.4110  26.8944 -35.1045  30.0410  18.8313   0.00    0.0
2249 368033.600  -2403422.8980   5387334.6566   2417167.0899   6   3  27.7212  76.4108  26.8740 -35.1022  30.0450  18.8020   0.00    0.0
2249 368033.700  -2403422.8606   5387334.5071   2417167.0672   6   3  27.7037  76.4107  26.8554 -35.1002  30.0485  18.7753   0.00    0.0
2249 368033.800  -2403422.8131   5387334.5506   2417167.1452   6   3  27.6877  76.4105  26.8385 -35.0985  30.0517  18.7511   0.00    0.0
2249 368033.900  -2403422.8654   5387334.6388   2417167.1721   6   3  27.6733  76.4104  26.8230 -35.0970  30.0547  18.7289   0.00    0.0
2249 368034.000  -2403422.8092   5387334.6852   2417167.1750   6   3  27.6601  76.4103  26.8088 -35.0958  30.0574  18.7085   0.00    0.0
2249 368034.100  -2403422.9480   5387334.7848   2417167.0984   6   3  27.6480  76.4102  26.7957 -35.0947  30.0599  18.6896   0.00    0.0
2249 368034.200  -2403423.0031   5387334.6689   2417167.0311   6   3  27.6369  76.4101  26.7835 -35.0938  30.0622  18.6722   0.00    0.0
2249 368034.300  -2403422.9367   5387334.6971   2417167.1198   6   3  27.6266  76.4101  26.7723 -35.0931  30.0643  18.6561   0.00    0.0
2249 368034.400  -2403423.0346   5387334.7997   2417167.0526   6   3  27.6172  76.4101  26.7618 -35.0925  30.0663  18.6410   0.00    0.0
2249 368034.500  -2403423.0542   5387334.8206   2417167.0227   6   3  27.6084  76.4100  26.7519 -35.0919  30.0681  18.6270   0.00    0.0
2249 368034.600  -2403423.0859   5387334.8812   2417167.0745   6   3  27.6003  76.4100  26.7428 -35.0915  30.0698  18.6139   0.00    0.0
2249 368034.700  -2403423.1398   5387334.9003   2417166.9834   6   3  27.5928  76.4100  26.7342 -35.0912  30.0714  18.6015   0.00    0.0
2249 368034.800  -2403423.1560   5387334.9309   2417167.0288   6   3  27.5858  76.4100  26.7261 -35.0910  30.0729  18.5900   0.00    0.0
2249 368034.900  -2403423.2219   5387335.2651   2417167.0803   6   3  27.5793  76.4100  26.7185 -35.0909  30.0743  18.5791   0.00    0.0
2249 368035.000  -2403423.3282   5387335.2853   2417167.0054   6   3  27.5732  76.4101  26.7113 -35.0908  30.0756  18.5688   0.00    0.0
2249 368035.100  -2403423.3883   5387335.1022   2417166.9357   6   3  27.5675  76.4101  26.7045 -35.0908  30.0769  18.5591   0.00    0.0
2249 368035.200  -2403423.2829   5387335.0132   2417166.9824   6   3  27.5622  76.4101  26.6980 -35.0909  30.0781  18.5500   0.00    0.0
2249 368035.300  -2403423.2701   5387334.8981   2417166.9828   6   3  27.5572  76.4102  26.6919 -35.0910  30.0792  18.5413   0.00    0.0
2249 368035.400  -2403423.4552   5387334.9688   2417166.8285   6   3  27.5525  76.4102  26.6861 -35.0911  30.0802  18.5330   0.00    0.0
2249 368035.500  -2403423.4119   5387335.0518   2417166.9382   6   3  27.5481  76.4103  26.6806 -35.0914  30.0812  18.5252   0.00    0.0
2249 368035.600  -2403423.3822   5387334.9272   2417166.9043   6   3  27.5439  76.4103  26.6753 -35.0916  30.0822  18.5177   0.00    0.0
2249 368035.700  -2403423.3802   5387334.9116   2417166.9181   6   3  27.5400  76.4104  26.6703 -35.0919  30.0830  18.5106   0.00    0.0
2249 368035.800  -2403423.4361   5387334.8417   2417166.8463   6   3  27.5363  76.4105  26.6655 -35.0922  30.0839  18.5038   0.00    0.0
2249 368035.900  -2403423.2258   5387334.6572   2417166.9366   6   3  27.5329  76.4105  26.6609 -35.0926  30.0847  18.4973   0.00    0.0
2249 368036.000  -2403423.2650   5387334.5819   2417166.9216   6   3  27.5296  76.4106  26.6565 -35.0930  30.0855  18.4911   0.00    0.0
2249 368036.100  -2403420.8944   5387326.2596   2417166.2785   6   4  24.8601  61.8870  26.2836 -26.4926  26.5931  19.8472   0.00    0.0
2249 368036.200  -2403420.9147   5387326.3379   2417166.2531   6   4  24.8567  61.8845  26.2791 -26.4922  26.5921  19.8424   0.00    0.0
2249 368036.300  -2403420.6966   5387326.4281   2417166.5516   6   4  24.8537  61.8835  26.2749 -26.4928  26.5915  19.8376   0.00    0.0
2249 368036.400  -2403420.8078   5387326.5712   2417166.4944   6   4  24.8509  61.8829  26.2708 -26.4935  26.5910  19.8330   0.00    0.0
2249 368036.500  -2403420.8270   5387326.5662   2417166.4939   6   4  24.8483  61.8825  26.2669 -26.4944  26.5906  19.8286   0.00    0.0
2249 368036.600  -2403420.7405   5387326.4909   2417166.5514   6   4  24.8459  61.8822  26.2632 -26.4953  26.5901  19.8244   0.00    0.0
2249 368036.700  -2403420.8324   5387326.4781   2417166.4582   6   4  24.8436  61.8819  26.2595 -26.4962  26.5897  19.8203   0.00    0.0
2249 368036.800  -2403420.9011   5387326.3874   2417166.4019   6   4  24.8414  61.8816  26.2560 -26.4972  26.5893  19.8163   0.00    0.0
2249 368036.900  -2403420.8020   5387326.0746   2417166.3661   6   4  24.8393  61.8813  26.2526 -26.4981  26.5889  19.8126   0.00    0.0
2249 368037.000  -2403420.8477   5387326.0166   2417166.2757   6   4  24.8373  61.8811  26.2494 -26.4990  26.5886  19.8089   0.00    0.0
2249 368037.100  -2403420.7993   5387325.9669   2417166.2774   6   4  24.8355  61.8809  26.2462 -26.5000  26.5882  19.8054   0.00    0.0
2249 368037.200  -2403420.7674   5387326.2716   2417166.4513   6   4  24.8337  61.8806  26.2432 -26.5009  26.5878  19.8020   0.00    0.0
2249 368037.300  -2403420.8297   5387326.4393   2417166.5047   6   4  24.8320  61.8804  26.2402 -26.5018  26.5875  19.7987   0.00    0.0
2249 368037.400  -2403420.8363   5387326.4699   2417166.4770   6   4  24.8304  61.8802  26.2374 -26.5028  26.5871  19.7955   0.00    0.0
2249 368037.500  -2403420.7874   5387326.4143   2417166.4876   6   4  24.8288  61.8800  26.2346 -26.5037  26.5868  19.7925   0.00    0.0
2249 368037.600  -2403420.7594   5387326.3256   2417166.4756   6   4  24.8274  61.8798  26.2319 -26.5046  26.5865  19.7895   0.00    0.0
2249 368037.700  -2403420.6002   5387326.2236   2417166.5924   6   4  24.8260  61.8796  26.2293 -26.5055  26.5861  19.7866   0.00    0.0
2249 368037.800  -2403420.5608   5387326.4197   2417166.7196   6   4  24.8247  61.8794  26.2267 -26.5064  26.5858  19.7839   0.00    0.0
2249 368037.900  -2403420.5114   5387326.4726   2417166.7484   6   4  24.8234  61.8792  26.2243 -26.5073  26.5855  19.7812   0.00    0.0
2249 368038.000  -2403420.5318   5387326.3882   2417166.7733   6   4  24.8222  61.8790  26.2219 -26.5083  26.5852  19.7785   0.00    0.0
2249 368038.100  -2403420.4818   5387326.2103   2417166.6850   6   4  24.8211  61.8788  26.2195 -26.5092  26.5849  19.7760   0.00    0.0
2249 368038.200  -2403420.5645   5387326.3535   2417166.6819   6   4  24.8200  61.8786  26.2173 -26.5101  26.5846  19.7736   0.00    0.0
2249 368038.300  -2403420.5260   5387326.4303   2417166.7365   6   4  24.8190  61.8784  26.2151 -26.5110  26.5843  19.7712   0.00    0.0
2249 368038.400  -2403420.5054   5387326.4647   2417166.7866   6   4  24.8180  61.8782  26.2129 -26.5119  26.5840  19.7688   0.00    0.0
2249 368038.500  -2403420.4954   5387326.3795   2417166.6860   6   4  24.8171  61.8780  26.2108 -26.5128  26.5837  19.7666   0.00    0.0
2249 368038.600  -2403420.4581   5387326.6396   2417166.8676   6   4  24.8162  61.8778  26.2087 -26.5136  26.5834  19.7644   0.00    0.0
2249 368038.700  -2403420.5014   5387326.5912   2417166.7918   6   4  24.8154  61.8776  26.2067 -26.5145  26.5831  19.7623   0.00    0.0
2249 368038.800  -2403420.4701   5387326.7639   2417166.9000   6   4  24.8146  61.8774  26.2048 -26.5154  26.5828  19.7602   0.00    0.0
2249 368038.900  -2403420.4111   5387326.7937   2417166.9351   6   4  24.8138  61.8772  26.2029 -26.5163  26.5825  19.7582   0.00    0.0
2249 368039.000  -2403420.4928   5387327.0752   2417166.9766   6   4  24.8131  61.8770  26.2010 -26.5172  26.5822  19.7562   0.00    0.0
2249 368039.100  -2403420.3890   5387326.9909   2417167.0166   6   4  24.8124  61.8768  26.1992 -26.5181  26.5819  19.7543   0.00    0.0
2249 368039.200  -2403420.5311   5387327.1515   2417167.0025   6   4  24.8118  61.8766  26.1974 -26.5189  26.5817  19.7524   0.00    0.0
2249 368039.300  -2403420.5862   5387327.2329   2417166.9644   6   4  24.8112  61.8764  26.1957 -26.5198  26.5814  19.7506   0.00    0.0
2249 368039.400  -2403420.6197   5387327.1355   2417166.9327   6   4  24.8106  61.8763  26.1940 -26.5207  26.5811  19.7488   0.00    0.0
2249 368039.500  -2403420.5985   5387327.0779   2417166.9089   6   4  24.8101  61.8761  26.1923 -26.5216  26.5809  19.7471   0.00    0.0
2249 368039.600  -2403420.6887   5387326.6204   2417166.6440   6   4  24.8096  61.8759  26.1907 -26.5224  26.5806  19.7454   0.00    0.0
2249 368039.700  -2403420.7054   5387326.5164   2417166.5768   6   4  24.8091  61.8757  26.1891 -26.5233  26.5803  19.7437   0.00    0.0
2249 368039.800  -2403420.6907   5387326.2985   2417166.5293   6   4  24.8086  61.8755  26.1875 -26.5242  26.5801  19.7421   0.00    0.0
2249 368039.900  -2403420.7392   5387326.3231   2417166.4578   6   4  24.8082  61.8753  26.1859 -26.5250  26.5798  19.7406   0.00    0.0
2249 368040.000  -2403420.7886   5387326.1763   2417166.3637   6   4  24.8078  61.8751  26.1844 -26.5259  26.5795  19.7390   0.00    0.0
2249 368040.100  -2403420.7254   5387326.0793   2417166.3675   6   4  24.8075  61.8749  26.1830 -26.5267  26.5793  19.7375   0.00    0.0
2249 368040.200  -2403420.7871   5387326.1374   2417166.3625   6   4  24.8071  61.8747  26.1815 -26.5276  26.5790  19.7360   0.00    0.0
2249 368040.300  -2403420.7839   5387326.2568   2417166.4049   6   4  24.8068  61.8745  26.1801 -26.5285  26.5788  19.7346   0.00    0.0
2249 368040.400  -2403420.9295   5387326.3373   2417166.2825   6   4  24.8065  61.8744  26.1787 -26.5293  26.5785  19.7332   0.00    0.0
2249 368040.500  -2403420.9859   5387326.4324   2417166.2543   6   4  24.8062  61.8742  26.1773 -26.5302  26.5783  19.7318   0.00    0.0
2249 368040.600  -2403421.0723   5387326.4445   2417166.2076   6   4  24.8060  61.8740  26.1759 -26.5310  26.5780  19.7305   0.00    0.0
2249 368040.700  -2403421.1295   5387326.7052   2417166.2339   6   4  24.8057  61.8738  26.1746 -26.5319  26.5778  19.7291   0.00    0.0
2249 368040.800  -2403421.1212   5387326.5806   2417166.1582   6   4  24.8055  61.8736  26.1733 -26.5327  26.5775  19.7278   0.00    0.0
2249 368040.900  -2403421.0414   5387326.4366   2417166.1659   6   4  24.8053  61.8734  26.1720 -26.5336  26.5773  19.7266   0.00    0.0
2249 368041.000  -2403421.0146   5387326.6364   2417166.2893   6   4  24.8052  61.8732  26.1707 -26.5344  26.5770  19.7253   0.00    0.0
2249 368041.100  -2403421.2445   5387326.8890   2417166.2506   6   4  24.8050  61.8730  26.1695 -26.5353  26.5768  19.7241   0.00    0.0
2249 368041.200  -2403421.0392   5387326.7570   2417166.3274   6   4  24.8049  61.8729  26.1683 -26.5361  26.5765  19.7229   0.00    0.0
2249 368041.300  -2403421.1365   5387326.8479   2417166.2957   6   4  24.8047  61.8727  26.1671 -26.5370  26.5763  19.7217   0.00    0.0
2249 368041.400  -2403421.2507   5387326.9465   2417166.2609   6   4  24.8046  61.8725  26.1659 -26.5378  26.5761  19.7206   0.00    0.0
2249 368041.500  -2403421.1014   5387326.5326   2417166.1941   6   4  24.8046  61.8723  26.1647 -26.5386  26.5758  19.7195   0.00    0.0
2249 368041.600  -2403421.0820   5387326.6135   2417166.2941   6   4  24.8045  61.8721  26.1636 -26.5395  26.5756  19.7183   0.00    0.0
2249 368041.700  -2403421.1433   5387326.7284   2417166.2739   6   4  24.8044  61.8719  26.1624 -26.5403  26.5753  19.7173   0.00    0.0
2249 368041.800  -2403421.0966   5387326.9729   2417166.3668   6   4  24.8044  61.8717  26.1613 -26.5412  26.5751  19.7162   0.00    0.0
2249 368041.900  -2403421.1342   5387327.2651   2417166.4724   6   4  24.8044  61.8716  26.1602 -26.5420  26.5749  19.7151   0.00    0.0
2249 368042.000  -2403421.1761   5387327.2226   2417166.4875   6   4  24.8043  61.8714  26.1591 -26.5428  26.5746  19.7141   0.00    0.0
2249 368042.100  -2403421.0327   5387327.2350   2417166.6046   6   4  24.8043  61.8712  26.1580 -26.5437  26.5744  19.7131   0.00    0.0
2249 368042.200  -2403421.0231   5387326.9903   2417166.5478   6   4  24.8044  61.8710  26.1570 -26.5445  26.5742  19.7121   0.00    0.0
2249 368042.300  -2403420.9639   5387326.8998   2417166.5562   6   4  24.8044  61.8708  26.1559 -26.5453  26.5739  19.7111   0.00    0.0
2249 368042.400  -2403420.8793   5387326.9083   2417166.6673   6   4  24.8044  61.8706  26.1549 -26.5462  26.5737  19.7102   0.00    0.0
2249 368042.500  -2403420.8726   5387326.7777   2417166.6264   6   4  24.8045  61.8704  26.1539 -26.5470  26.5735  19.7092   0.00    0.0
2249 368042.600  -2403420.9164   5387326.6394   2417166.5520   6   4  24.8045  61.8702  26.1529 -26.5478  26.5732  19.7083   0.00    0.0
2249 368042.700  -2403421.0417   5387326.6556   2417166.4188   6   4  24.8046  61.8701  26.1519 -26.5487  26.5730  19.7074   0.00    0.0
2249 368042.800  -2403421.0102   5387326.6641   2417166.3897   6   4  24.8047  61.8699  26.1509 -26.5495  26.5728  19.7065   0.00    0.0
2249 368042.900  -2403421.0815   5387326.6672   2417166.3899   6   4  24.8048  61.8697  26.1499 -26.5503  26.5726  19.7056   0.00    0.0
2249 368043.000  -2403421.2224   5387326.7287   2417166.2991   6   4  24.8049  61.8695  26.1490 -26.5512  26.5723  19.7047   0.00    0.0
2249 368043.100  -2403421.1210   5387326.7050   2417166.3704   6   4  24.8050  61.8693  26.1480 -26.5520  26.5721  19.7039   0.00    0.0
2249 368043.200  -2403421.0253   5387326.7962   2417166.4569   6   4  24.8051  61.8691  26.1471 -26.5528  26.5719  19.7030   0.00    0.0
2249 368043.300  -2403421.1302   5387327.0486   2417166.5253   6   4  24.8053  61.8690  26.1462 -26.5536  26.5717  19.7022   0.00    0.0
2249 368043.400  -2403421.0288   5387327.1035   2417166.6580   6   4  24.8054  61.8688  26.1453 -26.5545  26.5714  19.7014   0.00    0.0
2249 368043.500  -2403421.0339   5387327.5106   2417166.8702   6   4  24.8056  61.8686  26.1444 -26.5553  26.5712  19.7006   0.00    0.0
2249 368043.600  -2403421.0266   5387327.4549   2417166.8076   6   4  24.8057  61.8684  26.1435 -26.5561  26.5710  19.6998   0.00    0.0
2249 368043.700  -2403421.0726   5387327.4349   2417166.8001   6   4  24.8059  61.8682  26.1426 -26.5569  26.5708  19.6990   0.00    0.0
2249 368043.800  -2403421.0567   5387327.4852   2417166.8281   6   4  24.8061  61.8680  26.1417 -26.5578  26.5705  19.6983   0.00    0.0
2249 368043.900  -2403421.0239   5387327.6819   2417166.9279   6   4  24.8063  61.8678  26.1409 -26.5586  26.5703  19.6975   0.00    0.0
2249 368044.000  -2403421.0866   5387327.8489   2417166.9384   6   4  24.8065  61.8677  26.1400 -26.5594  26.5701  19.6968   0.00    0.0
2249 368044.100  -2403421.2355   5387327.9235   2417166.8653   6   4  24.8067  61.8675  26.1392 -26.5602  26.5699  19.6960   0.00    0.0
2249 368044.200  -2403421.2081   5387328.0842   2417166.9218   6   4  24.8069  61.8673  26.1383 -26.5611  26.5697  19.6953   0.00    0.0
2249 368044.300  -2403421.0954   5387327.7612   2417166.9275   6   4  24.8071  61.8671  26.1375 -26.5619  26.5694  19.6946   0.00    0.0
2249 368044.400  -2403423.7460   5387340.2323   2417168.9144   6   4  24.8073  61.8669  26.1367 -26.5627  26.5692  19.6939   0.00    0.0
2249 368044.500  -2403441.9848   5387371.9635   2417161.5288   6   5   6.5250  45.9214  24.2521  16.9300  33.3139  12.4354   0.00    0.0
2249 368044.600  -2403442.3698   5387372.5252   2417161.3486   6   5   6.4357  45.8818  24.2477  16.9891  33.3253  12.4165   0.00    0.0
2249 368044.700  -2403442.6605   5387373.2049   2417161.3637   6   5   6.4056  45.8676  24.2459  17.0086  33.3285  12.4101   0.00    0.0
2249 368044.800  -2403442.9672   5387374.1300   2417161.4131   6   5   6.3905  45.8598  24.2448  17.0182  33.3297  12.4068   0.00    0.0
2249 368044.900  -2403442.9790   5387374.6959   2417161.5622   6   5   6.3814  45.8545  24.2439  17.0239  33.3300  12.4048   0.00    0.0
2249 368045.000  -2403443.2031   5387375.1396   2417161.5179   6   5   6.3754  45.8505  24.2431  17.0276  33.3300  12.4035   0.00    0.0
2249 368045.100  -2403443.5233   5387375.6076   2417161.4100   6   5   6.3711  45.8473  24.2425  17.0302  33.3298  12.4025   0.00    0.0
2249 368045.200  -2403443.4307   5387374.6949   2417161.1320   6   5   6.3678  45.8445  24.2419  17.0321  33.3294  12.4017   0.00    0.0
2249 368045.300  -2403443.1914   5387372.7935   2417160.6991   6   5   6.3653  45.8421  24.2413  17.0335  33.3289  12.4011   0.00    0.0
2249 368045.400  -2403442.8825   5387371.6664   2417160.6509   6   5   6.3633  45.8399  24.2408  17.0346  33.3284  12.4006   0.00    0.0
2249 368045.500  -2403442.5589   5387370.5275   2417160.5917   6   5   6.3616  45.8378  24.2403  17.0355  33.3278  12.4002   0.00    0.0
2249 368045.600  -2403442.2748   5387369.8366   2417160.6086   6   5   6.3602  45.8359  24.2398  17.0361  33.3272  12.3998   0.00    0.0
2249 368045.700  -2403442.0931   5387370.3709   2417161.0331   6   5   6.3591  45.8341  24.2393  17.0367  33.3266  12.3995   0.00    0.0
2249 368045.800  -2403441.9980   5387370.7016   2417161.2336   6   5   6.3581  45.8323  24.2389  17.0372  33.3260  12.3992   0.00    0.0
2249 368045.900  -2403441.9943   5387369.1180   2417160.6711   6   5   6.3572  45.8307  24.2384  17.0375  33.3253  12.3990   0.00    0.0
2249 368046.000  -2403441.8527   5387368.9045   2417160.7458   6   5   6.3565  45.8290  24.2380  17.0378  33.3247  12.3987   0.00    0.0
2249 368046.100  -2403441.7003   5387368.0859   2417160.6385   6   5   6.3558  45.8275  24.2375  17.0381  33.3240  12.3985   0.00    0.0
2249 368046.200  -2403441.5443   5387367.3686   2417160.5276   6   5   6.3552  45.8259  24.2371  17.0383  33.3233  12.3984   0.00    0.0
2249 368046.300  -2403441.3962   5387366.7817   2417160.4853   6   5   6.3547  45.8244  24.2367  17.0384  33.3227  12.3982   0.00    0.0
2249 368046.400  -2403441.1611   5387366.5909   2417160.6736   6   5   6.3543  45.8229  24.2363  17.0386  33.3220  12.3980   0.00    0.0
2249 368046.500  -2403440.9261   5387365.2135   2417160.3902   6   5   6.3539  45.8215  24.2359  17.0387  33.3214  12.3979   0.00    0.0
2249 368046.600  -2403440.6759   5387364.6517   2417160.5231   6   5   6.3535  45.8201  24.2355  17.0388  33.3207  12.3977   0.00    0.0
2249 368046.700  -2403440.3791   5387363.9933   2417160.5189   6   5   6.3532  45.8187  24.2351  17.0388  33.3200  12.3976   0.00    0.0
2249 368046.800  -2403440.1845   5387363.2894   2417160.4472   6   5   6.3529  45.8173  24.2347  17.0389  33.3194  12.3975   0.00    0.0
2249 368046.900  -2403440.0622   5387361.9080   2417160.1486   6   5   6.3526  45.8160  24.2343  17.0389  33.3187  12.3974   0.00    0.0
2249 368047.000  -2403439.7280   5387361.3136   2417160.2725   6   5   6.3523  45.8147  24.2339  17.0390  33.3181  12.3973   0.00    0.0
2249 368047.100  -2403439.4399   5387360.7710   2417160.3628   6   5   6.3521  45.8133  24.2335  17.0390  33.3174  12.3972   0.00    0.0
2249 368047.200  -2403441.8810   5387340.2314   2417149.9506   6   4   8.2833  59.7668  31.6183  22.2351  43.4691  16.1761   0.00    0.0
2249 368047.300  -2403441.5410   5387339.7739   2417150.1355   6   4   8.2833  59.7667  31.6186  22.2355  43.4693  16.1763   0.00    0.0
2249 368047.400  -2403441.2374   5387339.6569   2417150.5128   6   4   8.2833  59.7665  31.6188  22.2358  43.4694  16.1765   0.00    0.0
2249 368047.500  -2403440.7950   5387340.1659   2417151.0986   6   4   8.2834  59.7664  31.6190  22.2362  43.4696  16.1768   0.00    0.0
2249 368047.600  -2403440.5289   5387339.5518   2417151.1716   6   4   8.2834  59.7662  31.6192  22.2365  43.4697  16.1770   0.00    0.0
2249 368047.700  -2403440.2141   5387339.5699   2417151.5221   6   4   8.2835  59.7661  31.6195  22.2369  43.4699  16.1772   0.00    0.0
2249 368047.800  -2403439.9042   5387339.7287   2417151.9269   6   4   8.2836  59.7659  31.6197  22.2372  43.4700  16.1775   0.00    0.0
2249 368047.900  -2403439.6166   5387340.2880   2417152.4378   6   4   8.2836  59.7658  31.6200  22.2376  43.4702  16.1777   0.00    0.0
2249 368048.000  -2403439.4367   5387339.8496   2417152.4600   6   4   8.2837  59.7656  31.6202  22.2379  43.4703  16.1780   0.00    0.0
2249 368048.100  -2403439.2410   5387340.0343   2417152.8227   6   4   8.2838  59.7655  31.6204  22.2383  43.4705  16.1782   0.00    0.0
2249 368048.200  -2403438.9760   5387339.6431   2417152.8475   6   4   8.2840  59.7653  31.6207  22.2386  43.4706  16.1785   0.00    0.0
2249 368048.300  -2403438.7593   5387339.3510   2417153.0236   6   4   8.2841  59.7652  31.6209  22.2390  43.4708  16.1788   0.00    0.0
2249 368048.400  -2403438.3810   5387340.3368   2417153.7972   6   4   8.2842  59.7650  31.6212  22.2393  43.4709  16.1790   0.00    0.0
2249 368048.500  -2403437.9911   5387341.5566   2417154.6266   6   4   8.2843  59.7649  31.6214  22.2396  43.4710  16.1793   0.00    0.0
2249 368048.600  -2403437.7559   5387342.0911   2417155.1234   6   4   8.2845  59.7647  31.6217  22.2400  43.4712  16.1796   0.00    0.0
2249 368048.700  -2403437.5411   5387342.4964   2417155.4963   6   4   8.2846  59.7646  31.6219  22.2403  43.4713  16.1799   0.00    0.0
2249 368048.800  -2403437.5640   5387341.3567   2417155.0672   6   4   8.2848  59.7644  31.6222  22.2407  43.4715  16.1802   0.00    0.0
2249 368048.900  -2403437.4844   5387340.5546   2417154.8746   6   4   8.2849  59.7643  31.6224  22.2410  43.4716  16.1804   0.00    0.0
2249 368049.000  -2403436.5557   5387345.8110   2417157.8818   6   5   7.0490  50.8389  26.8989  18.9180  36.9784  13.7633   0.00    0.0
2249 368049.100  -2403436.4210   5387345.2262   2417157.7809   6   5   6.7249  48.4953  25.6592  18.0461  35.2739  13.1293   0.00    0.0
2249 368049.200  -2403436.3537   5387343.9143   2417157.4036   6   5   6.6052  47.6286  25.2009  17.7239  34.6436  12.8950   0.00    0.0
2249 368049.300  -2403436.0726   5387343.8412   2417157.5934   6   5   6.5428  47.1767  24.9621  17.5561  34.3152  12.7729   0.00    0.0
2249 368049.400  -2403435.9572   5387343.5096   2417157.6472   6   5   6.5045  46.8991  24.8156  17.4531  34.1135  12.6981   0.00    0.0
2249 368049.500  -2403435.7698   5387343.3154   2417157.8020   6   5   6.4787  46.7112  24.7164  17.3835  33.9770  12.6475   0.00    0.0
2249 368049.600  -2403435.5569   5387343.1432   2417157.9066   6   5   6.4600  46.5754  24.6448  17.3333  33.8784  12.6110   0.00    0.0
2249 368049.700  -2403435.7912   5387340.1297   2417156.5125   6   5   6.4459  46.4726  24.5907  17.2954  33.8039  12.5834   0.00    0.0
2249 368049.800  -2403435.5393   5387340.8301   2417157.0804   6   5   6.4349  46.3921  24.5484  17.2657  33.7455  12.5619   0.00    0.0
2249 368049.900  -2403435.1080   5387342.4966   2417158.1242   6   5   6.4261  46.3272  24.5144  17.2419  33.6985  12.5446   0.00    0.0
2249 368050.000  -2403435.0498   5387341.8046   2417157.9167   6   5   6.4189  46.2738  24.4864  17.2224  33.6599  12.5304   0.00    0.0
2249 368050.100  -2403427.7400   5387331.7136   2417161.8835   6   5   6.5897  46.3005  24.4712  17.0924  33.6032  12.5570   0.00    0.0
2249 368050.200  -2403427.6693   5387331.5472   2417161.8652   6   5   6.4961  46.2249  24.4475  17.1371  33.5878  12.5283   0.00    0.0
2249 368050.300  -2403427.5827   5387332.8460   2417162.4469   6   5   6.4618  46.1798  24.4290  17.1446  33.5682  12.5133   0.00    0.0
2249 368050.400  -2403427.2288   5387333.7726   2417163.2218   6   5   6.4430  46.1451  24.4135  17.1439  33.5497  12.5026   0.00    0.0
2249 368050.500  -2403427.4702   5387331.6130   2417162.1487   6   5   6.4306  46.1163  24.4001  17.1406  33.5328  12.4941   0.00    0.0
2249 368050.600  -2403427.3288   5387331.9989   2417162.4449   6   5   6.4216  46.0916  24.3882  17.1364  33.5176  12.4870   0.00    0.0
2249 368050.700  -2403427.0842   5387333.0469   2417163.1411   6   5   6.4147  46.0700  24.3777  17.1320  33.5039  12.4809   0.00    0.0
2249 368050.800  -2403426.6115   5387335.6942   2417164.5902   6   5   6.4091  46.0509  24.3684  17.1276  33.4915  12.4756   0.00    0.0
2249 368050.900  -2403426.3429   5387337.2021   2417165.4920   6   5   6.4045  46.0337  24.3599  17.1234  33.4803  12.4709   0.00    0.0
2249 368051.000  -2403426.1338   5387338.2212   2417166.0853   6   5   6.4006  46.0182  24.3522  17.1195  33.4700  12.4667   0.00    0.0
2249 368051.100  -2403426.6033   5387334.7695   2417164.3115   6   5   6.3972  46.0041  24.3453  17.1158  33.4606  12.4629   0.00    0.0
2249 368051.200  -2403426.5686   5387335.1292   2417164.4452   6   5   6.3943  45.9912  24.3389  17.1123  33.4520  12.4595   0.00    0.0
2249 368051.300  -2403426.3606   5387336.7515   2417165.2922   6   5   6.3917  45.9793  24.3330  17.1090  33.4440  12.4564   0.00    0.0
2249 368051.400  -2403426.2503   5387337.4081   2417165.6614   6   5   6.3894  45.9683  24.3277  17.1060  33.4366  12.4536   0.00    0.0
2249 368051.500  -2403425.8459   5387339.3556   2417166.7827   6   5   6.3874  45.9582  24.3227  17.1031  33.4298  12.4510   0.00    0.0
2249 368051.600  -2403426.0146   5387337.5289   2417165.9589   6   5   6.3855  45.9487  24.3180  17.1004  33.4234  12.4486   0.00    0.0
2249 368051.700  -2403425.8012   5387339.0173   2417166.7716   6   5   6.3838  45.9399  24.3137  17.0979  33.4174  12.4464   0.00    0.0
2249 368051.800  -2403425.8704   5387338.3984   2417166.3969   6   5   6.3823  45.9317  24.3097  17.0956  33.4118  12.4443   0.00    0.0
2249 368051.900  -2403425.7975   5387339.1986   2417166.8493   6   5   6.3809  45.9239  24.3059  17.0934  33.4066  12.4424   0.00    0.0
2249 368052.000  -2403425.5963   5387340.3394   2417167.4495   6   5   6.3796  45.9166  24.3024  17.0913  33.4017  12.4406   0.00    0.0
2249 368052.100  -2403425.6263   5387340.4376   2417167.4728   6   5   6.3784  45.9098  24.2991  17.0893  33.3970  12.4390   0.00    0.0
2249 368052.200  -2403425.8602   5387338.3891   2417166.4186   6   5   6.3773  45.9033  24.2959  17.0875  33.3926  12.4374   0.00    0.0
2249 368052.300  -2403425.5869   5387340.1543   2417167.3965   6   5   6.3763  45.8971  24.2930  17.0857  33.3885  12.4360   0.00    0.0
2249 368052.400  -2403425.3828   5387341.6032   2417168.2273   6   5   6.3754  45.8912  24.2902  17.0841  33.3845  12.4346   0.00    0.0
2249 368052.500  -2403425.5909   5387339.9072   2417167.3043   6   5   6.3745  45.8857  24.2876  17.0825  33.3808  12.4333   0.00    0.0
2249 368052.600  -2403425.9143   5387337.2169   2417165.9497   6   4   8.2977  59.7587  31.6336  22.2530  43.4766  16.1944   0.00    0.0
2249 368052.700  -2403425.8512   5387337.3475   2417166.1205   6   4   8.2977  59.7585  31.6338  22.2533  43.4768  16.1946   0.00    0.0
2249 368052.800  -2403425.7951   5387337.2415   2417166.0797   6   4   8.2977  59.7584  31.6340  22.2537  43.4769  16.1948   0.00    0.0
2249 368052.900  -2403425.7827   5387337.2485   2417166.0967   6   4   8.2977  59.7582  31.6343  22.2540  43.4771  16.1950   0.00    0.0
2249 368053.000  -2403425.7904   5387337.2799   2417166.1663   6   4   8.2977  59.7581  31.6345  22.2544  43.4772  16.1953   0.00    0.0
2249 368053.100  -2403425.7723   5387337.0111   2417166.0348   6   4   8.2978  59.7579  31.6347  22.2548  43.4774  16.1955   0.00    0.0
2249 368053.200  -2403425.7991   5387336.9377   2417166.0438   6   4   8.2978  59.7578  31.6350  22.2551  43.4775  16.1957   0.00    0.0
2249 368053.300  -2403425.7344   5387337.0912   2417166.0908   6   4   8.2979  59.7576  31.6352  22.2555  43.4777  16.1960   0.00    0.0
2249 368053.400  -2403425.7370   5387337.1045   2417166.1074   6   4   8.2980  59.7575  31.6354  22.2558  43.4778  16.1962   0.00    0.0
2249 368053.500  -2403425.7706   5387336.8533   2417165.9572   6   4   8.2981  59.7573  31.6357  22.2562  43.4780  16.1965   0.00    0.0
2249 368053.600  -2403425.6943   5387337.4502   2417166.3217   6   4   8.2982  59.7572  31.6359  22.2565  43.4781  16.1967   0.00    0.0
2249 368053.700  -2403425.8783   5387336.4237   2417165.7300   6   4   8.2983  59.7570  31.6362  22.2569  43.4783  16.1970   0.00    0.0
2249 368053.800  -2403425.9161   5387336.1303   2417165.5715   6   4   8.2984  59.7569  31.6364  22.2572  43.4784  16.1972   0.00    0.0
2249 368053.900  -2403426.0105   5387335.4892   2417165.2410   6   4   8.2985  59.7567  31.6366  22.2575  43.4786  16.1975   0.00    0.0
2249 368054.000  -2403426.0165   5387335.0768   2417165.0642   6   4   8.2987  59.7566  31.6369  22.2579  43.4787  16.1978   0.00    0.0
2249 368054.100  -2403425.9776   5387335.2465   2417165.1774   6   4   8.2988  59.7564  31.6371  22.2582  43.4788  16.1981   0.00    0.0
2249 368054.200  -2403426.0528   5387334.3846   2417164.7323   6   4   8.2990  59.7563  31.6374  22.2586  43.4790  16.1983   0.00    0.0
2249 368054.300  -2403425.9926   5387334.1657   2417164.7202   6   4   8.2991  59.7561  31.6377  22.2589  43.4791  16.1986   0.00    0.0
2249 368054.400  -2403425.9880   5387334.0116   2417164.6946   6   4   8.2993  59.7560  31.6379  22.2593  43.4793  16.1989   0.00    0.0
2249 368054.500  -2403425.9079   5387333.9909   2417164.7185   6   4   8.2994  59.7558  31.6382  22.2596  43.4794  16.1992   0.00    0.0
2249 368054.600  -2403425.7811   5387334.5466   2417165.1265   6   4   8.2996  59.7557  31.6384  22.2599  43.4796  16.1995   0.00    0.0
2249 368054.700  -2403425.7800   5387334.2570   2417165.0003   6   4   8.2998  59.7555  31.6387  22.2603  43.4797  16.1998   0.00    0.0
2249 368054.800  -2403420.9076   5387368.6463   2417183.2332   6   5   0.8944   6.2337   3.2677   2.2691   4.5025   1.6631   0.00    0.0
2249 368054.900  -2403421.0574   5387367.4098   2417182.6591   6   5   0.6594   4.4630   2.3178   1.5889   3.2015   1.1729   0.00    0.0
2249 368055.000  -2403421.0027   5387367.3697   2417182.6226   6   5   0.5592   3.6870   1.8981   1.2851   2.6279   0.9552   0.00    0.0
2249 368055.100  -2403421.0046   5387367.3659   2417182.6995   6   5   0.5013   3.2287   1.6485   1.1026   2.2876   0.8252   0.00    0.0
2249 368055.200  -2403420.8478   5387367.9573   2417183.0619   6   5   0.4628   2.9186   1.4787   0.9774   2.0562   0.7363   0.00    0.0
2249 368055.300  -2403420.7761   5387368.2434   2417183.2773   6   5   0.4351   2.6913   1.3536   0.8844   1.8861   0.6706   0.00    0.0
2249 368055.400  -2403420.7977   5387367.9000   2417183.1286   6   5   0.4140   2.5158   1.2565   0.8118   1.7544   0.6195   0.00    0.0
2249 368055.500  -2403420.6964   5387368.0619   2417183.2566   6   5   0.3972   2.3751   1.1785   0.7531   1.6485   0.5783   0.00    0.0
2249 368055.600  -2403420.7231   5387367.4940   2417183.0100   6   5   0.3835   2.2591   1.1140   0.7042   1.5611   0.5441   0.00    0.0
2249 368055.700  -2403420.7325   5387367.0983   2417182.8352   6   5   0.3721   2.1614   1.0595   0.6628   1.4873   0.5152   0.00    0.0
2249 368055.800  -2403420.7457   5387366.6602   2417182.6700   6   5   0.3624   2.0776   1.0128   0.6271   1.4240   0.4903   0.00    0.0
2249 368055.900  -2403420.8125   5387365.9493   2417182.3395   6   5   0.3540   2.0048   0.9720   0.5959   1.3689   0.4686   0.00    0.0
2249 368056.000  -2403420.8135   5387365.6348   2417182.2110   6   5   0.3466   1.9407   0.9362   0.5683   1.3205   0.4494   0.00    0.0
2249 368056.100  -2403420.8199   5387364.8654   2417181.8656   6   5   0.3401   1.8838   0.9043   0.5437   1.2773   0.4323   0.00    0.0
2249 368056.200  -2403420.9242   5387364.0623   2417181.4553   6   5   0.3343   1.8327   0.8757   0.5216   1.2387   0.4170   0.00    0.0
2249 368056.300  -2403420.9849   5387363.8413   2417181.3578   6   5   0.3290   1.7865   0.8498   0.5016   1.2038   0.4031   0.00    0.0
2249 368056.400  -2403421.0036   5387363.1871   2417181.0364   6   5   0.3242   1.7446   0.8263   0.4834   1.1720   0.3905   0.00    0.0
2249 368056.500  -2403421.0446   5387362.8436   2417180.8775   6   5   0.3199   1.7062   0.8048   0.4667   1.1430   0.3789   0.00    0.0
2249 368056.600  -2403421.0360   5387362.6024   2417180.7914   6   5   0.3159   1.6709   0.7851   0.4513   1.1163   0.3683   0.00    0.0
2249 368056.700  -2403421.0993   5387362.1960   2417180.5670   6   5   0.3122   1.6383   0.7668   0.4372   1.0917   0.3585   0.00    0.0
2249 368056.800  -2403421.1195   5387361.7224   2417180.3201   6   5   0.3087   1.6080   0.7500   0.4240   1.0689   0.3494   0.00    0.0
2249 368056.900  -2403421.1909   5387361.3094   2417180.1304   6   5   0.3055   1.5799   0.7343   0.4118   1.0477   0.3409   0.00    0.0
2249 368057.000  -2403421.2093   5387361.1663   2417180.0432   6   5   0.3025   1.5536   0.7196   0.4004   1.0279   0.3330   0.00    0.0
2249 368057.100  -2403421.2321   5387360.5046   2417179.7544   6   5   0.2997   1.5289   0.7059   0.3897   1.0094   0.3256   0.00    0.0
2249 368057.200  -2403421.2665   5387360.2432   2417179.6147   6   5   0.2970   1.5057   0.6930   0.3797   0.9920   0.3186   0.00    0.0
2249 368057.300  -2403421.2960   5387359.9881   2417179.4943   6   5   0.2945   1.4839   0.6809   0.3702   0.9757   0.3121   0.00    0.0
2249 368057.400  -2403421.2935   5387359.7423   2417179.3595   6   5   0.2922   1.4633   0.6695   0.3614   0.9602   0.3059   0.00    0.0
2249 368057.500  -2403421.3261   5387359.3060   2417179.1835   6   5   0.2899   1.4437   0.6587   0.3530   0.9456   0.3000   0.00    0.0
2249 368057.600  -2403421.3558   5387359.0428   2417179.0417   6   5   0.2878   1.4252   0.6485   0.3450   0.9318   0.2945   0.00    0.0
2249 368057.700  -2403421.3663   5387358.7149   2417178.8806   6   5   0.2857   1.4076   0.6388   0.3375   0.9187   0.2892   0.00    0.0
2249 368057.800  -2403421.3696   5387358.5512   2417178.8230   6   5   0.2838   1.3908   0.6296   0.3303   0.9062   0.2842   0.00    0.0
2249 368057.900  -2403421.3811   5387358.4249   2417178.7927   6   5   0.2819   1.3748   0.6208   0.3235   0.8943   0.2795   0.00    0.0
2249 368058.000  -2403421.3559   5387358.3314   2417178.7376   6   5   0.2801   1.3595   0.6124   0.3170   0.8830   0.2749   0.00    0.0
2249 368058.100  -2403421.3205   5387358.2944   2417178.7587   6   5   0.2784   1.3449   0.6044   0.3108   0.8722   0.2706   0.00    0.0
2249 368058.200  -2403421.3353   5387358.2450   2417178.7648   6   5   0.2768   1.3308   0.5968   0.3049   0.8618   0.2664   0.00    0.0
2249 368058.300  -2403421.3126   5387358.2040   2417178.7366   6   5   0.2752   1.3174   0.5895   0.2992   0.8519   0.2625   0.00    0.0
2249 368058.400  -2403421.3071   5387358.0971   2417178.7012   6   5   0.2737   1.3045   0.5825   0.2938   0.8423   0.2586   0.00    0.0
2249 368058.500  -2403421.2822   5387358.1667   2417178.7641   6   5   0.2722   1.2920   0.5757   0.2886   0.8332   0.2550   0.00    0.0
2249 368058.600  -2403421.2374   5387358.1485   2417178.7693   6   5   0.2708   1.2801   0.5693   0.2836   0.8244   0.2515   0.00    0.0
2249 368058.700  -2403421.2626   5387358.0161   2417178.7246   6   5   0.2694   1.2685   0.5630   0.2788   0.8160   0.2481   0.00    0.0
2249 368058.800  -2403421.2716   5387357.8234   2417178.6128   6   5   0.2680   1.2574   0.5571   0.2742   0.8078   0.2448   0.00    0.0
2249 368058.900  -2403421.2545   5387357.7423   2417178.6104   6   5   0.2668   1.2467   0.5513   0.2698   0.8000   0.2417   0.00    0.0
2249 368059.000  -2403421.2212   5387357.9558   2417178.7246   6   5   0.2655   1.2363   0.5457   0.2655   0.7924   0.2386   0.00    0.0
2249 368059.100  -2403421.1829   5387357.9440   2417178.7191   6   5   0.2643   1.2262   0.5403   0.2613   0.7851   0.2357   0.00    0.0
2249 368059.200  -2403421.1730   5387358.0860   2417178.7961   6   5   0.2631   1.2165   0.5352   0.2574   0.7780   0.2329   0.00    0.0
2249 368059.300  -2403421.1666   5387357.8785   2417178.7240   6   5   0.2619   1.2071   0.5301   0.2535   0.7712   0.2301   0.00    0.0
2249 368059.400  -2403421.1169   5387357.8894   2417178.7314   6   5   0.2608   1.1979   0.5253   0.2498   0.7646   0.2275   0.00    0.0
2249 368059.500  -2403421.0995   5387357.9315   2417178.7596   6   5   0.2597   1.1891   0.5206   0.2462   0.7581   0.2249   0.00    0.0
2249 368059.600  -2403420.9682   5387359.5688   2417179.4248   6   6   0.2571   1.1246   0.4956   0.2205   0.7168   0.2130   0.00    0.0
2249 368059.700  -2403420.8888   5387360.6324   2417179.8827   6   6   0.2524   1.0641   0.4729   0.1871   0.6786   0.1992   0.00    0.0
2249 368059.800  -2403420.8149   5387361.2991   2417180.1458   6   6   0.2498   1.0171   0.4549   0.1632   0.6485   0.1898   0.00    0.0
2249 368059.900  -2403420.7898   5387361.6927   2417180.3308   6   6   0.2478   0.9773   0.4396   0.1425   0.6231   0.1820   0.00    0.0
2249 368060.000  -2403420.7701   5387361.7347   2417180.3336   6   6   0.2461   0.9427   0.4263   0.1232   0.6009   0.1754   0.00    0.0
2249 368060.100  -2403420.7365   5387361.5673   2417180.3010   6   6   0.2446   0.9121   0.4145   0.1045   0.5812   0.1695   0.00    0.0
2249 368060.200  -2403420.7691   5387361.4612   2417180.2734   6   6   0.2432   0.8847   0.4040   0.0853   0.5637   0.1642   0.00    0.0
2249 368060.300  -2403420.7595   5387361.0777   2417180.0903   6   6   0.2420   0.8601   0.3945   0.0642   0.5479   0.1593   0.00    0.0
2249 368060.400  -2403420.8033   5387360.9520   2417180.0741   6   6   0.2408   0.8378   0.3859   0.0372   0.5335   0.1549   0.00    0.0
2249 368060.500  -2403420.7873   5387360.5591   2417179.9105   6   6   0.2397   0.8174   0.3781  -0.0321   0.5204   0.1508   0.00    0.0
2249 368060.600  -2403420.7995   5387360.2129   2417179.7685   6   6   0.2387   0.7987   0.3709  -0.0563   0.5084   0.1470   0.00    0.0
2249 368060.700  -2403420.8355   5387359.7737   2417179.6048   6   6   0.2377   0.7814   0.3642  -0.0713   0.4974   0.1434   0.00    0.0
2249 368060.800  -2403420.8576   5387359.3953   2417179.4710   6   6   0.2368   0.7654   0.3580  -0.0824   0.4871   0.1400   0.00    0.0
2249 368060.900  -2403420.8878   5387358.9672   2417179.2927   6   6   0.2359   0.7506   0.3523  -0.0913   0.4776   0.1369   0.00    0.0
2249 368061.000  -2403420.8990   5387358.5421   2417179.1316   6   6   0.2350   0.7368   0.3469  -0.0987   0.4688   0.1339   0.00    0.0
2249 368061.100  -2403420.9566   5387358.0503   2417178.9470   6   6   0.2342   0.7239   0.3419  -0.1050   0.4605   0.1311   0.00    0.0
2249 368061.200  -2403420.9551   5387357.6092   2417178.7575   6   6   0.2333   0.7118   0.3372  -0.1104   0.4528   0.1283   0.00    0.0
2249 368061.300  -2403420.9875   5387357.0918   2417178.5717   6   6   0.2326   0.7004   0.3328  -0.1151   0.4455   0.1258   0.00    0.0
2249 368061.400  -2403421.0238   5387356.6116   2417178.3581   6   6   0.2318   0.6897   0.3286  -0.1193   0.4386   0.1233   0.00    0.0
2249 368061.500  -2403421.0367   5387356.2476   2417178.2572   6   6   0.2311   0.6796   0.3247  -0.1230   0.4322   0.1209   0.00    0.0
2249 368061.600  -2403421.0827   5387355.7467   2417178.0275   6   6   0.2303   0.6700   0.3209  -0.1263   0.4261   0.1186   0.00    0.0
2249 368061.700  -2403421.0837   5387355.4739   2417177.9499   6   6   0.2296   0.6610   0.3173  -0.1293   0.4203   0.1164   0.00    0.0
2249 368061.800  -2403421.0995   5387355.0782   2417177.8159   6   6   0.2289   0.6524   0.3140  -0.1321   0.4148   0.1143   0.00    0.0
2249 368061.900  -2403421.1089   5387354.6416   2417177.6332   6   6   0.2283   0.6442   0.3107  -0.1346   0.4096   0.1122   0.00    0.0
2249 368062.000  -2403421.1426   5387354.4006   2417177.5346   6   6   0.2276   0.6364   0.3076  -0.1369   0.4046   0.1102   0.00    0.0
2249 368062.100  -2403421.1174   5387354.0323   2417177.4118   6   6   0.2270   0.6289   0.3047  -0.1389   0.3998   0.1083   0.00    0.0
2249 368062.200  -2403421.1770   5387353.7566   2417177.2915   6   6   0.2263   0.6218   0.3018  -0.1409   0.3953   0.1064   0.00    0.0
2249 368062.300  -2403421.1831   5387353.4304   2417177.1848   6   6   0.2257   0.6150   0.2991  -0.1426   0.3910   0.1046   0.00    0.0
2249 368062.400  -2403421.1910   5387353.2492   2417177.1280   6   6   0.2251   0.6085   0.2965  -0.1443   0.3868   0.1028   0.00    0.0
2249 368062.500  -2403421.2217   5387352.8688   2417176.9610   6   6   0.2245   0.6023   0.2940  -0.1458   0.3829   0.1011   0.00    0.0
2249 368062.600  -2403421.2554   5387352.6754   2417176.8950   6   6   0.2239   0.5963   0.2916  -0.1472   0.3791   0.0994   0.00    0.0
2249 368062.700  -2403421.2868   5387352.4239   2417176.7775   6   6   0.2233   0.5906   0.2893  -0.1486   0.3754   0.0978   0.00    0.0
2249 368062.800  -2403421.2735   5387352.0742   2417176.6395   6   6   0.2228   0.5850   0.2871  -0.1498   0.3719   0.0961   0.00    0.0
2249 368062.900  -2403421.3059   5387351.9490   2417176.6305   6   6   0.2222   0.5797   0.2849  -0.1510   0.3685   0.0946   0.00    0.0
2249 368063.000  -2403421.2999   5387351.7380   2417176.5330   6   6   0.2217   0.5746   0.2828  -0.1520   0.3652   0.0930   0.00    0.0
2249 368063.100  -2403421.3166   5387351.5262   2417176.4539   6   6   0.2211   0.5697   0.2808  -0.1531   0.3621   0.0915   0.00    0.0
2249 368063.200  -2403421.3520   5387351.3527   2417176.4089   6   6   0.2206   0.5649   0.2788  -0.1540   0.3591   0.0900   0.00    0.0
2249 368063.300  -2403421.3541   5387351.0836   2417176.2615   6   6   0.2201   0.5603   0.2769  -0.1549   0.3562   0.0885   0.00    0.0
2249 368063.400  -2403421.3770   5387350.8777   2417176.1738   6   6   0.2196   0.5558   0.2751  -0.1558   0.3533   0.0871   0.00    0.0
2249 368063.500  -2403421.3791   5387350.6767   2417176.1154   6   6   0.2191   0.5515   0.2733  -0.1566   0.3506   0.0857   0.00    0.0
2249 368063.600  -2403421.3984   5387350.5286   2417176.0531   6   6   0.2186   0.5474   0.2716  -0.1573   0.3480   0.0843   0.00    0.0
2249 368063.700  -2403421.3962   5387350.3804   2417175.9818   6   6   0.2181   0.5433   0.2699  -0.1580   0.3454   0.0829   0.00    0.0
2249 368063.800  -2403421.4018   5387350.2360   2417175.9538   6   6   0.2176   0.5394   0.2683  -0.1587   0.3429   0.0816   0.00    0.0
2249 368063.900  -2403421.4423   5387350.0243   2417175.8532   6   6   0.2171   0.5356   0.2667  -0.1593   0.3405   0.0802   0.00    0.0
2249 368064.000  -2403421.4318   5387349.9787   2417175.8465   6   6   0.2166   0.5319   0.2651  -0.1599   0.3382   0.0789   0.00    0.0
2249 368064.100  -2403421.4412   5387349.7879   2417175.7932   6   6   0.2162   0.5283   0.2636  -0.1605   0.3359   0.0776   0.00    0.0
2249 368064.200  -2403421.4583   5387349.6299   2417175.7245   6   6   0.2157   0.5249   0.2622  -0.1610   0.3337   0.0764   0.00    0.0
2249 368064.300  -2403421.4693   5387349.5360   2417175.6958   6   6   0.2152   0.5215   0.2607  -0.1616   0.3316   0.0751   0.00    0.0
2249 368064.400  -2403421.4919   5387349.3941   2417175.6093   6   6   0.2148   0.5182   0.2593  -0.1620   0.3295   0.0738   0.00    0.0
2249 368064.500  -2403421.4885   5387349.2979   2417175.6231   6   6   0.2143   0.5150   0.2580  -0.1625   0.3275   0.0726   0.00    0.0
2249 368064.600  -2403421.4918   5387349.1549   2417175.5277   6   6   0.2139   0.5119   0.2566  -0.1629   0.3255   0.0714   0.00    0.0
2249 368064.700  -2403421.5139   5387349.0385   2417175.4948   6   6   0.2135   0.5089   0.2553  -0.1634   0.3236   0.0701   0.00    0.0
2249 368064.800  -2403421.5322   5387349.0087   2417175.4967   6   6   0.2130   0.5059   0.2541  -0.1638   0.3217   0.0689   0.00    0.0
2249 368064.900  -2403421.5200   5387348.7797   2417175.3688   6   6   0.2126   0.5030   0.2528  -0.1641   0.3199   0.0678   0.00    0.0
2249 368065.000  -2403421.5442   5387348.7212   2417175.3767   6   6   0.2122   0.5002   0.2516  -0.1645   0.3181   0.0666   0.00    0.0
2249 368065.100  -2403421.5346   5387348.6307   2417175.3579   6   6   0.2118   0.4975   0.2504  -0.1648   0.3164   0.0654   0.00    0.0
2249 368065.200  -2403421.5593   5387348.5568   2417175.3353   6   6   0.2114   0.4948   0.2492  -0.1652   0.3147   0.0642   0.00    0.0
2249 368065.300  -2403421.5496   5387348.4554   2417175.2964   6   6   0.2110   0.4922   0.2481  -0.1655   0.3131   0.0630   0.00    0.0
2249 368065.400  -2403421.5749   5387348.4315   2417175.2815   6   6   0.2106   0.4896   0.2470  -0.1658   0.3115   0.0619   0.00    0.0
2249 368065.500  -2403421.6023   5387348.2320   2417175.1849   6   6   0.2102   0.4871   0.2459  -0.1661   0.3099   0.0608   0.00    0.0
2249 368065.600  -2403421.5849   5387348.2632   2417175.2277   6   6   0.2098   0.4847   0.2448  -0.1663   0.3084   0.0596   0.00    0.0
2249 368065.700  -2403421.5790   5387348.1393   2417175.2025   6   6   0.2094   0.4823   0.2438  -0.1666   0.3069   0.0585   0.00    0.0
2249 368065.800  -2403421.6085   5387348.0845   2417175.1607   6   6   0.2090   0.4800   0.2428  -0.1668   0.3054   0.0573   0.00    0.0
2249 368065.900  -2403421.5996   5387347.9889   2417175.1343   6   6   0.2086   0.4777   0.2417  -0.1671   0.3040   0.0562   0.00    0.0
2249 368066.000  -2403421.6282   5387347.9392   2417175.1228   6   6   0.2083   0.4755   0.2407  -0.1673   0.3026   0.0551   0.00    0.0
2249 368066.100  -2403421.6069   5387347.8456   2417175.0755   6   6   0.2079   0.4733   0.2398  -0.1675   0.3012   0.0539   0.00    0.0
2249 368066.200  -2403421.6379   5387347.7873   2417175.0378   6   6   0.2075   0.4712   0.2388  -0.1677   0.2998   0.0528   0.00    0.0
2249 368066.300  -2403421.6362   5387347.7729   2417175.0783   6   6   0.2071   0.4691   0.2379  -0.1679   0.2985   0.0517   0.00    0.0
2249 368066.400  -2403421.6449   5387347.6676   2417174.9957   6   6   0.2068   0.4670   0.2369  -0.1681   0.2972   0.0506   0.00    0.0
2249 368066.500  -2403421.6177   5387347.6028   2417175.0268   6   6   0.2064   0.4650   0.2360  -0.1683   0.2960   0.0494   0.00    0.0
2249 368066.600  -2403421.6367   5387347.6000   2417174.9996   6   6   0.2061   0.4631   0.2351  -0.1685   0.2947   0.0483   0.00    0.0
2249 368066.700  -2403421.6639   5387347.5579   2417174.9881   6   6   0.2057   0.4611   0.2343  -0.1686   0.2935   0.0471   0.00    0.0
2249 368066.800  -2403421.6791   5387347.5454   2417174.9962   6   6   0.2054   0.4592   0.2334  -0.1688   0.2923   0.0460   0.00    0.0
2249 368066.900  -2403421.6399   5387347.4005   2417174.9297   6   6   0.2050   0.4574   0.2325  -0.1689   0.2911   0.0448   0.00    0.0
2249 368067.000  -2403421.6786   5387347.4189   2417174.9430   6   6   0.2047   0.4555   0.2317  -0.1691   0.2900   0.0437   0.00    0.0
2249 368067.100  -2403421.6848   5387347.3161   2417174.8919   6   7   0.2043   0.4527   0.2304  -0.1697   0.2881   0.0415   0.00    0.0
2249 368067.200  -2403421.7360   5387347.2361   2417174.8625   6   7   0.2035   0.4479   0.2272  -0.1719   0.2840   0.0343   0.00    0.0
2249 368067.300  -2403421.7224   5387347.1786   2417174.8651   6   7   0.2029   0.4446   0.2254  -0.1730   0.2815   0.0298   0.00    0.0
2249 368067.400  -2403421.7228   5387347.0745   2417174.7947   6   7   0.2025   0.4418   0.2239  -0.1737   0.2794   0.0260   0.00    0.0
2249 368067.500  -2403421.7329   5387346.9898   2417174.7767   6   7   0.2021   0.4392   0.2227  -0.1743   0.2776   0.0222   0.00    0.0
2249 368067.600  -2403421.7497   5387346.9539   2417174.7649   6   7   0.2017   0.4367   0.2215  -0.1748   0.2759   0.0179   0.00    0.0
2249 368067.700  -2403421.7470   5387346.8640   2417174.7411   6   7   0.2013   0.4343   0.2203  -0.1753   0.2743   0.0125   0.00    0.0
2249 368067.800  -2403421.7398   5387346.7967   2417174.6907   6   7   0.2009   0.4320   0.2192  -0.1757   0.2727   0.0039   0.00    0.0
2249 368067.900  -2403421.7730   5387346.7843   2417174.6838   6   7   0.2005   0.4298   0.2182  -0.1762   0.2712  -0.0112   0.00    0.0
2249 368068.000  -2403421.7924   5387346.6833   2417174.6627   6   7   0.2001   0.4277   0.2171  -0.1765   0.2698  -0.0164   0.00    0.0
2249 368068.100  -2403421.7909   5387346.6554   2417174.6369   6   7   0.1998   0.4256   0.2162  -0.1769   0.2684  -0.0200   0.00    0.0
2249 368068.200  -2403421.8103   5387346.5768   2417174.5969   6   7   0.1994   0.4236   0.2152  -0.1772   0.2670  -0.0229   0.00    0.0
2249 368068.300  -2403421.8421   5387346.5497   2417174.6139   6   7   0.1991   0.4216   0.2143  -0.1775   0.2657  -0.0253   0.00    0.0
2249 368068.400  -2403421.8431   5387346.4519   2417174.5617   6   7   0.1987   0.4197   0.2133  -0.1778   0.2645  -0.0277   0.00    0.0
2249 368068.500  -2403421.8257   5387346.3914   2417174.5247   6   7   0.1984   0.4179   0.2125  -0.1781   0.2632  -0.0298   0.00    0.0
2249 368068.600  -2403421.8728   5387346.3259   2417174.5220   6   7   0.1980   0.4161   0.2116  -0.1784   0.2620  -0.0314   0.00    0.0
2249 368068.700  -2403421.8671   5387346.2883   2417174.4723   6   7   0.1977   0.4143   0.2107  -0.1786   0.2608  -0.0332   0.00    0.0
2249 368068.800  -2403421.8688   5387346.1885   2417174.4458   6   7   0.1974   0.4126   0.2099  -0.1789   0.2597  -0.0347   0.00    0.0
2249 368068.900  -2403421.8859   5387346.1764   2417174.4331   6   7   0.1970   0.4109   0.2091  -0.1791   0.2585  -0.0363   0.00    0.0
2249 368069.000  -2403421.9073   5387346.0873   2417174.4111   6   7   0.1967   0.4092   0.2083  -0.1793   0.2574  -0.0376   0.00    0.0
2249 368069.100  -2403421.9189   5387346.0899   2417174.4182   6   7   0.1964   0.4076   0.2075  -0.1795   0.2564  -0.0389   0.00    0.0
2249 368069.200  -2403421.9234   5387346.0172   2417174.3778   6   7   0.1961   0.4060   0.2067  -0.1797   0.2553  -0.0401   0.00    0.0
2249 368069.300  -2403421.9417   5387346.0523   2417174.3837   6   7   0.1957   0.4045   0.2060  -0.1799   0.2543  -0.0412   0.00    0.0
2249 368069.400  -2403421.9585   5387345.9423   2417174.3421   6   7   0.1954   0.4030   0.2052  -0.1800   0.2533  -0.0423   0.00    0.0
2249 368069.500  -2403421.9559   5387345.9009   2417174.3339   6   7   0.1951   0.4015   0.2045  -0.1802   0.2523  -0.0434   0.00    0.0
2249 368069.600  -2403421.9382   5387345.8713   2417174.3140   6   7   0.1948   0.4001   0.2038  -0.1804   0.2514  -0.0443   0.00    0.0
2249 368069.700  -2403421.9537   5387345.8170   2417174.3015   6   7   0.1945   0.3987   0.2031  -0.1805   0.2504  -0.0453   0.00    0.0
2249 368069.800  -2403421.9633   5387345.8266   2417174.2893   6   7   0.1942   0.3973   0.2024  -0.1807   0.2495  -0.0462   0.00    0.0
2249 368069.900  -2403421.9886   5387345.7509   2417174.2598   6   7   0.1939   0.3959   0.2017  -0.1808   0.2486  -0.0471   0.00    0.0
2249 368070.000  -2403421.9912   5387345.7109   2417174.2398   6   7   0.1936   0.3946   0.2011  -0.1809   0.2477  -0.0479   0.00    0.0
2249 368070.100  -2403422.0096   5387345.6886   2417174.2278   6   7   0.1933   0.3933   0.2004  -0.1810   0.2469  -0.0488   0.00    0.0
2249 368070.200  -2403421.9904   5387345.6624   2417174.2186   6   7   0.1930   0.3920   0.1998  -0.1811   0.2461  -0.0495   0.00    0.0
2249 368070.300  -2403422.0088   5387345.6425   2417174.2441   6   7   0.1927   0.3908   0.1992  -0.1812   0.2452  -0.0503   0.00    0.0
2249 368070.400  -2403422.0252   5387345.5962   2417174.1873   6   7   0.1924   0.3895   0.1985  -0.1814   0.2444  -0.0510   0.00    0.0
2249 368070.500  -2403422.0293   5387345.5433   2417174.1622   6   7   0.1922   0.3883   0.1979  -0.1814   0.2436  -0.0517   0.00    0.0
2249 368070.600  -2403422.0621   5387345.5899   2417174.2056   6   7   0.1919   0.3871   0.1973  -0.1816   0.2428  -0.0524   0.00    0.0
2249 368070.700  -2403422.0246   5387345.4469   2417174.1382   6   7   0.1916   0.3860   0.1967  -0.1816   0.2421  -0.0530   0.00    0.0
2249 368070.800  -2403422.0632   5387345.4947   2417174.1556   6   7   0.1913   0.3848   0.1961  -0.1817   0.2413  -0.0537   0.00    0.0
2249 368070.900  -2403422.0568   5387345.4329   2417174.1390   6   7   0.1910   0.3837   0.1955  -0.1818   0.2406  -0.0542   0.00    0.0
2249 368071.000  -2403422.0864   5387345.4639   2417174.1475   6   7   0.1908   0.3826   0.1950  -0.1819   0.2398  -0.0548   0.00    0.0
2249 368071.100  -2403422.0889   5387345.2921   2417174.0701   6   7   0.1905   0.3815   0.1945  -0.1819   0.2391  -0.0554   0.00    0.0
2249 368071.200  -2403422.1155   5387345.3872   2417174.1139   6   7   0.1902   0.3805   0.1939  -0.1820   0.2385  -0.0561   0.00    0.0
2249 368071.300  -2403422.1184   5387345.3538   2417174.0893   6   7   0.1900   0.3794   0.1933  -0.1820   0.2378  -0.0565   0.00    0.0
2249 368071.400  -2403422.1113   5387345.2893   2417174.0819   6   7   0.1897   0.3784   0.1928  -0.1821   0.2371  -0.0570   0.00    0.0
2249 368071.500  -2403422.1011   5387345.2659   2417174.0672   6   7   0.1894   0.3774   0.1923  -0.1821   0.2364  -0.0576   0.00    0.0
2249 368071.600  -2403422.1409   5387345.2221   2417174.0307   6   7   0.1892   0.3764   0.1918  -0.1822   0.2358  -0.0582   0.00    0.0
2249 368071.700  -2403422.1182   5387345.2216   2417174.0557   6   7   0.1889   0.3754   0.1913  -0.1823   0.2351  -0.0586   0.00    0.0
2249 368071.800  -2403422.1522   5387345.1769   2417174.0391   6   7   0.1887   0.3744   0.1907  -0.1823   0.2345  -0.0591   0.00    0.0
2249 368071.900  -2403422.1567   5387345.1734   2417174.0332   6   7   0.1884   0.3735   0.1902  -0.1823   0.2339  -0.0594   0.00    0.0
2249 368072.000  -2403422.1505   5387345.1158   2417173.9929   6   7   0.1881   0.3725   0.1898  -0.1824   0.2333  -0.0599   0.00    0.0
2249 368072.100  -2403422.1741   5387345.1172   2417174.0224   6   7   0.1879   0.3716   0.1893  -0.1824   0.2327  -0.0604   0.00    0.0
2249 368072.200  -2403422.1849   5387345.0933   2417174.0001   6   7   0.1876   0.3707   0.1888  -0.1825   0.2321  -0.0608   0.00    0.0
2249 368072.300  -2403422.1955   5387345.0281   2417173.9529   6   7   0.1874   0.3698   0.1883  -0.1825   0.2315  -0.0612   0.00    0.0
2249 368072.400  -2403422.1920   5387345.0251   2417173.9628   6   7   0.1872   0.3689   0.1878  -0.1825   0.2309  -0.0616   0.00    0.0
2249 368072.500  -2403422.1692   5387344.9695   2417173.9205   6   7   0.1869   0.3680   0.1874  -0.1825   0.2303  -0.0621   0.00    0.0
2249 368072.600  -2403422.2191   5387344.9808   2417173.9448   6   7   0.1867   0.3672   0.1869  -0.1825   0.2298  -0.0624   0.00    0.0
2249 368072.700  -2403422.2133   5387344.9396   2417173.9081   6   7   0.1864   0.3663   0.1865  -0.1826   0.2293  -0.0628   0.00    0.0
2249 368072.800  -2403422.2460   5387344.9088   2417173.8971   6   7   0.1862   0.3655   0.1860  -0.1826   0.2287  -0.0632   0.00    0.0
2249 368072.900  -2403422.2296   5387344.9171   2417173.9247   6   7   0.1859   0.3647   0.1856  -0.1826   0.2282  -0.0635   0.00    0.0
2249 368073.000  -2403422.2257   5387344.8497   2417173.8731   6   7   0.1857   0.3639   0.1852  -0.1826   0.2276  -0.0639   0.00    0.0
2249 368073.100  -2403422.2591   5387344.8327   2417173.8777   6   7   0.1855   0.3631   0.1847  -0.1826   0.2271  -0.0642   0.00    0.0
2249 368073.200  -2403422.2432   5387344.8032   2417173.8451   6   7   0.1852   0.3623   0.1843  -0.1826   0.2266  -0.0646   0.00    0.0
2249 368073.300  -2403422.2590   5387344.7773   2417173.8359   6   7   0.1850   0.3615   0.1839  -0.1826   0.2261  -0.0649   0.00    0.0
2249 368073.400  -2403422.2587   5387344.7386   2417173.8486   6   7   0.1848   0.3607   0.1835  -0.1826   0.2256  -0.0652   0.00    0.0
2249 368073.500  -2403422.2732   5387344.7239   2417173.8246   6   7   0.1845   0.3600   0.1831  -0.1826   0.2251  -0.0655   0.00    0.0
2249 368073.600  -2403422.2959   5387344.7082   2417173.8000   6   7   0.1843   0.3592   0.1827  -0.1826   0.2246  -0.0658   0.00    0.0
2249 368073.700  -2403422.2885   5387344.6715   2417173.7758   6   7   0.1841   0.3585   0.1823  -0.1826   0.2241  -0.0662   0.00    0.0
2249 368073.800  -2403422.2766   5387344.6545   2417173.7850   6   7   0.1839   0.3578   0.1819  -0.1826   0.2237  -0.0665   0.00    0.0
2249 368073.900  -2403422.3029   5387344.6266   2417173.7830   6   7   0.1836   0.3571   0.1815  -0.1826   0.2233  -0.0668   0.00    0.0
2249 368074.000  -2403422.3053   5387344.5898   2417173.7340   6   7   0.1834   0.3564   0.1811  -0.1826   0.2228  -0.0670   0.00    0.0
2249 368074.100  -2403422.3258   5387344.5818   2417173.7467   6   7   0.1832   0.3557   0.1807  -0.1826   0.2223  -0.0673   0.00    0.0
2249 368074.200  -2403422.3300   5387344.5441   2417173.7423   6   7   0.1830   0.3550   0.1803  -0.1826   0.2219  -0.0676   0.00    0.0
2249 368074.300  -2403422.3325   5387344.4893   2417173.6885   6   7   0.1828   0.3543   0.1800  -0.1826   0.2214  -0.0679   0.00    0.0
2249 368074.400  -2403422.3571   5387344.5819   2417173.7404   6   7   0.1826   0.3536   0.1796  -0.1826   0.2210  -0.0682   0.00    0.0
2249 368074.500  -2403422.3271   5387344.4556   2417173.6980   6   7   0.1824   0.3530   0.1792  -0.1825   0.2206  -0.0684   0.00    0.0
