% program   : RTKPOST ver.2.4.2
% inp file  : D:\ligo\gil.rnx
% inp file  : D:\ligo\BRDM00DLR_S_20221870000_01D_MN.rnx
% inp file  : D:\ligo\gil.sp3
% obs start : 2022/07/06 09:27:23.8 GPST (week2217 293243.8s)
% obs end   : 2022/07/06 09:46:05.6 GPST (week2217 294365.6s)
% pos mode  : ppp-kinematic
% solution  : forward
% elev mask : 15.0 deg
% dynamics  : off
% tidecorr  : on
% tropo opt : est ztd+grad
% ephemeris : precise
% navi sys  : gps glonass galileo
% antenna1  :                       ( 0.0000  0.0000  0.0000)
%
% (x/y/z-ecef=WGS84,Q=1:fix,2:float,3:sbas,4:dgps,5:single,6:ppp,ns=# of satellites)
%  GPST              x-ecef(m)      y-ecef(m)      z-ecef(m)   Q  ns   sdx(m)   sdy(m)   sdz(m)  sdxy(m)  sdyz(m)  sdzx(m) age(s)  ratio
2217 293243.800   3959056.0121    -87622.2263   4983314.7134   6   2  90.4570  34.3909  82.2710 -39.6201  51.6694 -38.1475   0.00    0.0
2217 293244.000   3959055.2717    -87621.7983   4983315.0497   6   2  90.4569  34.3692  82.2692 -39.6222  51.6729 -38.1482   0.00    0.0
2217 293244.200   3959054.7403    -87622.1559   4983314.1747   6   2  90.4571  34.3613  82.2683 -39.6221  51.6736 -38.1490   0.00    0.0
2217 293244.400   3959054.9555    -87622.7836   4983312.8364   6   2  90.4575  34.3569  82.2676 -39.6215  51.6737 -38.1499   0.00    0.0
2217 293244.600   3959054.2473    -87623.2514   4983311.5024   6   2  90.4578  34.3538  82.2670 -39.6207  51.6735 -38.1508   0.00    0.0
2217 293244.800   3959054.6928    -87623.0974   4983311.7627   6   2  90.4582  34.3514  82.2665 -39.6198  51.6731 -38.1516   0.00    0.0
2217 293245.000   3959054.6815    -87623.1286   4983311.5439   6   2  90.4586  34.3494  82.2659 -39.6189  51.6726 -38.1525   0.00    0.0
2217 293245.200   3959054.6824    -87623.1197   4983311.6889   6   2  90.4589  34.3477  82.2654 -39.6179  51.6721 -38.1534   0.00    0.0
2217 293245.400   3959054.4027    -87622.9862   4983311.4545   6   2  90.4593  34.3461  82.2649 -39.6169  51.6716 -38.1542   0.00    0.0
2217 293245.600   3959055.1500    -87622.8585   4983311.3212   6   2  90.4597  34.3447  82.2644 -39.6158  51.6711 -38.1551   0.00    0.0
2217 293245.800   3959055.0777    -87622.8701   4983311.1276   6   2  90.4601  34.3433  82.2639 -39.6148  51.6705 -38.1560   0.00    0.0
2217 293246.000   3959054.8916    -87622.6418   4983311.1391   6   2  90.4605  34.3420  82.2634 -39.6137  51.6699 -38.1569   0.00    0.0
2217 293246.200   3959054.9567    -87622.5968   4983310.8591   6   2  90.4609  34.3407  82.2629 -39.6126  51.6693 -38.1577   0.00    0.0
2217 293246.400   3959053.9933    -87622.7283   4983309.9734   6   2  90.4613  34.3395  82.2624 -39.6116  51.6687 -38.1586   0.00    0.0
2217 293246.600   3959053.4134    -87622.6333   4983309.8592   6   2  90.4617  34.3383  82.2619 -39.6105  51.6681 -38.1595   0.00    0.0
2217 293246.800   3959053.3748    -87622.4211   4983310.6005   6   2  90.4621  34.3371  82.2614 -39.6094  51.6675 -38.1604   0.00    0.0
2217 293247.000   3959053.4835    -87622.2568   4983310.8909   6   2  90.4625  34.3360  82.2609 -39.6083  51.6668 -38.1612   0.00    0.0
2217 293247.200   3959053.2050    -87622.3188   4983310.8724   6   2  90.4629  34.3348  82.2605 -39.6072  51.6662 -38.1621   0.00    0.0
2217 293247.400   3959053.9253    -87621.9571   4983312.0323   6   2  90.4633  34.3337  82.2600 -39.6061  51.6656 -38.1630   0.00    0.0
2217 293247.600   3959053.6080    -87621.7381   4983312.6662   6   2  90.4637  34.3326  82.2595 -39.6050  51.6650 -38.1639   0.00    0.0
2217 293247.800   3959053.4547    -87622.0733   4983311.8677   6   2  90.4641  34.3315  82.2590 -39.6039  51.6643 -38.1647   0.00    0.0
2217 293248.000   3959053.5530    -87622.3268   4983311.4451   6   2  90.4645  34.3304  82.2585 -39.6028  51.6637 -38.1656   0.00    0.0
2217 293248.200   3959053.8476    -87621.8969   4983312.7653   6   2  90.4649  34.3294  82.2581 -39.6017  51.6631 -38.1665   0.00    0.0
2217 293248.400   3959054.3305    -87622.0064   4983312.5707   6   2  90.4653  34.3283  82.2576 -39.6006  51.6624 -38.1674   0.00    0.0
2217 293248.600   3959054.0808    -87622.1193   4983311.8457   6   2  90.4658  34.3272  82.2571 -39.5995  51.6618 -38.1683   0.00    0.0
2217 293248.800   3959054.4873    -87619.2584   4983311.5363   6   1  94.7600  95.5172  83.0484  30.7532  40.6096 -42.1843   0.00    0.0
2217 293249.000   3959054.9880    -87619.4135   4983311.9866   6   1  94.7599  95.5177  83.0479  30.7525  40.6086 -42.1849   0.00    0.0
2217 293249.200   3959055.7598    -87619.4110   4983312.7095   6   1  94.7598  95.5183  83.0474  30.7518  40.6077 -42.1854   0.00    0.0
2217 293249.400   3959054.6876    -87619.6143   4983312.1791   6   1  94.7596  95.5188  83.0470  30.7511  40.6067 -42.1860   0.00    0.0
2217 293249.600   3959055.7966    -87619.3476   4983313.9499   6   1  94.7595  95.5194  83.0465  30.7504  40.6057 -42.1865   0.00    0.0
2217 293249.800   3959055.4900    -87619.3993   4983313.7627   6   1  94.7593  95.5199  83.0460  30.7497  40.6048 -42.1871   0.00    0.0
2217 293250.000   3959055.0228    -87619.7763   4983313.0714   6   1  94.7592  95.5205  83.0455  30.7490  40.6038 -42.1876   0.00    0.0
2217 293250.200   3959055.3952    -87619.4347   4983313.4064   6   1  94.7590  95.5210  83.0451  30.7482  40.6028 -42.1882   0.00    0.0
2217 293250.400   3959055.4444    -87619.2436   4983313.3450   6   1  94.7589  95.5216  83.0446  30.7475  40.6019 -42.1888   0.00    0.0
2217 293250.600   3959056.2653    -87618.9112   4983314.6839   6   1  94.7587  95.5221  83.0441  30.7468  40.6009 -42.1893   0.00    0.0
2217 293250.800   3959056.1451    -87618.9561   4983313.8520   6   1  94.7586  95.5227  83.0437  30.7461  40.5999 -42.1899   0.00    0.0
2217 293251.000   3959056.2047    -87619.0451   4983313.8792   6   1  94.7584  95.5232  83.0432  30.7454  40.5990 -42.1904   0.00    0.0
2217 293251.200   3959056.4591    -87618.3183   4983314.7402   6   1  94.7583  95.5238  83.0427  30.7447  40.5980 -42.1910   0.00    0.0
2217 293251.400   3959057.1611    -87618.3049   4983315.2643   6   1  94.7581  95.5243  83.0422  30.7439  40.5970 -42.1915   0.00    0.0
2217 293251.600   3959057.7361    -87618.4500   4983315.1271   6   1  94.7580  95.5249  83.0418  30.7432  40.5961 -42.1921   0.00    0.0
2217 293251.800   3959057.3234    -87618.5926   4983315.1030   6   1  94.7578  95.5255  83.0413  30.7425  40.5951 -42.1926   0.00    0.0
2217 293252.000   3959057.0582    -87618.7783   4983315.2754   6   1  94.7577  95.5260  83.0408  30.7418  40.5941 -42.1932   0.00    0.0
2217 293252.200   3959057.3395    -87618.3490   4983316.4482   6   1  94.7576  95.5266  83.0404  30.7411  40.5931 -42.1937   0.00    0.0
2217 293252.400   3959056.4688    -87618.4657   4983316.1785   6   1  94.7574  95.5271  83.0399  30.7403  40.5922 -42.1943   0.00    0.0
2217 293252.600   3959056.2108    -87618.5977   4983316.0386   6   1  94.7573  95.5277  83.0394  30.7396  40.5912 -42.1948   0.00    0.0
2217 293252.800   3959056.5108    -87618.6535   4983315.8260   6   1  94.7571  95.5282  83.0390  30.7389  40.5902 -42.1954   0.00    0.0
2217 293253.000   3959056.1852    -87619.1405   4983315.0653   6   1  94.7570  95.5288  83.0385  30.7382  40.5893 -42.1959   0.00    0.0
2217 293253.200   3959057.4083    -87619.2580   4983315.6676   6   1  94.7568  95.5293  83.0380  30.7375  40.5883 -42.1965   0.00    0.0
2217 293253.400   3959057.4649    -87618.9682   4983316.5676   6   1  94.7567  95.5299  83.0376  30.7368  40.5873 -42.1970   0.00    0.0
2217 293253.600   3959058.7379    -87617.9990   4983318.9218   6   1  94.7565  95.5304  83.0371  30.7360  40.5864 -42.1976   0.00    0.0
2217 293253.800   3959058.8381    -87617.8624   4983319.3673   6   1  94.7564  95.5310  83.0366  30.7353  40.5854 -42.1981   0.00    0.0
2217 293254.000   3959058.5510    -87618.2671   4983319.2589   6   1  94.7562  95.5315  83.0361  30.7346  40.5844 -42.1987   0.00    0.0
2217 293254.200   3959057.7900    -87618.5351   4983318.2299   6   1  94.7561  95.5321  83.0357  30.7339  40.5834 -42.1992   0.00    0.0
2217 293254.400   3959057.8554    -87618.5637   4983318.7226   6   1  94.7559  95.5326  83.0352  30.7332  40.5825 -42.1998   0.00    0.0
2217 293254.600   3959057.4703    -87618.3489   4983318.9828   6   1  94.7558  95.5332  83.0347  30.7324  40.5815 -42.2003   0.00    0.0
2217 293254.800   3959058.0837    -87618.2548   4983319.8901   6   1  94.7557  95.5337  83.0343  30.7317  40.5805 -42.2009   0.00    0.0
2217 293255.000   3959058.2286    -87617.9686   4983319.9694   6   1  94.7555  95.5343  83.0338  30.7310  40.5796 -42.2014   0.00    0.0
2217 293255.200   3959060.4434    -87619.6445   4983324.0837   5   6   5.9647   3.1036   6.7265   3.8513   4.1807   6.0332   0.00    0.0
2217 293255.400   3959060.4327    -87619.3393   4983324.3551   5   6   5.9649   3.1038   6.7267   3.8516   4.1809   6.0334   0.00    0.0
2217 293255.600   3959061.0193    -87618.5911   4983325.5249   5   6   5.9651   3.1040   6.7269   3.8518   4.1811   6.0336   0.00    0.0
2217 293255.800   3959057.4058    -87616.5512   4983319.8891   6   1  94.7554  95.5369  83.0337  30.7267  40.5738 -42.2017   0.00    0.0
2217 293256.000   3959056.9024    -87616.4714   4983319.8454   6   1  94.7550  95.5373  83.0323  30.7267  40.5738 -42.2032   0.00    0.0
2217 293256.200   3959056.3976    -87616.5476   4983319.6087   6   1  94.7548  95.5377  83.0316  30.7262  40.5731 -42.2041   0.00    0.0
2217 293256.400   3959057.3968    -87616.7203   4983319.7598   6   1  94.7546  95.5383  83.0309  30.7256  40.5723 -42.2048   0.00    0.0
2217 293256.600   3959058.0533    -87616.4545   4983320.5635   6   1  94.7544  95.5388  83.0304  30.7250  40.5714 -42.2055   0.00    0.0
2217 293256.800   3959056.7667    -87616.5415   4983319.2193   6   1  94.7543  95.5393  83.0299  30.7243  40.5705 -42.2061   0.00    0.0
2217 293257.000   3959056.7759    -87616.0848   4983320.3973   6   1  94.7541  95.5399  83.0293  30.7236  40.5696 -42.2067   0.00    0.0
2217 293257.200   3959056.3633    -87616.3338   4983319.5715   6   1  94.7539  95.5404  83.0288  30.7229  40.5687 -42.2073   0.00    0.0
2217 293257.400   3959055.0738    -87616.3944   4983317.9858   6   1  94.7542  95.5413  83.0299  30.7209  40.5660 -42.2061   0.00    0.0
2217 293257.600   3959054.0511    -87616.7503   4983317.4541   6   1  94.7538  95.5417  83.0286  30.7210  40.5660 -42.2076   0.00    0.0
2217 293257.800   3959053.8791    -87617.0904   4983316.2983   6   1  94.7536  95.5422  83.0278  30.7205  40.5653 -42.2085   0.00    0.0
2217 293258.000   3959054.1679    -87617.1666   4983315.9270   6   1  94.7534  95.5427  83.0272  30.7199  40.5645 -42.2092   0.00    0.0
2217 293258.200   3959057.1752    -87620.4352   4983321.1987   5   6   5.9677   3.1063   6.7300   3.8548   4.1842   6.0367   0.00    0.0
2217 293258.400   3959054.7661    -87618.4052   4983316.5893   6   1  94.7535  95.5441  83.0276  30.7173  40.5611 -42.2089   0.00    0.0
2217 293258.600   3959054.9951    -87618.9421   4983316.1717   6   1  94.7531  95.5444  83.0262  30.7173  40.5611 -42.2104   0.00    0.0
2217 293258.800   3959055.4664    -87618.8708   4983316.8103   6   1  94.7529  95.5449  83.0255  30.7169  40.5605 -42.2113   0.00    0.0
2217 293259.000   3959056.2354    -87618.9132   4983317.5433   6   1  94.7527  95.5454  83.0249  30.7163  40.5597 -42.2120   0.00    0.0
2217 293259.200   3959056.6572    -87618.9803   4983318.1385   6   1  94.7525  95.5460  83.0243  30.7156  40.5588 -42.2126   0.00    0.0
2217 293259.400   3959055.4532    -87619.8822   4983317.3033   6   1  94.7524  95.5465  83.0238  30.7150  40.5579 -42.2133   0.00    0.0
2217 293259.600   3959058.6438    -87618.8205   4983320.2936   6   1  94.7522  95.5470  83.0233  30.7143  40.5570 -42.2139   0.00    0.0
2217 293259.800   3959059.9994    -87618.6291   4983321.3715   6   1  94.7520  95.5476  83.0228  30.7136  40.5560 -42.2144   0.00    0.0
2217 293260.000   3959055.6832    -87621.4102   4983324.6032   6   2  65.9133  84.1155  66.0120 -46.2784  62.6629  40.5605   0.00    0.0
2217 293260.200   3959053.6012    -87622.3650   4983322.2464   6   2  65.9087  84.1155  66.0066 -46.2818  62.6650  40.5678   0.00    0.0
2217 293260.400   3959054.1084    -87622.3250   4983323.1696   6   2  65.9075  84.1167  66.0030 -46.2820  62.6654  40.5710   0.00    0.0
2217 293260.600   3959058.7670    -87619.5197   4983319.6571   6   1  94.7514  95.5498  83.0208  30.7107  40.5522 -42.2167   0.00    0.0
2217 293260.800   3959058.9646    -87619.5243   4983319.2567   6   1  94.7513  95.5503  83.0203  30.7100  40.5512 -42.2173   0.00    0.0
2217 293261.000   3959059.2382    -87619.2069   4983319.5446   6   1  94.7511  95.5509  83.0199  30.7093  40.5503 -42.2179   0.00    0.0
2217 293261.200   3959058.2674    -87618.7612   4983318.9087   6   1  94.7510  95.5514  83.0194  30.7086  40.5493 -42.2184   0.00    0.0
2217 293261.400   3959058.9406    -87618.4429   4983319.5876   6   1  94.7508  95.5520  83.0189  30.7079  40.5483 -42.2190   0.00    0.0
2217 293261.600   3959060.1269    -87617.6694   4983321.0414   6   1  94.7507  95.5525  83.0184  30.7072  40.5474 -42.2195   0.00    0.0
2217 293261.800   3959061.3583    -87616.9547   4983322.8097   6   1  94.7505  95.5531  83.0180  30.7065  40.5464 -42.2201   0.00    0.0
2217 293262.000   3959062.5409    -87616.3713   4983324.1396   6   1  94.7504  95.5536  83.0175  30.7058  40.5454 -42.2206   0.00    0.0
2217 293262.200   3959061.5568    -87616.6482   4983323.4689   6   1  94.7502  95.5542  83.0170  30.7050  40.5445 -42.2212   0.00    0.0
2217 293262.400   3959061.2292    -87620.0867   4983325.1049   6   1  90.7635  86.3806  96.4421 -45.9875 -36.4960 -33.3124   0.00    0.0
2217 293262.600   3959062.1497    -87619.7357   4983326.2093   6   1  90.7633  86.3796  96.4414 -45.9886 -36.4984 -33.3143   0.00    0.0
2217 293262.800   3959061.2944    -87620.0979   4983325.3219   6   1  90.7635  86.3794  96.4409 -45.9885 -36.5000 -33.3154   0.00    0.0
2217 293263.000   3959062.2658    -87618.9253   4983326.2171   5   7   2.6959   1.4307   3.2567   0.4262   1.1267   2.2555   0.00    0.0
2217 293263.200   3959063.3503    -87618.2573   4983328.1640   5   7   2.6959   1.4307   3.2567   0.4263   1.1268   2.2555   0.00    0.0
2217 293263.400   3959062.7589    -87618.6013   4983327.6041   5   7   2.6959   1.4307   3.2567   0.4264   1.1268   2.2556   0.00    0.0
2217 293263.600   3959063.1281    -87618.4633   4983328.4508   5   7   2.6958   1.4307   3.2568   0.4265   1.1269   2.2556   0.00    0.0
2217 293263.800   3959063.2783    -87617.9116   4983329.7819   5   7   2.6958   1.4307   3.2568   0.4266   1.1269   2.2556   0.00    0.0
2217 293264.000   3959064.4277    -87617.8648   4983330.6665   5   7   2.6958   1.4307   3.2568   0.4267   1.1270   2.2557   0.00    0.0
2217 293264.200   3959064.9028    -87617.5635   4983330.6704   5   7   2.6958   1.4307   3.2569   0.4268   1.1270   2.2557   0.00    0.0
2217 293264.400   3959064.3104    -87618.2305   4983330.5502   5   7   2.6958   1.4307   3.2569   0.4269   1.1270   2.2557   0.00    0.0
2217 293264.600   3959064.2497    -87618.7334   4983330.2008   5   7   2.6958   1.4307   3.2569   0.4270   1.1271   2.2558   0.00    0.0
2217 293264.800   3959064.3625    -87618.8088   4983330.2229   5   7   2.6958   1.4307   3.2570   0.4270   1.1271   2.2558   0.00    0.0
2217 293265.000   3959062.8224    -87617.3979   4983326.9632   6   1  94.7487  95.5623  83.0122  30.6936  40.5290 -42.2270   0.00    0.0
2217 293265.200   3959062.6846    -87617.3509   4983326.7815   6   1  94.7483  95.5626  83.0108  30.6936  40.5290 -42.2286   0.00    0.0
2217 293265.400   3959062.7354    -87617.7576   4983326.7489   6   1  94.7480  95.5631  83.0101  30.6931  40.5283 -42.2294   0.00    0.0
2217 293265.600   3959063.3466    -87618.2542   4983326.4809   6   1  94.7479  95.5636  83.0095  30.6925  40.5275 -42.2302   0.00    0.0
2217 293265.800   3959065.3471    -87623.0849   4983327.0005   6   2  91.7592  33.4836  80.3486  55.2732 -14.9496 -35.9343   0.00    0.0
2217 293266.000   3959064.8071    -87622.8016   4983327.1854   6   2  91.7579  33.4686  80.3481  55.2775 -14.9557 -35.9339   0.00    0.0
2217 293266.200   3959065.1777    -87622.7420   4983327.7427   6   2  91.7570  33.4649  80.3479  55.2800 -14.9560 -35.9341   0.00    0.0
2217 293266.400   3959064.6300    -87623.4774   4983327.2677   6   1  99.9275  88.3184  84.9419 -13.3622 -49.7508 -14.1736   0.00    0.0
2217 293266.600   3959064.7404    -87623.6098   4983327.1752   6   1  99.9276  88.3170  84.9410 -13.3603 -49.7528 -14.1714   0.00    0.0
2217 293266.800   3959064.0071    -87623.7362   4983327.3504   6   1  99.9276  88.3163  84.9410 -13.3581 -49.7536 -14.1689   0.00    0.0
2217 293267.000   3959063.7338    -87623.4438   4983328.2835   6   1  99.9277  88.3171  84.9431 -13.3551 -49.7512 -14.1655   0.00    0.0
2217 293267.200   3959067.3065    -87622.8580   4983332.6517   6   1  99.9277  88.3157  84.9422 -13.3532 -49.7532 -14.1633   0.00    0.0
2217 293267.400   3959065.6273    -87624.0042   4983331.3391   6   1  99.9278  88.3150  84.9422 -13.3510 -49.7540 -14.1607   0.00    0.0
2217 293267.600   3959061.9062    -87626.3137   4983328.3474   6   1  99.9278  88.3144  84.9424 -13.3488 -49.7545 -14.1581   0.00    0.0
2217 293267.800   3959058.6431    -87628.1530   4983324.9461   6   1  99.9279  88.3138  84.9426 -13.3465 -49.7548 -14.1555   0.00    0.0
2217 293268.000   3959063.3830    -87627.2611   4983329.7882   6   1  99.9279  88.3133  84.9429 -13.3441 -49.7551 -14.1528   0.00    0.0
2217 293268.200   3959062.6807    -87628.0034   4983329.7462   6   1  99.9280  88.3145  84.9454 -13.3409 -49.7520 -14.1491   0.00    0.0
2217 293268.400   3959062.8305    -87627.6881   4983330.0996   6   1  99.9280  88.3131  84.9446 -13.3390 -49.7541 -14.1470   0.00    0.0
2217 293268.600   3959065.3024    -87625.9980   4983332.8113   6   1  99.9281  88.3123  84.9445 -13.3368 -49.7549 -14.1444   0.00    0.0
2217 293268.800   3959067.7248    -87625.4572   4983335.0785   6   1  99.9282  88.3117  84.9447 -13.3345 -49.7553 -14.1418   0.00    0.0
2217 293269.000   3959065.3952    -87623.2468   4983336.5798   5   6   5.9787   3.1160   6.7427   3.8672   4.1968   6.0495   0.00    0.0
2217 293269.200   3959062.4125    -87624.9538   4983332.7028   5   6   5.9789   3.1162   6.7429   3.8675   4.1971   6.0497   0.00    0.0
2217 293269.400   3959058.0816    -87629.7131   4983325.0342   6   1  99.9283  88.3103  84.9458 -13.3275 -49.7559 -14.1337   0.00    0.0
2217 293269.600   3959053.1990    -87631.8620   4983319.7344   6   1  99.9284  88.3098  84.9461 -13.3252 -49.7562 -14.1310   0.00    0.0
2217 293269.800   3959053.8778    -87632.0424   4983319.3171   6   1  99.9284  88.3093  84.9464 -13.3229 -49.7564 -14.1283   0.00    0.0
2217 293270.000   3959052.9027    -87632.8771   4983318.8939   6   1  99.9285  88.3089  84.9468 -13.3205 -49.7566 -14.1256   0.00    0.0
2217 293270.200   3959052.0125    -87633.6259   4983317.6350   6   1  99.9285  88.3084  84.9471 -13.3182 -49.7568 -14.1229   0.00    0.0
2217 293270.400   3959052.7331    -87633.0601   4983318.2978   6   1  99.9286  88.3080  84.9475 -13.3158 -49.7570 -14.1202   0.00    0.0
2217 293270.600   3959054.3313    -87632.1451   4983319.8991   6   1  99.9286  88.3075  84.9479 -13.3134 -49.7572 -14.1175   0.00    0.0
2217 293270.800   3959052.4811    -87632.5857   4983317.6508   6   1  99.9287  88.3070  84.9482 -13.3111 -49.7573 -14.1148   0.00    0.0
2217 293271.000   3959055.1594    -87631.1876   4983320.9564   6   1  99.9287  88.3066  84.9486 -13.3087 -49.7575 -14.1121   0.00    0.0
2217 293271.200   3959059.6776    -87629.7637   4983324.9192   6   1  99.9288  88.3061  84.9490 -13.3063 -49.7577 -14.1093   0.00    0.0
2217 293271.400   3959059.1139    -87629.5767   4983323.8493   6   1  99.9288  88.3057  84.9494 -13.3039 -49.7578 -14.1066   0.00    0.0
2217 293271.600   3959058.6767    -87630.4596   4983322.3964   6   1  99.9289  88.3052  84.9498 -13.3015 -49.7580 -14.1039   0.00    0.0
2217 293271.800   3959059.3152    -87630.4100   4983323.0347   6   1  99.9289  88.3048  84.9501 -13.2992 -49.7581 -14.1011   0.00    0.0
2217 293272.000   3959061.4381    -87629.3506   4983325.8184   6   1  99.9290  88.3044  84.9505 -13.2968 -49.7583 -14.0984   0.00    0.0
2217 293272.200   3959059.9202    -87629.6098   4983324.0579   6   1  99.9291  88.3039  84.9509 -13.2944 -49.7584 -14.0957   0.00    0.0
2217 293272.400   3959057.9355    -87630.3935   4983322.3766   6   1  99.9291  88.3035  84.9513 -13.2921 -49.7586 -14.0930   0.00    0.0
2217 293272.600   3959057.8396    -87630.1896   4983322.2150   6   1  99.9292  88.3030  84.9517 -13.2897 -49.7587 -14.0902   0.00    0.0
2217 293272.800   3959059.5795    -87628.8691   4983324.2551   6   1  99.9292  88.3026  84.9521 -13.2873 -49.7589 -14.0875   0.00    0.0
2217 293273.000   3959057.1889    -87629.4907   4983321.8995   6   1  99.9293  88.3021  84.9525 -13.2849 -49.7590 -14.0848   0.00    0.0
2217 293273.200   3959058.0903    -87628.8133   4983322.2703   6   1  99.9293  88.3017  84.9528 -13.2825 -49.7592 -14.0821   0.00    0.0
2217 293273.400   3959057.9633    -87628.8176   4983321.6451   6   1  99.9294  88.3013  84.9532 -13.2802 -49.7593 -14.0793   0.00    0.0
2217 293273.600   3959058.9432    -87629.2410   4983323.0295   6   1  99.9294  88.3008  84.9536 -13.2778 -49.7595 -14.0766   0.00    0.0
2217 293273.800   3959049.4988    -87626.1457   4983325.8237   6   2  53.0472  85.0290  78.7069  42.8992 -56.8983  50.0980   0.00    0.0
2217 293274.000   3959049.8696    -87626.2034   4983325.9742   6   2  53.0404  85.0286  78.7066  42.9012 -56.8988  50.1017   0.00    0.0
2217 293274.200   3959048.1635    -87627.8748   4983323.3663   6   2  53.0478  85.0288  78.7076  42.8982 -56.8979  50.0998   0.00    0.0
2217 293274.400   3959047.1814    -87628.8626   4983322.2410   6   2  53.0410  85.0284  78.7072  42.9001 -56.8984  50.1035   0.00    0.0
2217 293274.600   3959047.2563    -87629.1344   4983323.1078   6   2  53.0390  85.0281  78.7074  42.9004 -56.8985  50.1053   0.00    0.0
2217 293274.800   3959046.3580    -87629.9160   4983322.0874   6   2  53.0381  85.0280  78.7076  42.9003 -56.8984  50.1066   0.00    0.0
2217 293275.000   3959053.1056    -87632.6953   4983317.1779   6   1  99.9298  88.2977  84.9564 -13.2611 -49.7605 -14.0575   0.00    0.0
2217 293275.200   3959053.1691    -87629.1975   4983320.6715   5   6   5.9851   3.1216   6.7500   3.8744   4.2041   6.0568   0.00    0.0
2217 293275.400   3959052.4729    -87629.5140   4983319.9192   5   6   5.9853   3.1217   6.7502   3.8747   4.2044   6.0571   0.00    0.0
2217 293275.600   3959052.7649    -87629.7653   4983318.9949   5   6   5.9855   3.1219   6.7504   3.8749   4.2046   6.0573   0.00    0.0
2217 293275.800   3959052.8066    -87629.9998   4983319.0306   5   6   5.9857   3.1221   6.7507   3.8751   4.2048   6.0575   0.00    0.0
2217 293276.000   3959054.2210    -87628.9385   4983321.1377   5   6   5.9859   3.1223   6.7509   3.8754   4.2051   6.0578   0.00    0.0
2217 293276.200   3959055.3403    -87628.2472   4983321.7145   5   6   5.9861   3.1225   6.7511   3.8756   4.2053   6.0580   0.00    0.0
2217 293276.400   3959054.5453    -87627.8324   4983321.2812   5   6   5.9863   3.1226   6.7514   3.8758   4.2055   6.0582   0.00    0.0
2217 293276.600   3959057.5132    -87626.6125   4983322.4508   5   6   5.9865   3.1228   6.7516   3.8761   4.2058   6.0585   0.00    0.0
2217 293276.800   3959056.2108    -87627.0162   4983321.9484   5   6   5.9867   3.1230   6.7519   3.8763   4.2060   6.0587   0.00    0.0
2217 293277.000   3959054.8114    -87627.8611   4983320.7092   5   6   5.9869   3.1232   6.7521   3.8765   4.2062   6.0590   0.00    0.0
2217 293277.200   3959055.1188    -87628.2095   4983321.5591   6   1  90.7959  86.3852  96.4075 -45.9455 -36.5800 -33.3638   0.00    0.0
2217 293277.400   3959056.9338    -87627.4228   4983323.3767   6   1  90.7957  86.3842  96.4068 -45.9465 -36.5824 -33.3656   0.00    0.0
2217 293277.600   3959057.6418    -87627.4483   4983323.5665   6   1  90.7959  86.3839  96.4062 -45.9465 -36.5840 -33.3667   0.00    0.0
2217 293277.800   3959058.6801    -87626.7450   4983324.1583   6   1  90.7972  86.3854  96.4061 -45.9438 -36.5834 -33.3659   0.00    0.0
2217 293278.000   3959058.5437    -87626.8541   4983325.7108   6   1  90.7970  86.3844  96.4054 -45.9448 -36.5858 -33.3677   0.00    0.0
2217 293278.200   3959058.2554    -87627.1025   4983325.0184   5   6   5.9881   3.1243   6.7535   3.8779   4.2076   6.0604   0.00    0.0
2217 293278.400   3959057.8397    -87627.4758   4983323.8354   5   6   5.9884   3.1245   6.7537   3.8781   4.2079   6.0606   0.00    0.0
2217 293278.600   3959057.8335    -87628.3180   4983323.1357   5   6   5.9886   3.1246   6.7540   3.8784   4.2081   6.0609   0.00    0.0
2217 293278.800   3959058.2412    -87631.7411   4983316.7379   6   2  51.8713  86.2708  71.8704 -42.1747 -40.3098  60.6205   0.00    0.0
2217 293279.000   3959063.3462    -87631.3939   4983315.6639   6   2  51.8674  86.2708  71.8731 -42.1725 -40.3119  60.6196   0.00    0.0
2217 293279.200   3959058.3018    -87605.3355   4983310.0416   6   3  47.9570   4.9447  69.7646  -9.3825 -11.8870  57.7891   0.00    0.0
2217 293279.400   3959058.9491    -87603.0219   4983309.8540   6   3  47.9467   4.0516  69.7566  -9.4424 -11.7787  57.7971   0.00    0.0
2217 293279.600   3959060.9689    -87598.9284   4983308.3949   6   3  47.9721   5.7768  69.8035  -9.1135 -12.1935  57.7627   0.00    0.0
2217 293279.800   3959049.6784    -87632.4195   4983318.4529   6   2  53.0485  85.0271  78.7190  42.8837 -56.8905  50.1253   0.00    0.0
2217 293280.000   3959056.9089    -87606.2375   4983307.4043   6   3  47.9438   4.2611  69.7726  -9.4230 -11.8995  57.7946   0.00    0.0
2217 293280.200   3959057.2696    -87610.1117   4983309.6026   6   3  47.9669   5.6838  69.8148  -9.1599 -12.2524  57.7643   0.00    0.0
2217 293280.400   3959050.8685    -87632.6669   4983318.9243   6   2  53.0479  85.0267  78.7199  42.8826 -56.8900  50.1286   0.00    0.0
2217 293280.600   3959051.5528    -87632.6308   4983319.3523   6   2  53.0471  85.0259  78.7193  42.8834 -56.8910  50.1308   0.00    0.0
2217 293280.800   3959057.6267    -87630.2251   4983324.1998   6   2  53.0593  85.0261  78.7204  42.8791 -56.8902  50.1273   0.00    0.0
2217 293281.000   3959056.3079    -87630.2642   4983323.2670   6   2  53.0523  85.0255  78.7197  42.8814 -56.8910  50.1314   0.00    0.0
2217 293281.200   3959057.8439    -87630.1248   4983325.0473   6   2  53.0501  85.0251  78.7197  42.8819 -56.8913  50.1334   0.00    0.0
2217 293281.400   3959056.9266    -87629.6805   4983324.8963   6   1  71.6002  99.5627  99.8041 -25.5377  -7.6449 -20.8981   0.00    0.0
2217 293281.600   3959055.5593    -87630.3585   4983323.0868   6   1  71.5999  99.5626  99.8042 -25.5383  -7.6439 -20.8950   0.00    0.0
2217 293281.800   3959056.5086    -87630.1812   4983324.8965   6   1  71.5996  99.5626  99.8044 -25.5388  -7.6429 -20.8919   0.00    0.0
2217 293282.000   3959056.0713    -87630.2211   4983324.3698   6   1  71.5994  99.5626  99.8045 -25.5393  -7.6418 -20.8887   0.00    0.0
2217 293282.200   3959054.9355    -87630.3633   4983324.2500   6   1  71.5991  99.5625  99.8046 -25.5398  -7.6408 -20.8855   0.00    0.0
2217 293282.400   3959054.6704    -87630.0387   4983324.3801   6   1  71.5990  99.5625  99.8047 -25.5402  -7.6398 -20.8824   0.00    0.0
2217 293282.600   3959061.7106    -87629.1346   4983323.6693   5   7   2.6953   1.4312   3.2599   0.4354   1.1309   2.2590   0.00    0.0
2217 293282.800   3959061.9451    -87629.0505   4983322.5926   5   7   2.6953   1.4312   3.2600   0.4355   1.1310   2.2591   0.00    0.0
2217 293283.000   3959060.9934    -87629.8920   4983322.2153   5   7   2.6953   1.4313   3.2600   0.4356   1.1310   2.2591   0.00    0.0
2217 293283.200   3959052.2621    -87631.1732   4983322.0995   6   1  71.6025  99.5624  99.8052 -25.5406  -7.6351 -20.8684   0.00    0.0
2217 293283.400   3959052.1983    -87630.8310   4983321.8059   6   1  71.6001  99.5624  99.8053 -25.5419  -7.6343 -20.8659   0.00    0.0
2217 293283.600   3959052.9230    -87630.6823   4983322.5105   6   1  71.5992  99.5623  99.8054 -25.5426  -7.6334 -20.8629   0.00    0.0
2217 293283.800   3959061.6734    -87629.6682   4983323.1258   5   7   2.6953   1.4313   3.2601   0.4360   1.1312   2.2592   0.00    0.0
2217 293284.000   3959060.0126    -87630.2268   4983321.1855   5   6   5.9942   3.1295   6.7603   3.8847   4.2145   6.0673   0.00    0.0
2217 293284.200   3959058.3218    -87631.0495   4983318.6046   5   6   5.9944   3.1297   6.7606   3.8849   4.2147   6.0675   0.00    0.0
2217 293284.400   3959060.5043    -87627.0874   4983319.2768   6   1  94.7344  95.6155  82.9671  30.6233  40.4338 -42.2803   0.00    0.0
2217 293284.600   3959060.6413    -87627.0884   4983317.9005   6   1  94.7340  95.6159  82.9658  30.6233  40.4338 -42.2819   0.00    0.0
2217 293284.800   3959060.5098    -87627.3281   4983317.8347   6   1  94.7337  95.6164  82.9650  30.6229  40.4331 -42.2827   0.00    0.0
2217 293285.000   3959059.5602    -87626.8910   4983317.3136   6   1  94.7339  95.6172  82.9657  30.6212  40.4309 -42.2820   0.00    0.0
2217 293285.200   3959059.1787    -87626.1811   4983316.9296   6   1  94.7335  95.6175  82.9644  30.6212  40.4308 -42.2835   0.00    0.0
2217 293285.400   3959057.2135    -87627.2374   4983317.7835   6   2  65.9705  84.3415  65.6883 -46.0985  62.5894  40.7103   0.00    0.0
2217 293285.600   3959056.9646    -87627.6774   4983318.4331   6   2  65.9667  84.3438  65.6888 -46.0996  62.5871  40.7140   0.00    0.0
2217 293285.800   3959057.2797    -87627.1718   4983314.9101   6   2  65.9716  84.3456  65.6846 -46.0951  62.5871  40.7118   0.00    0.0
2217 293286.000   3959056.3872    -87626.9452   4983315.0788   6   2  65.9669  84.3451  65.6778 -46.0990  62.5902  40.7199   0.00    0.0
2217 293286.200   3959056.0124    -87627.6446   4983316.8540   6   2  65.9664  84.3485  65.6801 -46.0970  62.5862  40.7196   0.00    0.0
2217 293286.400   3959056.1469    -87629.0977   4983319.5252   6   2  65.9655  84.3483  65.6728 -46.0980  62.5893  40.7244   0.00    0.0
2217 293286.600   3959056.0931    -87629.6243   4983321.6567   6   2  65.9652  84.3493  65.6685 -46.0976  62.5900  40.7270   0.00    0.0
2217 293286.800   3959060.5945    -87627.1187   4983319.7163   6   1  94.7322  95.6218  82.9602  30.6157  40.4234 -42.2884   0.00    0.0
2217 293287.000   3959053.4627    -87631.6488   4983323.7512   6   2  65.9740  84.3551  65.6666 -46.0876  62.5856  40.7204   0.00    0.0
2217 293287.200   3959054.2940    -87630.8020   4983322.6411   6   2  65.9694  84.3551  65.6610 -46.0910  62.5878  40.7278   0.00    0.0
2217 293287.400   3959054.8695    -87630.2540   4983321.9846   6   2  65.9681  84.3562  65.6573 -46.0913  62.5882  40.7311   0.00    0.0
2217 293287.600   3959054.7274    -87630.5252   4983321.6902   6   2  65.9677  84.3576  65.6541 -46.0907  62.5882  40.7333   0.00    0.0
2217 293287.800   3959054.9839    -87630.5971   4983321.9112   6   2  65.9677  84.3592  65.6511 -46.0898  62.5880  40.7352   0.00    0.0
2217 293288.000   3959054.9394    -87630.3481   4983322.1526   6   2  65.9678  84.3608  65.6483 -46.0888  62.5876  40.7368   0.00    0.0
2217 293288.200   3959049.6243    -87633.3897   4983315.8406   6   2  65.9680  84.3624  65.6455 -46.0876  62.5872  40.7383   0.00    0.0
2217 293288.400   3959053.8602    -87630.4516   4983311.1309   6   1  94.7310  95.6261  82.9562  30.6101  40.4158 -42.2931   0.00    0.0
2217 293288.600   3959048.1968    -87634.2835   4983314.2206   6   2  65.9687  84.3658  65.6401 -46.0850  62.5863  40.7409   0.00    0.0
2217 293288.800   3959051.5711    -87631.6632   4983310.2326   6   1  94.7306  95.6272  82.9553  30.6087  40.4139 -42.2943   0.00    0.0
2217 293289.000   3959053.1159    -87631.2228   4983311.5463   6   1  94.7305  95.6278  82.9548  30.6080  40.4129 -42.2948   0.00    0.0
2217 293289.200   3959048.8196    -87634.0959   4983314.6087   6   2  65.9710  84.3742  65.6404 -46.0779  62.5787  40.7398   0.00    0.0
2217 293289.400   3959048.7502    -87634.3107   4983313.4135   6   2  65.9707  84.3742  65.6334 -46.0782  62.5813  40.7437   0.00    0.0
2217 293289.600   3959049.4876    -87634.6152   4983312.7152   6   2  65.9709  84.3754  65.6293 -46.0774  62.5819  40.7459   0.00    0.0
2217 293289.800   3959050.9363    -87633.6825   4983313.1239   6   2  65.9721  84.3794  65.6325 -46.0739  62.5770  40.7437   0.00    0.0
2217 293290.000   3959049.6436    -87634.3465   4983310.7560   6   2  65.9719  84.3794  65.6256 -46.0742  62.5797  40.7475   0.00    0.0
2217 293290.200   3959048.1489    -87635.0872   4983310.3087   6   2  65.9721  84.3806  65.6215 -46.0734  62.5802  40.7496   0.00    0.0
2217 293290.400   3959047.4940    -87636.3515   4983309.5553   6   2  65.9724  84.3821  65.6182 -46.0723  62.5802  40.7513   0.00    0.0
2217 293290.600   3959048.6110    -87635.6770   4983311.3978   6   2  65.9727  84.3837  65.6152 -46.0711  62.5800  40.7528   0.00    0.0
2217 293290.800   3959049.9184    -87635.2737   4983312.8778   6   2  65.9731  84.3853  65.6123 -46.0698  62.5796  40.7541   0.00    0.0
2217 293291.000   3959053.6680    -87633.1816   4983310.6301   6   1  94.7291  95.6333  82.9504  30.6006  40.4029 -42.3001   0.00    0.0
2217 293291.200   3959054.1706    -87633.6823   4983310.3585   6   1  94.7289  95.6338  82.9499  30.5999  40.4019 -42.3007   0.00    0.0
2217 293291.400   3959053.0752    -87634.0319   4983309.4187   6   1  94.7287  95.6343  82.9494  30.5992  40.4010 -42.3013   0.00    0.0
2217 293291.600   3959053.1651    -87634.5951   4983308.7040   6   1  94.7286  95.6349  82.9489  30.5985  40.4000 -42.3019   0.00    0.0
2217 293291.800   3959053.6340    -87634.8270   4983308.5311   6   1  94.7284  95.6354  82.9484  30.5978  40.3990 -42.3024   0.00    0.0
2217 293292.000   3959052.4209    -87635.6581   4983306.4585   6   1  94.7283  95.6360  82.9479  30.5970  40.3980 -42.3030   0.00    0.0
2217 293292.200   3959052.1008    -87635.6931   4983306.4120   6   1  94.7281  95.6365  82.9475  30.5963  40.3971 -42.3036   0.00    0.0
2217 293292.400   3959052.5512    -87635.6982   4983306.9128   6   1  94.7280  95.6371  82.9470  30.5956  40.3961 -42.3041   0.00    0.0
2217 293292.600   3959052.7770    -87635.8778   4983306.5258   6   1  94.7278  95.6376  82.9465  30.5949  40.3951 -42.3047   0.00    0.0
2217 293292.800   3959052.6549    -87636.0247   4983306.5719   6   1  94.7282  95.6385  82.9477  30.5928  40.3923 -42.3034   0.00    0.0
2217 293293.000   3959053.2175    -87636.4451   4983305.7909   6   1  94.7278  95.6389  82.9464  30.5928  40.3923 -42.3049   0.00    0.0
2217 293293.200   3959054.1693    -87636.9173   4983306.2586   6   1  94.7275  95.6394  82.9456  30.5923  40.3916 -42.3058   0.00    0.0
2217 293293.400   3959053.7954    -87636.9604   4983306.4454   6   1  94.7273  95.6399  82.9450  30.5917  40.3908 -42.3065   0.00    0.0
2217 293293.600   3959054.3282    -87636.3999   4983307.8328   6   1  94.7272  95.6404  82.9445  30.5910  40.3899 -42.3072   0.00    0.0
2217 293293.800   3959055.5573    -87636.3747   4983308.7106   6   1  94.7270  95.6409  82.9439  30.5904  40.3890 -42.3078   0.00    0.0
2217 293294.000   3959055.8382    -87636.0491   4983309.7820   6   1  94.7273  95.6418  82.9450  30.5884  40.3864 -42.3067   0.00    0.0
2217 293294.200   3959055.5239    -87636.2293   4983309.5705   6   1  94.7269  95.6422  82.9436  30.5884  40.3864 -42.3082   0.00    0.0
2217 293294.400   3959055.3645    -87636.6632   4983308.6971   6   1  94.7266  95.6426  82.9428  30.5879  40.3857 -42.3091   0.00    0.0
2217 293294.600   3959055.2347    -87636.8083   4983308.4952   6   1  94.7264  95.6431  82.9422  30.5873  40.3849 -42.3098   0.00    0.0
2217 293294.800   3959055.7800    -87636.4924   4983309.7605   6   1  94.7263  95.6437  82.9417  30.5867  40.3840 -42.3105   0.00    0.0
2217 293295.000   3959055.2884    -87636.9452   4983309.2919   6   1  94.7261  95.6442  82.9412  30.5860  40.3830 -42.3111   0.00    0.0
2217 293295.200   3959056.1736    -87636.8368   4983310.4636   6   1  94.7259  95.6447  82.9407  30.5853  40.3821 -42.3117   0.00    0.0
2217 293295.400   3959057.3299    -87636.6567   4983311.3260   6   1  94.7258  95.6453  82.9402  30.5846  40.3811 -42.3122   0.00    0.0
2217 293295.600   3959058.7172    -87635.6704   4983313.9881   6   1  94.7256  95.6458  82.9397  30.5839  40.3802 -42.3128   0.00    0.0
2217 293295.800   3959058.4155    -87635.8723   4983312.9328   6   1  94.7255  95.6464  82.9392  30.5832  40.3792 -42.3134   0.00    0.0
2217 293296.000   3959057.9851    -87635.9527   4983312.7297   6   1  94.7253  95.6469  82.9387  30.5825  40.3782 -42.3140   0.00    0.0
2217 293296.200   3959056.7480    -87637.0977   4983310.2601   6   1  94.7252  95.6474  82.9383  30.5817  40.3773 -42.3145   0.00    0.0
2217 293296.400   3959057.0814    -87636.5797   4983310.8641   6   1  94.7250  95.6480  82.9378  30.5810  40.3763 -42.3151   0.00    0.0
2217 293296.600   3959056.5405    -87636.4119   4983311.4351   6   1  94.7249  95.6485  82.9373  30.5803  40.3753 -42.3156   0.00    0.0
2217 293296.800   3959057.2318    -87635.9897   4983312.3542   6   1  94.7247  95.6491  82.9369  30.5796  40.3743 -42.3162   0.00    0.0
2217 293297.000   3959057.2916    -87635.7215   4983312.2614   6   1  94.7246  95.6496  82.9364  30.5789  40.3733 -42.3168   0.00    0.0
2217 293297.200   3959057.4811    -87636.0040   4983313.1553   6   1  94.7244  95.6502  82.9359  30.5781  40.3723 -42.3173   0.00    0.0
2217 293297.400   3959055.3366    -87640.7911   4983312.2053   6   2  90.5658  34.1074  82.1427 -39.3140  51.4991 -38.3829   0.00    0.0
2217 293297.600   3959056.6164    -87637.0500   4983311.4649   6   1  94.7241  95.6512  82.9350  30.5767  40.3704 -42.3184   0.00    0.0
2217 293297.800   3959055.8855    -87637.2670   4983310.4603   6   1  94.7240  95.6518  82.9345  30.5760  40.3694 -42.3190   0.00    0.0
2217 293298.000   3959056.0269    -87637.2776   4983310.9703   6   1  94.7238  95.6523  82.9341  30.5752  40.3684 -42.3195   0.00    0.0
2217 293298.200   3959054.2861    -87637.7734   4983308.3749   6   1  94.7237  95.6529  82.9336  30.5745  40.3674 -42.3201   0.00    0.0
2217 293298.400   3959056.1893    -87637.9996   4983310.6815   6   1  94.7235  95.6534  82.9331  30.5738  40.3664 -42.3206   0.00    0.0
2217 293298.600   3959055.1974    -87638.7206   4983309.1837   6   1  94.7234  95.6540  82.9327  30.5731  40.3654 -42.3212   0.00    0.0
2217 293298.800   3959055.5640    -87638.7550   4983309.1162   6   1  94.7237  95.6549  82.9339  30.5710  40.3626 -42.3198   0.00    0.0
2217 293299.000   3959058.4846    -87637.4815   4983313.3791   6   1  94.7233  95.6552  82.9326  30.5709  40.3626 -42.3214   0.00    0.0
2217 293299.200   3959057.5249    -87638.1117   4983312.3099   6   1  94.7231  95.6557  82.9318  30.5705  40.3619 -42.3222   0.00    0.0
2217 293299.400   3959057.6179    -87638.3406   4983312.5313   6   1  94.7229  95.6562  82.9312  30.5698  40.3611 -42.3230   0.00    0.0
2217 293299.600   3959058.6411    -87638.3110   4983313.5365   6   1  94.7227  95.6568  82.9306  30.5692  40.3602 -42.3236   0.00    0.0
2217 293299.800   3959060.2271    -87637.1487   4983316.0779   6   1  94.7225  95.6573  82.9301  30.5685  40.3592 -42.3242   0.00    0.0
2217 293300.000   3959059.5592    -87637.2393   4983315.8841   6   1  94.7224  95.6578  82.9296  30.5678  40.3583 -42.3248   0.00    0.0
2217 293300.200   3959060.4800    -87636.4858   4983317.9001   6   1  94.7222  95.6584  82.9291  30.5671  40.3573 -42.3254   0.00    0.0
2217 293300.400   3959060.7082    -87636.3138   4983318.0595   6   1  94.7221  95.6589  82.9287  30.5664  40.3564 -42.3260   0.00    0.0
2217 293300.800   3959062.0575    -87635.7643   4983319.9364   6   1  94.7218  95.6600  82.9277  30.5650  40.3544 -42.3271   0.00    0.0
2217 293301.000   3959062.4979    -87636.1719   4983319.7870   6   1  94.7216  95.6605  82.9272  30.5642  40.3534 -42.3277   0.00    0.0
2217 293301.200   3959062.9113    -87636.3708   4983319.8552   6   1  94.7215  95.6611  82.9268  30.5635  40.3525 -42.3282   0.00    0.0
2217 293301.400   3959062.7977    -87636.6285   4983319.2173   6   1  94.7213  95.6616  82.9263  30.5628  40.3515 -42.3288   0.00    0.0
2217 293301.600   3959065.4193    -87638.9418   4983323.4859   5   6   6.0126   3.1457   6.7811   3.9053   4.2352   6.0883   0.00    0.0
2217 293301.800   3959063.9019    -87635.9980   4983319.2477   6   1  94.7215  95.6631  82.9270  30.5600  40.3477 -42.3280   0.00    0.0
2217 293302.000   3959063.7031    -87635.9508   4983318.6960   6   1  94.7211  95.6634  82.9257  30.5600  40.3477 -42.3296   0.00    0.0
2217 293302.200   3959061.2651    -87636.9089   4983317.9098   6   1  94.7209  95.6639  82.9249  30.5595  40.3470 -42.3305   0.00    0.0
2217 293302.400   3959060.6256    -87637.7676   4983316.7366   6   1  94.7207  95.6644  82.9243  30.5589  40.3462 -42.3312   0.00    0.0
2217 293302.600   3959060.2388    -87638.4441   4983315.6528   6   1  94.7205  95.6649  82.9238  30.5582  40.3453 -42.3318   0.00    0.0
2217 293302.800   3959060.9239    -87637.9097   4983316.2361   6   1  94.7203  95.6655  82.9232  30.5576  40.3443 -42.3324   0.00    0.0
2217 293303.000   3959061.1895    -87638.4390   4983315.5253   6   1  94.7202  95.6660  82.9227  30.5569  40.3434 -42.3330   0.00    0.0
2217 293303.200   3959060.0612    -87639.3959   4983314.4945   6   1  94.7200  95.6665  82.9222  30.5562  40.3424 -42.3336   0.00    0.0
2217 293303.400   3959059.3133    -87640.1931   4983313.6902   6   1  94.7198  95.6671  82.9218  30.5555  40.3415 -42.3342   0.00    0.0
2217 293303.600   3959058.9162    -87641.0055   4983312.7573   6   1  94.7197  95.6676  82.9213  30.5547  40.3405 -42.3348   0.00    0.0
2217 293303.800   3959061.1403    -87639.8167   4983314.6560   6   1  94.7195  95.6682  82.9208  30.5540  40.3395 -42.3353   0.00    0.0
2217 293304.000   3959060.3179    -87640.8565   4983313.9494   6   1  94.7194  95.6687  82.9203  30.5533  40.3385 -42.3359   0.00    0.0
2217 293304.200   3959059.2194    -87641.1994   4983314.2759   6   1  94.7192  95.6693  82.9199  30.5526  40.3375 -42.3365   0.00    0.0
2217 293304.400   3959058.3809    -87641.4898   4983313.6440   6   1  94.7191  95.6698  82.9194  30.5519  40.3366 -42.3370   0.00    0.0
2217 293304.600   3959058.3007    -87642.3765   4983312.6417   6   1  94.7189  95.6703  82.9189  30.5511  40.3356 -42.3376   0.00    0.0
2217 293304.800   3959057.7019    -87642.7975   4983312.2827   6   1  94.7188  95.6709  82.9185  30.5504  40.3346 -42.3381   0.00    0.0
2217 293305.000   3959059.2360    -87642.3152   4983313.6909   6   1  94.7186  95.6714  82.9180  30.5497  40.3336 -42.3387   0.00    0.0
2217 293305.200   3959059.7369    -87642.5445   4983313.4302   6   1  94.7185  95.6720  82.9175  30.5490  40.3326 -42.3392   0.00    0.0
2217 293305.400   3959061.8692    -87641.7397   4983314.2971   6   1  94.7183  95.6725  82.9171  30.5482  40.3316 -42.3398   0.00    0.0
2217 293305.600   3959061.9599    -87642.4077   4983313.1209   6   1  94.7182  95.6731  82.9166  30.5475  40.3306 -42.3403   0.00    0.0
2217 293305.800   3959062.6286    -87641.9250   4983313.3507   6   1  94.7180  95.6736  82.9161  30.5468  40.3296 -42.3409   0.00    0.0
2217 293306.000   3959060.3705    -87651.3645   4983314.9392   6   2  90.5832  34.0633  82.1226 -39.2635  51.4706 -38.4205   0.00    0.0
2217 293306.200   3959063.7480    -87641.6895   4983313.7337   6   1  94.7177  95.6747  82.9152  30.5453  40.3277 -42.3420   0.00    0.0
2217 293306.400   3959060.3580    -87651.0937   4983314.7935   6   2  90.5836  34.0474  82.1216 -39.2648  51.4704 -38.4218   0.00    0.0
2217 293306.600   3959059.8093    -87651.2774   4983313.8105   6   2  90.5838  34.0418  82.1211 -39.2648  51.4702 -38.4225   0.00    0.0
2217 293306.800   3959058.1145    -87651.7110   4983311.6957   6   2  90.5841  34.0384  82.1206 -39.2643  51.4697 -38.4233   0.00    0.0
2217 293307.000   3959059.1495    -87651.4979   4983312.1668   6   2  90.5845  34.0360  82.1202 -39.2635  51.4692 -38.4241   0.00    0.0
2217 293307.200   3959059.0315    -87651.1602   4983313.1602   6   2  90.5848  34.0340  82.1197 -39.2625  51.4686 -38.4250   0.00    0.0
2217 293307.400   3959060.1142    -87651.4122   4983313.0281   6   2  90.5852  34.0323  82.1192 -39.2615  51.4680 -38.4258   0.00    0.0
2217 293307.600   3959058.9807    -87651.6858   4983311.7685   6   2  90.5856  34.0308  82.1187 -39.2605  51.4674 -38.4267   0.00    0.0
2217 293307.800   3959059.8463    -87651.6165   4983311.9095   6   2  90.5860  34.0294  82.1183 -39.2594  51.4667 -38.4275   0.00    0.0
2217 293308.000   3959059.2948    -87651.3915   4983312.2895   6   2  90.5864  34.0280  82.1178 -39.2583  51.4661 -38.4284   0.00    0.0
2217 293308.200   3959059.4122    -87651.1868   4983312.4321   6   2  90.5868  34.0267  82.1173 -39.2572  51.4655 -38.4293   0.00    0.0
2217 293308.400   3959061.9009    -87643.5354   4983310.8523   6   1  94.7166  95.6811  82.9119  30.5359  40.3149 -42.3461   0.00    0.0
2217 293308.600   3959062.2847    -87644.0065   4983310.7762   6   1  94.7162  95.6814  82.9105  30.5359  40.3148 -42.3477   0.00    0.0
2217 293308.800   3959062.4879    -87644.2127   4983310.2856   6   1  94.7159  95.6819  82.9098  30.5354  40.3141 -42.3485   0.00    0.0
2217 293309.000   3959064.0715    -87644.2401   4983310.9220   6   1  94.7158  95.6824  82.9092  30.5348  40.3133 -42.3492   0.00    0.0
2217 293309.200   3959064.3258    -87644.1651   4983311.1301   6   1  94.7156  95.6829  82.9086  30.5341  40.3124 -42.3499   0.00    0.0
2217 293309.400   3959065.5401    -87644.4146   4983309.5199   6   2  66.0249  84.5519  65.3787 -45.9293  62.5195  40.8503   0.00    0.0
2217 293309.600   3959066.9714    -87643.8965   4983311.8753   6   2  66.0203  84.5518  65.3731 -45.9327  62.5216  40.8577   0.00    0.0
2217 293309.800   3959066.4896    -87644.0014   4983311.0634   6   2  66.0191  84.5530  65.3694 -45.9330  62.5220  40.8609   0.00    0.0
2217 293310.000   3959067.5126    -87643.3663   4983311.8071   6   2  66.0187  84.5544  65.3662 -45.9324  62.5219  40.8631   0.00    0.0
2217 293310.200   3959067.6891    -87642.5173   4983312.5568   6   2  66.0187  84.5559  65.3633 -45.9315  62.5217  40.8650   0.00    0.0
2217 293310.400   3959068.0343    -87643.0145   4983315.2226   6   1  94.7146  95.6861  82.9057  30.5299  40.3066 -42.3534   0.00    0.0
2217 293310.600   3959068.5005    -87643.1214   4983315.9647   6   1  94.7145  95.6867  82.9052  30.5292  40.3056 -42.3540   0.00    0.0
2217 293310.800   3959066.7753    -87643.8826   4983313.8587   6   1  94.7143  95.6872  82.9047  30.5284  40.3047 -42.3545   0.00    0.0
2217 293311.000   3959066.4476    -87644.2074   4983313.3347   6   1  94.7142  95.6878  82.9043  30.5277  40.3037 -42.3551   0.00    0.0
2217 293311.200   3959065.6764    -87644.9574   4983312.2070   6   1  94.7140  95.6883  82.9038  30.5270  40.3027 -42.3556   0.00    0.0
2217 293311.400   3959065.5297    -87645.3300   4983311.6934   6   1  94.7139  95.6888  82.9033  30.5263  40.3017 -42.3562   0.00    0.0
2217 293311.600   3959066.5957    -87645.6931   4983312.7142   6   1  94.7137  95.6894  82.9029  30.5255  40.3007 -42.3567   0.00    0.0
2217 293311.800   3959069.5598    -87646.9771   4983317.4937   5   6   6.0235   3.1551   6.7931   3.9173   4.2472   6.1006   0.00    0.0
2217 293312.000   3959069.7724    -87646.7342   4983318.2185   5   6   6.0237   3.1553   6.7933   3.9175   4.2475   6.1009   0.00    0.0
2217 293312.200   3959070.4943    -87646.8222   4983318.7737   5   6   6.0239   3.1555   6.7935   3.9177   4.2477   6.1011   0.00    0.0
2217 293312.400   3959068.8007    -87647.8332   4983316.9075   5   6   6.0241   3.1556   6.7938   3.9180   4.2479   6.1013   0.00    0.0
2217 293312.600   3959070.2714    -87646.6888   4983318.5589   5   6   6.0244   3.1558   6.7940   3.9182   4.2482   6.1016   0.00    0.0
2217 293312.800   3959070.5106    -87646.3932   4983319.1650   5   6   6.0246   3.1560   6.7943   3.9184   4.2484   6.1018   0.00    0.0
2217 293313.000   3959070.1510    -87650.3239   4983315.2257   6   1  99.9395  88.2161  85.0341 -12.7986 -49.7823 -13.5289   0.00    0.0
2217 293313.200   3959070.5336    -87650.3416   4983316.1181   6   1  99.9395  88.2147  85.0333 -12.7966 -49.7843 -13.5267   0.00    0.0
2217 293313.400   3959071.9719    -87648.9076   4983318.2282   6   1  99.9396  88.2139  85.0333 -12.7943 -49.7851 -13.5240   0.00    0.0
2217 293313.600   3959072.7641    -87644.9964   4983324.4648   5   6   6.0254   3.1568   6.7952   3.9194   4.2494   6.1028   0.00    0.0
2217 293313.800   3959071.0975    -87646.5528   4983322.0545   5   6   6.0257   3.1569   6.7954   3.9196   4.2496   6.1030   0.00    0.0
2217 293314.000   3959070.8903    -87646.3604   4983321.2484   5   6   6.0259   3.1571   6.7957   3.9199   4.2498   6.1033   0.00    0.0
2217 293314.200   3959070.3466    -87647.2150   4983320.5048   5   6   6.0261   3.1573   6.7959   3.9201   4.2501   6.1035   0.00    0.0
2217 293314.400   3959071.1914    -87647.0384   4983322.0148   5   6   6.0263   3.1575   6.7961   3.9203   4.2503   6.1037   0.00    0.0
2217 293314.600   3959070.4652    -87647.6057   4983321.3616   5   6   6.0265   3.1577   6.7964   3.9206   4.2505   6.1040   0.00    0.0
2217 293314.800   3959070.4939    -87647.3237   4983322.1078   5   6   6.0267   3.1579   6.7966   3.9208   4.2508   6.1042   0.00    0.0
2217 293315.000   3959072.6686    -87645.8546   4983325.0337   5   6   6.0269   3.1581   6.7968   3.9210   4.2510   6.1045   0.00    0.0
2217 293315.200   3959073.3140    -87645.7171   4983325.9770   5   6   6.0272   3.1582   6.7971   3.9213   4.2513   6.1047   0.00    0.0
2217 293315.400   3959073.7684    -87646.3153   4983325.4984   5   6   6.0274   3.1584   6.7973   3.9215   4.2515   6.1049   0.00    0.0
2217 293315.600   3959072.0599    -87647.2643   4983323.5362   5   6   6.0276   3.1586   6.7976   3.9218   4.2517   6.1052   0.00    0.0
2217 293315.800   3959072.7500    -87647.2184   4983324.5398   5   6   6.0278   3.1588   6.7978   3.9220   4.2520   6.1054   0.00    0.0
2217 293316.000   3959073.0879    -87646.3582   4983325.6344   5   6   6.0280   3.1590   6.7980   3.9222   4.2522   6.1057   0.00    0.0
2217 293316.200   3959074.0927    -87646.0964   4983326.5639   5   6   6.0282   3.1592   6.7983   3.9225   4.2524   6.1059   0.00    0.0
2217 293316.400   3959073.9373    -87645.8965   4983326.9144   5   6   6.0284   3.1594   6.7985   3.9227   4.2527   6.1062   0.00    0.0
2217 293316.600   3959073.9504    -87645.2376   4983327.8520   5   6   6.0287   3.1595   6.7987   3.9229   4.2529   6.1064   0.00    0.0
2217 293316.800   3959073.2686    -87645.8740   4983327.3379   5   6   6.0289   3.1597   6.7990   3.9232   4.2531   6.1066   0.00    0.0
2217 293317.000   3959073.1031    -87645.5528   4983326.4835   5   6   6.0291   3.1599   6.7992   3.9234   4.2534   6.1069   0.00    0.0
2217 293317.200   3959072.5496    -87646.2071   4983325.4398   5   6   6.0293   3.1601   6.7994   3.9236   4.2536   6.1071   0.00    0.0
2217 293317.400   3959071.5889    -87646.9368   4983325.1779   5   6   6.0295   3.1603   6.7997   3.9239   4.2539   6.1074   0.00    0.0
2217 293317.600   3959071.5109    -87646.8576   4983325.4047   5   6   6.0297   3.1605   6.7999   3.9241   4.2541   6.1076   0.00    0.0
2217 293317.800   3959070.7372    -87647.0511   4983325.0443   5   6   6.0300   3.1607   6.8001   3.9244   4.2543   6.1078   0.00    0.0
2217 293318.000   3959071.9577    -87646.5261   4983325.8888   5   6   6.0302   3.1609   6.8004   3.9246   4.2546   6.1081   0.00    0.0
2217 293318.200   3959072.1381    -87646.5800   4983325.7870   5   6   6.0304   3.1610   6.8006   3.9248   4.2548   6.1083   0.00    0.0
2217 293318.400   3959071.3565    -87646.7863   4983325.3820   5   6   6.0306   3.1612   6.8009   3.9251   4.2550   6.1086   0.00    0.0
2217 293318.600   3959071.8816    -87646.7127   4983325.0694   5   6   6.0308   3.1614   6.8011   3.9253   4.2553   6.1088   0.00    0.0
2217 293318.800   3959069.0924    -87648.2093   4983322.9573   5   6   6.0310   3.1616   6.8013   3.9255   4.2555   6.1090   0.00    0.0
2217 293319.000   3959069.5582    -87648.1225   4983323.5149   5   6   6.0312   3.1618   6.8016   3.9258   4.2557   6.1093   0.00    0.0
2217 293319.200   3959070.5626    -87647.8552   4983323.7922   5   6   6.0315   3.1620   6.8018   3.9260   4.2560   6.1095   0.00    0.0
2217 293319.400   3959070.0877    -87648.2245   4983323.7531   5   6   6.0317   3.1622   6.8020   3.9262   4.2562   6.1098   0.00    0.0
2217 293319.600   3959070.1015    -87648.2232   4983323.6939   5   6   6.0319   3.1623   6.8023   3.9265   4.2565   6.1100   0.00    0.0
2217 293319.800   3959070.9578    -87648.2192   4983324.7772   5   6   6.0321   3.1625   6.8025   3.9267   4.2567   6.1103   0.00    0.0
2217 293320.000   3959068.8863    -87649.3266   4983323.4744   5   6   6.0323   3.1627   6.8027   3.9270   4.2569   6.1105   0.00    0.0
2217 293320.200   3959064.4155    -87649.1903   4983317.0986   6   1  94.7078  95.7131  82.8849  30.4927  40.2559 -42.3784   0.00    0.0
2217 293320.400   3959064.8903    -87649.3579   4983317.3414   6   1  94.7076  95.7137  82.8845  30.4919  40.2549 -42.3789   0.00    0.0
2217 293320.600   3959064.2158    -87650.1178   4983316.1369   6   1  94.7072  95.7140  82.8831  30.4919  40.2548 -42.3805   0.00    0.0
2217 293320.800   3959067.1582    -87651.9608   4983319.5179   5   6   6.0332   3.1635   6.8037   3.9279   4.2579   6.1115   0.00    0.0
2217 293321.000   3959067.4083    -87651.5038   4983320.0169   5   6   6.0334   3.1637   6.8039   3.9281   4.2581   6.1117   0.00    0.0
2217 293321.200   3959065.9401    -87652.6850   4983317.9325   5   6   6.0336   3.1638   6.8042   3.9284   4.2583   6.1119   0.00    0.0
2217 293321.400   3959067.1377    -87652.2914   4983318.4393   5   6   6.0338   3.1640   6.8044   3.9286   4.2586   6.1122   0.00    0.0
2217 293321.600   3959065.4393    -87653.1849   4983316.7376   5   6   6.0341   3.1642   6.8046   3.9289   4.2588   6.1124   0.00    0.0
2217 293321.800   3959067.8108    -87652.3521   4983317.6937   5   6   6.0343   3.1644   6.8049   3.9291   4.2591   6.1127   0.00    0.0
2217 293322.000   3959067.2228    -87652.4988   4983317.8026   5   6   6.0345   3.1646   6.8051   3.9293   4.2593   6.1129   0.00    0.0
2217 293322.200   3959067.2600    -87652.1715   4983316.8916   5   6   6.0347   3.1648   6.8053   3.9296   4.2595   6.1132   0.00    0.0
2217 293322.400   3959067.2786    -87652.4065   4983315.9731   5   6   6.0349   3.1650   6.8056   3.9298   4.2598   6.1134   0.00    0.0
2217 293322.600   3959067.3372    -87652.8771   4983315.4794   5   6   6.0351   3.1651   6.8058   3.9300   4.2600   6.1136   0.00    0.0
2217 293322.800   3959067.9635    -87653.1180   4983315.0955   5   6   6.0354   3.1653   6.8060   3.9303   4.2602   6.1139   0.00    0.0
2217 293323.000   3959068.7888    -87652.8033   4983315.0538   5   6   6.0356   3.1655   6.8063   3.9305   4.2605   6.1141   0.00    0.0
2217 293323.200   3959068.7463    -87652.9287   4983315.0040   5   6   6.0358   3.1657   6.8065   3.9307   4.2607   6.1144   0.00    0.0
2217 293323.400   3959067.2866    -87653.5994   4983313.0751   5   6   6.0360   3.1659   6.8067   3.9310   4.2609   6.1146   0.00    0.0
2217 293323.600   3959069.0853    -87652.6443   4983313.9929   5   6   6.0362   3.1661   6.8070   3.9312   4.2612   6.1148   0.00    0.0
2217 293323.800   3959070.0198    -87652.1786   4983314.9129   5   6   6.0364   3.1663   6.8072   3.9315   4.2614   6.1151   0.00    0.0
2217 293324.000   3959070.3300    -87652.5703   4983314.4705   5   6   6.0367   3.1665   6.8075   3.9317   4.2617   6.1153   0.00    0.0
2217 293324.200   3959069.0289    -87653.3406   4983314.0433   5   6   6.0369   3.1666   6.8077   3.9319   4.2619   6.1156   0.00    0.0
2217 293324.400   3959067.4162    -87654.4215   4983312.8570   5   6   6.0371   3.1668   6.8079   3.9322   4.2621   6.1158   0.00    0.0
2217 293324.600   3959067.2349    -87654.3716   4983312.5543   5   6   6.0373   3.1670   6.8082   3.9324   4.2624   6.1161   0.00    0.0
2217 293324.800   3959067.8895    -87654.0865   4983312.9178   5   6   6.0375   3.1672   6.8084   3.9326   4.2626   6.1163   0.00    0.0
2217 293325.000   3959068.3636    -87653.7987   4983313.1038   5   6   6.0377   3.1674   6.8086   3.9329   4.2628   6.1165   0.00    0.0
2217 293325.200   3959069.1787    -87653.2961   4983313.1852   5   6   6.0380   3.1676   6.8089   3.9331   4.2631   6.1168   0.00    0.0
2217 293325.400   3959068.3470    -87654.0743   4983312.5333   5   6   6.0382   3.1678   6.8091   3.9334   4.2633   6.1170   0.00    0.0
2217 293325.600   3959070.0190    -87653.9295   4983313.3801   5   6   6.0384   3.1680   6.8093   3.9336   4.2636   6.1173   0.00    0.0
2217 293325.800   3959068.6571    -87654.2030   4983312.3184   5   6   6.0386   3.1681   6.8096   3.9338   4.2638   6.1175   0.00    0.0
2217 293326.000   3959064.9869    -87655.2448   4983309.0226   6   1  71.5767  99.5561  99.8301 -25.6375  -7.4057 -20.1723   0.00    0.0
2217 293326.200   3959065.8519    -87654.9965   4983308.3815   6   1  71.5743  99.5560  99.8302 -25.6388  -7.4048 -20.1697   0.00    0.0
2217 293326.400   3959067.7271    -87654.5506   4983307.9712   6   1  71.5764  99.5560  99.8303 -25.6384  -7.4035 -20.1657   0.00    0.0
2217 293326.600   3959068.9613    -87654.5144   4983308.9375   6   2  53.1298  85.0028  78.8046  42.7565 -56.8417  50.3255   0.00    0.0
2217 293326.800   3959069.4968    -87653.0157   4983311.1455   6   2  53.1251  85.0007  78.8018  42.7603 -56.8451  50.3309   0.00    0.0
2217 293327.000   3959067.1008    -87651.8957   4983312.8313   6   2  53.1375  85.0029  78.8060  42.7530 -56.8406  50.3245   0.00    0.0
2217 293327.200   3959064.6377    -87654.9626   4983307.8325   6   1  71.5737  99.5559  99.8307 -25.6410  -7.3993 -20.1531   0.00    0.0
2217 293327.400   3959064.3540    -87655.6024   4983306.9926   6   1  71.5728  99.5558  99.8309 -25.6418  -7.3983 -20.1500   0.00    0.0
2217 293327.600   3959064.1539    -87656.8111   4983305.9078   6   1  71.5757  99.5558  99.8310 -25.6411  -7.3969 -20.1458   0.00    0.0
2217 293327.800   3959065.8319    -87655.4915   4983309.2273   6   1  71.5734  99.5558  99.8311 -25.6424  -7.3960 -20.1431   0.00    0.0
2217 293328.000   3959065.3566    -87655.7504   4983309.4457   6   1  71.5725  99.5557  99.8312 -25.6431  -7.3950 -20.1401   0.00    0.0
2217 293328.200   3959064.7513    -87655.7455   4983309.1903   6   1  71.5754  99.5558  99.8313 -25.6424  -7.3936 -20.1358   0.00    0.0
2217 293328.400   3959063.9065    -87656.2104   4983307.3930   6   1  71.5730  99.5557  99.8314 -25.6437  -7.3927 -20.1332   0.00    0.0
2217 293328.600   3959063.8877    -87656.1107   4983306.6257   6   1  71.5721  99.5557  99.8315 -25.6445  -7.3917 -20.1301   0.00    0.0
2217 293328.800   3959062.2830    -87654.6203   4983306.8374   6   2  53.1299  85.0014  78.8081  42.7520 -56.8399  50.3365   0.00    0.0
2217 293329.000   3959062.2300    -87655.1409   4983305.9425   6   2  53.1269  84.9993  78.8055  42.7553 -56.8432  50.3412   0.00    0.0
2217 293329.200   3959068.4791    -87656.1461   4983304.9420   6   1  99.9434  88.1791  85.0649 -12.5970 -49.7953 -13.2998   0.00    0.0
2217 293329.400   3959063.8388    -87656.8363   4983303.9222   6   1  71.5709  99.5555  99.8320 -25.6465  -7.3874 -20.1171   0.00    0.0
2217 293329.600   3959066.4159    -87657.1937   4983302.5365   5   6   6.0428   3.1717   6.8140   3.9383   4.2683   6.1221   0.00    0.0
