%time,field.header.seq,field.header.stamp,field.header.frame_id,field.status.status,field.status.service,field.latitude,field.longitude,field.altitude,field.position_covariance0,field.position_covariance1,field.position_covariance2,field.position_covariance3,field.position_covariance4,field.position_covariance5,field.position_covariance6,field.position_covariance7,field.position_covariance8,field.position_covariance_type
1676519494799206008,375,1676519494798967991,,0,0,22.41611495602056,114.04270724922627,99.69549560546875,0.0,0.0,0.0,0.0,0.0,0.0,0.0,0.0,0.0,0
1676519494999658905,376,1676519494999439077,,0,0,22.416114955337804,114.04270724146562,99.69298553466797,0.0,0.0,0.0,0.0,0.0,0.0,0.0,0.0,0.0,0
1676519495200276581,377,1676519495199860689,,0,0,22.416114948505104,114.04270722904846,99.68641662597656,0.0,0.0,0.0,0.0,0.0,0.0,0.0,0.0,0.0,0
1676519495400070119,378,1676519495399849471,,0,0,22.416114917895865,114.04270722726243,99.68599700927734,0.0,0.0,0.0,0.0,0.0,0.0,0.0,0.0,0.0,0
1676519495599208021,379,1676519495598975457,,0,0,22.41611492299519,114.04270724078499,99.69092559814453,0.0,0.0,0.0,0.0,0.0,0.0,0.0,0.0,0.0,0
1676519495800713805,380,1676519495799784633,,0,0,22.416114939421995,114.04270723137557,99.68522644042969,0.0,0.0,0.0,0.0,0.0,0.0,0.0,0.0,0.0,0
1676519496000168469,381,1676519495999937768,,0,0,22.416114909857793,114.0427072206251,99.67829132080078,0.0,0.0,0.0,0.0,0.0,0.0,0.0,0.0,0.0,0
1676519496199578126,382,1676519496199339127,,0,0,22.416114925686784,114.04270722071854,99.67930603027344,0.0,0.0,0.0,0.0,0.0,0.0,0.0,0.0,0.0,0
1676519496399306419,383,1676519496399042378,,0,0,22.416114927232694,114.04270722474445,99.67738342285156,0.0,0.0,0.0,0.0,0.0,0.0,0.0,0.0,0.0,0
1676519496599400758,384,1676519496599129421,,0,0,22.416114937103522,114.04270719893748,99.6882095336914,0.0,0.0,0.0,0.0,0.0,0.0,0.0,0.0,0.0,0
1676519496799710222,385,1676519496799492670,,0,0,22.416114938929212,114.04270720489961,99.68518829345703,0.0,0.0,0.0,0.0,0.0,0.0,0.0,0.0,0.0,0
1676519496999749770,386,1676519496999525662,,0,0,22.416114942796874,114.04270722280687,99.68428039550781,0.0,0.0,0.0,0.0,0.0,0.0,0.0,0.0,0.0,0
1676519497198481326,387,1676519497198324824,,0,0,22.41611492733036,114.04270721430228,99.677978515625,0.0,0.0,0.0,0.0,0.0,0.0,0.0,0.0,0.0,0
1676519497399915270,388,1676519497399724414,,0,0,22.416114938729883,114.04270720948381,99.67951202392578,0.0,0.0,0.0,0.0,0.0,0.0,0.0,0.0,0.0,0
1676519497599239491,389,1676519497599036311,,0,0,22.41611491235287,114.04270720759601,99.68314361572266,0.0,0.0,0.0,0.0,0.0,0.0,0.0,0.0,0.0,0
1676519497799009333,390,1676519497798814410,,0,0,22.416114938417536,114.04270721109384,99.68450164794922,0.0,0.0,0.0,0.0,0.0,0.0,0.0,0.0,0.0,0
1676519497998320348,391,1676519497998118252,,0,0,22.41611489722424,114.04270723419198,99.68182373046875,0.0,0.0,0.0,0.0,0.0,0.0,0.0,0.0,0.0,0
1676519498199049499,392,1676519498198791973,,0,0,22.416114931439928,114.04270723184511,99.68140411376953,0.0,0.0,0.0,0.0,0.0,0.0,0.0,0.0,0.0,0
1676519498398916885,393,1676519498398568258,,0,0,22.41611491364275,114.04270720728444,99.6868667602539,0.0,0.0,0.0,0.0,0.0,0.0,0.0,0.0,0.0,0
1676519498599223975,394,1676519498599026158,,0,0,22.416114941386986,114.04270716316037,99.70652770996094,0.0,0.0,0.0,0.0,0.0,0.0,0.0,0.0,0.0,0
1676519498798693370,395,1676519498798418061,,0,0,22.416114961868004,114.04270712056329,99.7042236328125,0.0,0.0,0.0,0.0,0.0,0.0,0.0,0.0,0.0,0
1676519498998687609,396,1676519498998439117,,0,0,22.416114944476103,114.04270712942107,99.70358276367188,0.0,0.0,0.0,0.0,0.0,0.0,0.0,0.0,0.0,0
1676519499199054607,397,1676519499198814609,,0,0,22.416114916934823,114.04270713541786,99.71552276611328,0.0,0.0,0.0,0.0,0.0,0.0,0.0,0.0,0.0,0
1676519499398824105,398,1676519499398619037,,0,0,22.416114941215763,114.04270713365418,99.711181640625,0.0,0.0,0.0,0.0,0.0,0.0,0.0,0.0,0.0,0
1676519499599160348,399,1676519499598874780,,0,0,22.416114940815884,114.04270712779666,99.6970443725586,0.0,0.0,0.0,0.0,0.0,0.0,0.0,0.0,0.0,0
1676519499799003513,400,1676519499798814634,,0,0,22.41611493261924,114.04270713328185,99.68513488769531,0.0,0.0,0.0,0.0,0.0,0.0,0.0,0.0,0.0,0
1676519499998713413,401,1676519499998536585,,0,0,22.416114967356712,114.04270713881188,99.6978988647461,0.0,0.0,0.0,0.0,0.0,0.0,0.0,0.0,0.0,0
1676519500198583861,402,1676519500198406500,,0,0,22.416114941891923,114.04270716412111,99.69620513916016,0.0,0.0,0.0,0.0,0.0,0.0,0.0,0.0,0.0,0
1676519500399007690,403,1676519500398733034,,0,0,22.416114976587984,114.04270716574406,99.69713592529297,0.0,0.0,0.0,0.0,0.0,0.0,0.0,0.0,0.0,0
1676519500598411266,404,1676519500598233223,,0,0,22.416115015586538,114.04270717088936,99.70272064208984,0.0,0.0,0.0,0.0,0.0,0.0,0.0,0.0,0.0,0
1676519500799286044,405,1676519500798979010,,0,0,22.4161149491909,114.04270716451377,99.70455932617188,0.0,0.0,0.0,0.0,0.0,0.0,0.0,0.0,0.0,0
1676519500998441696,406,1676519500998232967,,0,0,22.416114948163955,114.04270721660767,99.70487976074219,0.0,0.0,0.0,0.0,0.0,0.0,0.0,0.0,0.0,0
1676519501198746010,407,1676519501198524847,,0,0,22.416114938846956,114.04270722286297,99.7046127319336,0.0,0.0,0.0,0.0,0.0,0.0,0.0,0.0,0.0,0
1676519501398331555,408,1676519501398119295,,0,0,22.416114962337748,114.04270725582441,99.70222473144531,0.0,0.0,0.0,0.0,0.0,0.0,0.0,0.0,0.0,0
1676519501599078260,409,1676519501598855827,,0,0,22.416114965529328,114.04270728556499,99.71418762207031,0.0,0.0,0.0,0.0,0.0,0.0,0.0,0.0,0.0,0
1676519501798222921,410,1676519501797994716,,0,0,22.41611489420599,114.0427072887069,99.70277404785156,0.0,0.0,0.0,0.0,0.0,0.0,0.0,0.0,0.0,0
1676519501999052926,411,1676519501998857690,,0,0,22.41611483991727,114.04270731240786,99.70361328125,0.0,0.0,0.0,0.0,0.0,0.0,0.0,0.0,0.0,0
1676519502198298943,412,1676519502198086390,,0,0,22.416114859218375,114.04270728702657,99.6866226196289,0.0,0.0,0.0,0.0,0.0,0.0,0.0,0.0,0.0,0
1676519502398770084,413,1676519502398505585,,0,0,22.416114870286684,114.0427073321485,99.69713592529297,0.0,0.0,0.0,0.0,0.0,0.0,0.0,0.0,0.0,0
1676519502598242920,414,1676519502598038884,,0,0,22.41611480572831,114.04270738342476,99.6693115234375,0.0,0.0,0.0,0.0,0.0,0.0,0.0,0.0,0.0,0
1676519502798396675,415,1676519502798199980,,0,0,22.416114798421564,114.04270730480074,99.67805480957031,0.0,0.0,0.0,0.0,0.0,0.0,0.0,0.0,0.0,0
1676519502998957858,416,1676519502998707289,,0,0,22.416114842820928,114.04270739789246,99.68328857421875,0.0,0.0,0.0,0.0,0.0,0.0,0.0,0.0,0.0,0
1676519503198232233,417,1676519503197994315,,0,0,22.416114815603404,114.0427073075231,99.69264221191406,0.0,0.0,0.0,0.0,0.0,0.0,0.0,0.0,0.0,0
1676519503399040994,418,1676519503398804144,,0,0,22.416114822022415,114.04270721868589,99.66593933105469,0.0,0.0,0.0,0.0,0.0,0.0,0.0,0.0,0.0,0
1676519503598921377,419,1676519503598707722,,0,0,22.416114843119566,114.04270723393368,99.66670227050781,0.0,0.0,0.0,0.0,0.0,0.0,0.0,0.0,0.0,0
1676519503798415673,420,1676519503798167497,,0,0,22.416114883756304,114.04270719523183,99.6664047241211,0.0,0.0,0.0,0.0,0.0,0.0,0.0,0.0,0.0,0
1676519503998422605,421,1676519503998266248,,0,0,22.416114871333317,114.04270718228007,99.66109466552734,0.0,0.0,0.0,0.0,0.0,0.0,0.0,0.0,0.0,0
1676519504198795557,422,1676519504198527333,,0,0,22.41611489471703,114.04270725659435,99.65345001220703,0.0,0.0,0.0,0.0,0.0,0.0,0.0,0.0,0.0,0
1676519504398557495,423,1676519504398293850,,0,0,22.416114922643413,114.04270725218133,99.6694564819336,0.0,0.0,0.0,0.0,0.0,0.0,0.0,0.0,0.0,0
1676519504598185026,424,1676519504597975763,,0,0,22.416114940229708,114.04270725025532,99.6623764038086,0.0,0.0,0.0,0.0,0.0,0.0,0.0,0.0,0.0,0
1676519504798850771,425,1676519504798666790,,0,0,22.416114922859677,114.04270724959805,99.65499877929688,0.0,0.0,0.0,0.0,0.0,0.0,0.0,0.0,0.0,0
1676519504999002459,426,1676519504998789926,,0,0,22.41611492228151,114.04270721834523,99.6449203491211,0.0,0.0,0.0,0.0,0.0,0.0,0.0,0.0,0.0,0
1676519505198249839,427,1676519505198077596,,0,0,22.41611491039609,114.04270722621936,99.65989685058594,0.0,0.0,0.0,0.0,0.0,0.0,0.0,0.0,0.0,0
1676519505399259722,428,1676519505399027572,,0,0,22.416114924184754,114.04270725468865,99.6495132446289,0.0,0.0,0.0,0.0,0.0,0.0,0.0,0.0,0.0,0
1676519505598091583,429,1676519505597886842,,0,0,22.416114966076883,114.04270723665422,99.6611557006836,0.0,0.0,0.0,0.0,0.0,0.0,0.0,0.0,0.0,0
1676519505798712047,430,1676519505798504379,,0,0,22.416114931534228,114.04270722371356,99.6506576538086,0.0,0.0,0.0,0.0,0.0,0.0,0.0,0.0,0.0,0
1676519505999162455,431,1676519505998955738,,0,0,22.416114919747294,114.0427072326659,99.64836883544922,0.0,0.0,0.0,0.0,0.0,0.0,0.0,0.0,0.0,0
1676519506199163565,432,1676519506198853991,,0,0,22.416114970904044,114.04270723171001,99.64881134033203,0.0,0.0,0.0,0.0,0.0,0.0,0.0,0.0,0.0,0
1676519506398397180,433,1676519506398184647,,0,0,22.416114928666037,114.04270724133453,99.64693450927734,0.0,0.0,0.0,0.0,0.0,0.0,0.0,0.0,0.0,0
1676519506598434545,434,1676519506598209925,,0,0,22.416115019311654,114.04270721687669,99.6947250366211,0.0,0.0,0.0,0.0,0.0,0.0,0.0,0.0,0.0,0
1676519506798870719,435,1676519506798660663,,0,0,22.416115022083105,114.04270721536255,99.69510650634766,0.0,0.0,0.0,0.0,0.0,0.0,0.0,0.0,0.0,0
1676519506998989594,436,1676519506998782485,,0,0,22.41611501983075,114.04270723392328,99.69599151611328,0.0,0.0,0.0,0.0,0.0,0.0,0.0,0.0,0.0,0
1676519507198407402,437,1676519507198240063,,0,0,22.41611501317332,114.04270720427853,99.69279479980469,0.0,0.0,0.0,0.0,0.0,0.0,0.0,0.0,0.0,0
1676519507398887087,438,1676519507398604194,,0,0,22.416115010188232,114.04270719697114,99.6913833618164,0.0,0.0,0.0,0.0,0.0,0.0,0.0,0.0,0.0,0
1676519507598727061,439,1676519507598555208,,0,0,22.41611501765841,114.0427072136524,99.69255065917969,0.0,0.0,0.0,0.0,0.0,0.0,0.0,0.0,0.0,0
1676519507798683260,440,1676519507798446115,,0,0,22.4161150152711,114.04270722435571,99.69322967529297,0.0,0.0,0.0,0.0,0.0,0.0,0.0,0.0,0.0,0
1676519507998997355,441,1676519507998812180,,0,0,22.41611502253997,114.0427072306374,99.69566345214844,0.0,0.0,0.0,0.0,0.0,0.0,0.0,0.0,0.0,0
1676519508198814333,442,1676519508198591532,,0,0,22.416115018886607,114.04270722443745,99.69720458984375,0.0,0.0,0.0,0.0,0.0,0.0,0.0,0.0,0.0,0
1676519508398864981,443,1676519508398581970,,0,0,22.41611501474115,114.04270722206412,99.69084930419922,0.0,0.0,0.0,0.0,0.0,0.0,0.0,0.0,0.0,0
1676519508598820008,444,1676519508598553756,,0,0,22.416115016318567,114.04270720953105,99.69221496582031,0.0,0.0,0.0,0.0,0.0,0.0,0.0,0.0,0.0,0
1676519508798541357,445,1676519508798379588,,0,0,22.41611501566203,114.04270721701867,99.69329071044922,0.0,0.0,0.0,0.0,0.0,0.0,0.0,0.0,0.0,0
1676519508998471186,446,1676519508998180489,,0,0,22.41611500584054,114.04270723060108,99.69236755371094,0.0,0.0,0.0,0.0,0.0,0.0,0.0,0.0,0.0,0
1676519509199081806,447,1676519509198741939,,0,0,22.41611502178505,114.04270723404966,99.69413757324219,0.0,0.0,0.0,0.0,0.0,0.0,0.0,0.0,0.0,0
1676519509398619617,448,1676519509398390533,,0,0,22.41611503491306,114.04270724282689,99.69103240966797,0.0,0.0,0.0,0.0,0.0,0.0,0.0,0.0,0.0,0
1676519509598621941,449,1676519509598363694,,0,0,22.416115028651443,114.04270723449453,99.6908187866211,0.0,0.0,0.0,0.0,0.0,0.0,0.0,0.0,0.0,0
1676519509798971708,450,1676519509798737343,,0,0,22.416115030281077,114.04270721693112,99.6903305053711,0.0,0.0,0.0,0.0,0.0,0.0,0.0,0.0,0.0,0
1676519509998107222,451,1676519509997910089,,0,0,22.41611502957235,114.04270722788733,99.69210815429688,0.0,0.0,0.0,0.0,0.0,0.0,0.0,0.0,0.0,0
1676519510198383389,452,1676519510198212255,,0,0,22.41611503031159,114.04270723270726,99.69213104248047,0.0,0.0,0.0,0.0,0.0,0.0,0.0,0.0,0.0,0
1676519510399081551,453,1676519510398853927,,0,0,22.416115059021564,114.04270723655975,99.69056701660156,0.0,0.0,0.0,0.0,0.0,0.0,0.0,0.0,0.0,0
1676519510598195360,454,1676519510598017041,,0,0,22.416115052670413,114.04270723159462,99.6907730102539,0.0,0.0,0.0,0.0,0.0,0.0,0.0,0.0,0.0,0
1676519510798429051,455,1676519510798278243,,0,0,22.41611506199979,114.0427072209696,99.68907928466797,0.0,0.0,0.0,0.0,0.0,0.0,0.0,0.0,0.0,0
1676519510998611151,456,1676519510998318401,,0,0,22.416115058398848,114.04270722369363,99.68817901611328,0.0,0.0,0.0,0.0,0.0,0.0,0.0,0.0,0.0,0
1676519511199031250,457,1676519511198810706,,0,0,22.416115044115983,114.04270724686398,99.68927001953125,0.0,0.0,0.0,0.0,0.0,0.0,0.0,0.0,0.0,0
1676519511399095012,458,1676519511398836048,,0,0,22.41611506271925,114.04270722635545,99.68807220458984,0.0,0.0,0.0,0.0,0.0,0.0,0.0,0.0,0.0,0
1676519511599034437,459,1676519511598810897,,0,0,22.416115056489783,114.04270723377115,99.68777465820312,0.0,0.0,0.0,0.0,0.0,0.0,0.0,0.0,0.0,0
1676519511798536319,460,1676519511798366306,,0,0,22.416115021908308,114.04270724148707,99.70573425292969,0.0,0.0,0.0,0.0,0.0,0.0,0.0,0.0,0.0,0
1676519511998178918,461,1676519511997942500,,0,0,22.416115006445775,114.0427072118891,99.7020263671875,0.0,0.0,0.0,0.0,0.0,0.0,0.0,0.0,0.0,0
1676519512198341449,462,1676519512198167749,,0,0,22.41611501005292,114.04270721253344,99.69705963134766,0.0,0.0,0.0,0.0,0.0,0.0,0.0,0.0,0.0,0
1676519512398718208,463,1676519512398500665,,0,0,22.41611500220467,114.04270720883642,99.69967651367188,0.0,0.0,0.0,0.0,0.0,0.0,0.0,0.0,0.0,0
1676519512598685691,464,1676519512598443278,,0,0,22.41611502842821,114.04270721832653,99.70170593261719,0.0,0.0,0.0,0.0,0.0,0.0,0.0,0.0,0.0,0
1676519512798225208,465,1676519512797997034,,0,0,22.416115027353573,114.04270722302147,99.7004165649414,0.0,0.0,0.0,0.0,0.0,0.0,0.0,0.0,0.0,0
1676519512998795564,466,1676519512998570562,,0,0,22.41611502659039,114.04270721523629,99.69559478759766,0.0,0.0,0.0,0.0,0.0,0.0,0.0,0.0,0.0,0
1676519513198552900,467,1676519513198326162,,0,0,22.416115005002265,114.04270722345763,99.69680786132812,0.0,0.0,0.0,0.0,0.0,0.0,0.0,0.0,0.0,0
1676519513398717715,468,1676519513398511012,,0,0,22.416115008412174,114.04270722305213,99.69768524169922,0.0,0.0,0.0,0.0,0.0,0.0,0.0,0.0,0.0,0
1676519513598659832,469,1676519513598472140,,0,0,22.41611500629259,114.04270721923541,99.69807434082031,0.0,0.0,0.0,0.0,0.0,0.0,0.0,0.0,0.0,0
1676519513798989810,470,1676519513798755666,,0,0,22.416115024963553,114.04270720916125,99.70413970947266,0.0,0.0,0.0,0.0,0.0,0.0,0.0,0.0,0.0,0
1676519513998920591,471,1676519513998629987,,0,0,22.41611503884378,114.0427072316287,99.70144653320312,0.0,0.0,0.0,0.0,0.0,0.0,0.0,0.0,0.0,0
1676519514198139732,472,1676519514197960867,,0,0,22.41611503454115,114.04270721465166,99.7015380859375,0.0,0.0,0.0,0.0,0.0,0.0,0.0,0.0,0.0,0
1676519514398060337,473,1676519514397834971,,0,0,22.41611504270417,114.0427072176399,99.69387817382812,0.0,0.0,0.0,0.0,0.0,0.0,0.0,0.0,0.0,0
1676519514598186850,474,1676519514597943743,,0,0,22.416115031003674,114.04270721422805,99.70016479492188,0.0,0.0,0.0,0.0,0.0,0.0,0.0,0.0,0.0,0
1676519514798264808,475,1676519514798090417,,0,0,22.416115019356877,114.04270721989924,99.6968765258789,0.0,0.0,0.0,0.0,0.0,0.0,0.0,0.0,0.0,0
1676519514999091950,476,1676519514998864886,,0,0,22.416115010784193,114.04270721593889,99.69771575927734,0.0,0.0,0.0,0.0,0.0,0.0,0.0,0.0,0.0,0
1676519515198185787,477,1676519515197991055,,0,0,22.41611504189359,114.04270722704996,99.69548034667969,0.0,0.0,0.0,0.0,0.0,0.0,0.0,0.0,0.0,0
1676519515398674831,478,1676519515398305058,,0,0,22.416115033105125,114.0427072072618,99.69747924804688,0.0,0.0,0.0,0.0,0.0,0.0,0.0,0.0,0.0,0
1676519515598448059,479,1676519515598209472,,0,0,22.41611501826158,114.04270722018698,99.69574737548828,0.0,0.0,0.0,0.0,0.0,0.0,0.0,0.0,0.0,0
1676519515798623548,480,1676519515798409014,,0,0,22.416115029928754,114.04270721397582,99.69221496582031,0.0,0.0,0.0,0.0,0.0,0.0,0.0,0.0,0.0,0
1676519515998793257,481,1676519515998487177,,0,0,22.416115033920164,114.04270722580652,99.69515228271484,0.0,0.0,0.0,0.0,0.0,0.0,0.0,0.0,0.0,0
1676519516198464833,482,1676519516198289900,,0,0,22.416115034489387,114.04270723916625,99.69478607177734,0.0,0.0,0.0,0.0,0.0,0.0,0.0,0.0,0.0,0
1676519516398260122,483,1676519516398047925,,0,0,22.416115040717976,114.04270722574135,99.69850158691406,0.0,0.0,0.0,0.0,0.0,0.0,0.0,0.0,0.0,0
1676519516598104353,484,1676519516597923032,,0,0,22.41611502444833,114.04270724781794,99.69651794433594,0.0,0.0,0.0,0.0,0.0,0.0,0.0,0.0,0.0,0
1676519516798364821,485,1676519516798173329,,0,0,22.416115060535542,114.04270722559177,99.68983459472656,0.0,0.0,0.0,0.0,0.0,0.0,0.0,0.0,0.0,0
1676519516998864577,486,1676519516998540024,,0,0,22.41611502763975,114.04270723095642,99.6919937133789,0.0,0.0,0.0,0.0,0.0,0.0,0.0,0.0,0.0,0
1676519517197990202,487,1676519517197776126,,0,0,22.416115029599638,114.04270724258829,99.69454956054688,0.0,0.0,0.0,0.0,0.0,0.0,0.0,0.0,0.0,0
1676519517399113250,488,1676519517398854853,,0,0,22.416115038857292,114.04270723762767,99.69255065917969,0.0,0.0,0.0,0.0,0.0,0.0,0.0,0.0,0.0,0
1676519517599044339,489,1676519517598746129,,0,0,22.41611504578841,114.04270723261494,99.68868255615234,0.0,0.0,0.0,0.0,0.0,0.0,0.0,0.0,0.0,0
1676519517798890713,490,1676519517798701547,,0,0,22.416115050216444,114.04270722273245,99.6870346069336,0.0,0.0,0.0,0.0,0.0,0.0,0.0,0.0,0.0,0
1676519517998162014,491,1676519517997863029,,0,0,22.416115036243543,114.0427072212546,99.6861343383789,0.0,0.0,0.0,0.0,0.0,0.0,0.0,0.0,0.0,0
1676519518198660323,492,1676519518198480517,,0,0,22.416115019573926,114.04270723368012,99.68973541259766,0.0,0.0,0.0,0.0,0.0,0.0,0.0,0.0,0.0,0
1676519518398167277,493,1676519518397960901,,0,0,22.416115063152503,114.0427072235495,99.68921661376953,0.0,0.0,0.0,0.0,0.0,0.0,0.0,0.0,0.0,0
1676519518599033202,494,1676519518598834346,,0,0,22.416115051662064,114.04270722213931,99.68053436279297,0.0,0.0,0.0,0.0,0.0,0.0,0.0,0.0,0.0,0
1676519518798395213,495,1676519518798190419,,0,0,22.416115061839104,114.04270720827874,99.6888427734375,0.0,0.0,0.0,0.0,0.0,0.0,0.0,0.0,0.0,0
1676519518998669039,496,1676519518998478236,,0,0,22.41611504737368,114.04270722578516,99.68597412109375,0.0,0.0,0.0,0.0,0.0,0.0,0.0,0.0,0.0,0
1676519519198663698,497,1676519519198444641,,0,0,22.41611504789577,114.04270723742741,99.6847915649414,0.0,0.0,0.0,0.0,0.0,0.0,0.0,0.0,0.0,0
1676519519398493752,498,1676519519398302836,,0,0,22.416115038333043,114.04270720820459,99.68341827392578,0.0,0.0,0.0,0.0,0.0,0.0,0.0,0.0,0.0,0
1676519519599043513,499,1676519519598814729,,0,0,22.416115027696932,114.04270719781286,99.6955337524414,0.0,0.0,0.0,0.0,0.0,0.0,0.0,0.0,0.0,0
1676519519798413720,500,1676519519798126393,,0,0,22.41611504114024,114.04270719201244,99.69775390625,0.0,0.0,0.0,0.0,0.0,0.0,0.0,0.0,0.0,0
1676519519998357357,501,1676519519998046118,,0,0,22.416114997052993,114.04270719222556,99.69339752197266,0.0,0.0,0.0,0.0,0.0,0.0,0.0,0.0,0.0,0
1676519520198647308,502,1676519520198336966,,0,0,22.416115010444333,114.04270718866599,99.69109344482422,0.0,0.0,0.0,0.0,0.0,0.0,0.0,0.0,0.0,0
1676519520398599505,503,1676519520398438895,,0,0,22.41611500734384,114.04270718389999,99.69047546386719,0.0,0.0,0.0,0.0,0.0,0.0,0.0,0.0,0.0,0
1676519520599043616,504,1676519520598762828,,0,0,22.41611503482284,114.04270720059804,99.6938247680664,0.0,0.0,0.0,0.0,0.0,0.0,0.0,0.0,0.0,0
1676519520798839663,505,1676519520798632359,,0,0,22.416115012581926,114.042707193343,99.69390869140625,0.0,0.0,0.0,0.0,0.0,0.0,0.0,0.0,0.0,0
1676519520998410096,506,1676519520998254948,,0,0,22.41611502473806,114.04270720074418,99.68743133544922,0.0,0.0,0.0,0.0,0.0,0.0,0.0,0.0,0.0,0
1676519521198849924,507,1676519521198544835,,0,0,22.416115011446404,114.04270719871063,99.68855285644531,0.0,0.0,0.0,0.0,0.0,0.0,0.0,0.0,0.0,0
1676519521398427200,508,1676519521398181280,,0,0,22.416115044983616,114.04270718785355,99.6880111694336,0.0,0.0,0.0,0.0,0.0,0.0,0.0,0.0,0.0,0
1676519521598144915,509,1676519521597941507,,0,0,22.41611500616827,114.04270718126048,99.68666076660156,0.0,0.0,0.0,0.0,0.0,0.0,0.0,0.0,0.0,0
1676519521798818132,510,1676519521798590924,,0,0,22.416115030645283,114.04270717322916,99.68708038330078,0.0,0.0,0.0,0.0,0.0,0.0,0.0,0.0,0.0,0
1676519521998501060,511,1676519521998281748,,0,0,22.41611501778483,114.0427071966598,99.68687438964844,0.0,0.0,0.0,0.0,0.0,0.0,0.0,0.0,0.0,0
1676519522199016736,512,1676519522198636961,,0,0,22.41611500229584,114.04270719323544,99.6874771118164,0.0,0.0,0.0,0.0,0.0,0.0,0.0,0.0,0.0,0
1676519522398199331,513,1676519522398003585,,0,0,22.41611503202743,114.0427071932085,99.68470764160156,0.0,0.0,0.0,0.0,0.0,0.0,0.0,0.0,0.0,0
1676519522598858464,514,1676519522598551260,,0,0,22.416115028791697,114.04270719265351,99.70072174072266,0.0,0.0,0.0,0.0,0.0,0.0,0.0,0.0,0.0,0
1676519522798896515,515,1676519522798693801,,0,0,22.416115046577207,114.0427071685095,99.69497680664062,0.0,0.0,0.0,0.0,0.0,0.0,0.0,0.0,0.0,0
1676519522998091533,516,1676519522997866526,,0,0,22.416115042020913,114.04270718618616,99.69363403320312,0.0,0.0,0.0,0.0,0.0,0.0,0.0,0.0,0.0,0
1676519523198506089,517,1676519523198199748,,0,0,22.41611504438657,114.0427071813129,99.70166778564453,0.0,0.0,0.0,0.0,0.0,0.0,0.0,0.0,0.0,0
1676519523399104209,518,1676519523398892746,,0,0,22.416115051141045,114.04270719803104,99.6966552734375,0.0,0.0,0.0,0.0,0.0,0.0,0.0,0.0,0.0,0
1676519523598534886,519,1676519523598241159,,0,0,22.416115053739368,114.04270721007047,99.697509765625,0.0,0.0,0.0,0.0,0.0,0.0,0.0,0.0,0.0,0
1676519523797999654,520,1676519523797783123,,0,0,22.416115048014376,114.04270720446353,99.69584655761719,0.0,0.0,0.0,0.0,0.0,0.0,0.0,0.0,0.0,0
1676519523998804743,521,1676519523998543554,,0,0,22.41611504652259,114.04270718734654,99.69480895996094,0.0,0.0,0.0,0.0,0.0,0.0,0.0,0.0,0.0,0
1676519524198032814,522,1676519524197873067,,0,0,22.41611503018811,114.04270719674022,99.69063568115234,0.0,0.0,0.0,0.0,0.0,0.0,0.0,0.0,0.0,0
1676519524399061178,523,1676519524398708463,,0,0,22.416115049170212,114.0427072084865,99.69792175292969,0.0,0.0,0.0,0.0,0.0,0.0,0.0,0.0,0.0,0
1676519524598741886,524,1676519524598441623,,0,0,22.41611501244724,114.0427071993604,99.69477081298828,0.0,0.0,0.0,0.0,0.0,0.0,0.0,0.0,0.0,0
1676519524799021224,525,1676519524798795797,,0,0,22.416115029768683,114.04270718931726,99.69631958007812,0.0,0.0,0.0,0.0,0.0,0.0,0.0,0.0,0.0,0
1676519524998417936,526,1676519524998184871,,0,0,22.41611502711523,114.04270718732847,99.6933822631836,0.0,0.0,0.0,0.0,0.0,0.0,0.0,0.0,0.0,0
1676519525198714872,527,1676519525198505395,,0,0,22.416115084360964,114.04270723736666,99.69184875488281,0.0,0.0,0.0,0.0,0.0,0.0,0.0,0.0,0.0,0
1676519525398800248,528,1676519525398603464,,0,0,22.41611500898343,114.04270719223602,99.69334411621094,0.0,0.0,0.0,0.0,0.0,0.0,0.0,0.0,0.0,0
1676519525598075341,529,1676519525597899895,,0,0,22.4161150603058,114.04270722102089,99.68780517578125,0.0,0.0,0.0,0.0,0.0,0.0,0.0,0.0,0.0,0
1676519525798312853,530,1676519525798066968,,0,0,22.416115080731004,114.04270722774584,99.69396209716797,0.0,0.0,0.0,0.0,0.0,0.0,0.0,0.0,0.0,0
1676519525997588399,531,1676519525997415169,,0,0,22.416115050130756,114.04270721696918,99.69237518310547,0.0,0.0,0.0,0.0,0.0,0.0,0.0,0.0,0.0,0
1676519526198280186,532,1676519526197982617,,0,0,22.416115040967878,114.04270721284237,99.6919937133789,0.0,0.0,0.0,0.0,0.0,0.0,0.0,0.0,0.0,0
1676519526397722085,533,1676519526397488810,,0,0,22.416115060777454,114.04270720795918,99.69259643554688,0.0,0.0,0.0,0.0,0.0,0.0,0.0,0.0,0.0,0
1676519526598406811,534,1676519526598245500,,0,0,22.416115041781122,114.04270720038687,99.70563507080078,0.0,0.0,0.0,0.0,0.0,0.0,0.0,0.0,0.0,0
1676519526798077407,535,1676519526797851486,,0,0,22.41611505072777,114.0427071996695,99.70272064208984,0.0,0.0,0.0,0.0,0.0,0.0,0.0,0.0,0.0,0
1676519526997226118,536,1676519526997006170,,0,0,22.416115035857842,114.04270719450757,99.70323944091797,0.0,0.0,0.0,0.0,0.0,0.0,0.0,0.0,0.0,0
1676519527197532546,537,1676519527197226688,,0,0,22.416115051838197,114.04270721237661,99.69866943359375,0.0,0.0,0.0,0.0,0.0,0.0,0.0,0.0,0.0,0
1676519527397655429,538,1676519527397508502,,0,0,22.416115011726223,114.04270719149616,99.69390106201172,0.0,0.0,0.0,0.0,0.0,0.0,0.0,0.0,0.0,0
1676519527597907658,539,1676519527597615373,,0,0,22.416115054710595,114.0427072046559,99.6997299194336,0.0,0.0,0.0,0.0,0.0,0.0,0.0,0.0,0.0,0
1676519527797625895,540,1676519527797340397,,0,0,22.416115033482907,114.04270718609087,99.70111846923828,0.0,0.0,0.0,0.0,0.0,0.0,0.0,0.0,0.0,0
1676519527997941136,541,1676519527997713130,,0,0,22.416115016819123,114.0427071971756,99.69839477539062,0.0,0.0,0.0,0.0,0.0,0.0,0.0,0.0,0.0,0
1676519528197128762,542,1676519528196996814,,0,0,22.416115041245853,114.04270720855203,99.70085906982422,0.0,0.0,0.0,0.0,0.0,0.0,0.0,0.0,0.0,0
1676519528398007466,543,1676519528397728421,,0,0,22.41611503104308,114.04270718696382,99.70150756835938,0.0,0.0,0.0,0.0,0.0,0.0,0.0,0.0,0.0,0
1676519528597339300,544,1676519528597089641,,0,0,22.41611495009979,114.04270722834045,99.71904754638672,0.0,0.0,0.0,0.0,0.0,0.0,0.0,0.0,0.0,0
1676519528798027724,545,1676519528797849133,,0,0,22.416114729900215,114.04270726249825,99.7886734008789,0.0,0.0,0.0,0.0,0.0,0.0,0.0,0.0,0.0,0
1676519528998170805,546,1676519528997911364,,0,0,22.416114401013107,114.04270736682766,99.93451690673828,0.0,0.0,0.0,0.0,0.0,0.0,0.0,0.0,0.0,0
1676519529197929994,547,1676519529197638727,,0,0,22.416114141152097,114.04270750347017,100.17887115478516,0.0,0.0,0.0,0.0,0.0,0.0,0.0,0.0,0.0,0
1676519529397512404,548,1676519529397350484,,0,0,22.416113981014636,114.0427076392333,100.54808807373047,0.0,0.0,0.0,0.0,0.0,0.0,0.0,0.0,0.0,0
1676519529597519372,549,1676519529597236143,,0,0,22.416113805274264,114.04270781440289,100.97987365722656,0.0,0.0,0.0,0.0,0.0,0.0,0.0,0.0,0.0,0
1676519529797025649,550,1676519529796835939,,0,0,22.416113651352216,114.04270805205961,101.43502807617188,0.0,0.0,0.0,0.0,0.0,0.0,0.0,0.0,0.0,0
1676519529997174809,551,1676519529996934492,,0,0,22.41611356927107,114.04270836794693,101.92771911621094,0.0,0.0,0.0,0.0,0.0,0.0,0.0,0.0,0.0,0
1676519530197141902,552,1676519530196949084,,0,0,22.41611354301926,114.04270863562553,102.44326782226562,0.0,0.0,0.0,0.0,0.0,0.0,0.0,0.0,0.0,0
1676519530397770353,553,1676519530397510235,,0,0,22.416113438983526,114.04270880134365,102.94129943847656,0.0,0.0,0.0,0.0,0.0,0.0,0.0,0.0,0.0,0
1676519530597888019,554,1676519530597681765,,0,0,22.41611328304139,114.04270900353134,103.43814849853516,0.0,0.0,0.0,0.0,0.0,0.0,0.0,0.0,0.0,0
1676519530797661743,555,1676519530797385104,,0,0,22.416113168617155,114.04270908818341,103.94046783447266,0.0,0.0,0.0,0.0,0.0,0.0,0.0,0.0,0.0,0
1676519530997408317,556,1676519530997213677,,0,0,22.41611304051117,114.04270900373271,104.46444702148438,0.0,0.0,0.0,0.0,0.0,0.0,0.0,0.0,0.0,0
1676519531197124402,557,1676519531196873478,,0,0,22.416112955281378,114.04270884958268,104.9916000366211,0.0,0.0,0.0,0.0,0.0,0.0,0.0,0.0,0.0,0
1676519531397563048,558,1676519531397237284,,0,0,22.41611282328929,114.0427086969673,105.51966094970703,0.0,0.0,0.0,0.0,0.0,0.0,0.0,0.0,0.0,0
1676519531597948762,559,1676519531597753663,,0,0,22.416112773095985,114.04270850017744,106.06136322021484,0.0,0.0,0.0,0.0,0.0,0.0,0.0,0.0,0.0,0
1676519531797393632,560,1676519531797144149,,0,0,22.41611270730833,114.0427083588364,106.60651397705078,0.0,0.0,0.0,0.0,0.0,0.0,0.0,0.0,0.0,0
1676519531997277033,561,1676519531997082592,,0,0,22.416112732922116,114.04270832620219,107.16437530517578,0.0,0.0,0.0,0.0,0.0,0.0,0.0,0.0,0.0,0
1676519532197944612,562,1676519532197756382,,0,0,22.416112701908947,114.04270828902196,107.72097778320312,0.0,0.0,0.0,0.0,0.0,0.0,0.0,0.0,0.0,0
1676519532397425478,563,1676519532397209695,,0,0,22.416112746652615,114.04270829920232,108.2835922241211,0.0,0.0,0.0,0.0,0.0,0.0,0.0,0.0,0.0,0
1676519532597434540,564,1676519532597152804,,0,0,22.416112800871275,114.04270826148715,108.86550903320312,0.0,0.0,0.0,0.0,0.0,0.0,0.0,0.0,0.0,0
1676519532797459827,565,1676519532797156596,,0,0,22.416112841202562,114.04270827061595,109.44305419921875,0.0,0.0,0.0,0.0,0.0,0.0,0.0,0.0,0.0,0
1676519532997106369,566,1676519532996856003,,0,0,22.416112863393632,114.04270822842223,109.96000671386719,0.0,0.0,0.0,0.0,0.0,0.0,0.0,0.0,0.0,0
1676519533197691770,567,1676519533197531516,,0,0,22.41611287724631,114.04270823167566,110.34626007080078,0.0,0.0,0.0,0.0,0.0,0.0,0.0,0.0,0.0,0
1676519533398044357,568,1676519533397793565,,0,0,22.41611285701992,114.04270823515371,110.61079406738281,0.0,0.0,0.0,0.0,0.0,0.0,0.0,0.0,0.0,0
1676519533597990502,569,1676519533597745648,,0,0,22.416112898799575,114.04270823499373,110.74300384521484,0.0,0.0,0.0,0.0,0.0,0.0,0.0,0.0,0.0,0
1676519533797339229,570,1676519533797130433,,0,0,22.416112945264615,114.04270818595391,110.77887725830078,0.0,0.0,0.0,0.0,0.0,0.0,0.0,0.0,0.0,0
1676519533997562114,571,1676519533997401930,,0,0,22.416112921101377,114.04270817174779,110.77582550048828,0.0,0.0,0.0,0.0,0.0,0.0,0.0,0.0,0.0,0
1676519534197141872,572,1676519534196913780,,0,0,22.41611294168747,114.04270815637713,110.75227355957031,0.0,0.0,0.0,0.0,0.0,0.0,0.0,0.0,0.0,0
1676519534397580304,573,1676519534397354731,,0,0,22.416112792672177,114.04270817328532,110.72777557373047,0.0,0.0,0.0,0.0,0.0,0.0,0.0,0.0,0.0,0
1676519534597082230,574,1676519534596878284,,0,0,22.41611273325122,114.0427081771053,110.71269989013672,0.0,0.0,0.0,0.0,0.0,0.0,0.0,0.0,0.0,0
1676519534797766798,575,1676519534797560512,,0,0,22.416112631339363,114.04270815156428,110.70587921142578,0.0,0.0,0.0,0.0,0.0,0.0,0.0,0.0,0.0,0
1676519534997447859,576,1676519534997277543,,0,0,22.416112549228632,114.04270810278821,110.69927978515625,0.0,0.0,0.0,0.0,0.0,0.0,0.0,0.0,0.0,0
1676519535197203006,577,1676519535197037145,,0,0,22.416112390058526,114.04270809801896,110.72578430175781,0.0,0.0,0.0,0.0,0.0,0.0,0.0,0.0,0.0,0
1676519535397638006,578,1676519535397389062,,0,0,22.416112006103205,114.04270813243126,110.75398254394531,0.0,0.0,0.0,0.0,0.0,0.0,0.0,0.0,0.0,0
1676519535598002113,579,1676519535597759216,,0,0,22.416111063159413,114.04270832547742,110.76646423339844,0.0,0.0,0.0,0.0,0.0,0.0,0.0,0.0,0.0,0
1676519535797346339,580,1676519535797181099,,0,0,22.416109522864545,114.04270866973593,110.76718139648438,0.0,0.0,0.0,0.0,0.0,0.0,0.0,0.0,0.0,0
1676519535997822249,581,1676519535997641355,,0,0,22.41610732604566,114.04270920714228,110.76963806152344,0.0,0.0,0.0,0.0,0.0,0.0,0.0,0.0,0.0,0
1676519536197278202,582,1676519536196827822,,0,0,22.416104557088737,114.04270991559443,110.78182983398438,0.0,0.0,0.0,0.0,0.0,0.0,0.0,0.0,0.0,0
1676519536397563312,583,1676519536397280638,,0,0,22.416101203726537,114.04271077388718,110.78956604003906,0.0,0.0,0.0,0.0,0.0,0.0,0.0,0.0,0.0,0
1676519536597569424,584,1676519536597274075,,0,0,22.4160972846297,114.042711755384,110.79173278808594,0.0,0.0,0.0,0.0,0.0,0.0,0.0,0.0,0.0,0
1676519536797881077,585,1676519536797686271,,0,0,22.416092885025982,114.04271288941378,110.79438781738281,0.0,0.0,0.0,0.0,0.0,0.0,0.0,0.0,0.0,0
1676519536997107829,586,1676519536996872219,,0,0,22.416088016009443,114.0427141313863,110.79938507080078,0.0,0.0,0.0,0.0,0.0,0.0,0.0,0.0,0.0,0
1676519537197124568,587,1676519537196958594,,0,0,22.41608273350441,114.0427154654581,110.79663848876953,0.0,0.0,0.0,0.0,0.0,0.0,0.0,0.0,0.0,0
1676519537397318036,588,1676519537397055972,,0,0,22.4160771367627,114.04271689048886,110.7929916381836,0.0,0.0,0.0,0.0,0.0,0.0,0.0,0.0,0.0,0
1676519537597317359,589,1676519537597111576,,0,0,22.416071343936366,114.04271838107724,110.77952575683594,0.0,0.0,0.0,0.0,0.0,0.0,0.0,0.0,0.0,0
1676519537798071952,590,1676519537797800461,,0,0,22.416065698239912,114.0427197247643,110.66175079345703,0.0,0.0,0.0,0.0,0.0,0.0,0.0,0.0,0.0,0
1676519537997715018,591,1676519537997497954,,0,0,22.41606127632645,114.04272085862515,110.6588363647461,0.0,0.0,0.0,0.0,0.0,0.0,0.0,0.0,0.0,0
1676519538197697949,592,1676519538197429674,,0,0,22.416058281865933,114.04272166709062,110.72575378417969,0.0,0.0,0.0,0.0,0.0,0.0,0.0,0.0,0.0,0
1676519538397865064,593,1676519538397480230,,0,0,22.41605601884194,114.04272220145528,110.72723388671875,0.0,0.0,0.0,0.0,0.0,0.0,0.0,0.0,0.0,0
1676519538597433363,594,1676519538597082577,,0,0,22.41605452273695,114.04272256971451,110.75440216064453,0.0,0.0,0.0,0.0,0.0,0.0,0.0,0.0,0.0,0
1676519538797574439,595,1676519538797324333,,0,0,22.416053922442682,114.042722656452,110.75335693359375,0.0,0.0,0.0,0.0,0.0,0.0,0.0,0.0,0.0,0
1676519538997259600,596,1676519538997026581,,0,0,22.416054097631662,114.04272261490284,110.75926208496094,0.0,0.0,0.0,0.0,0.0,0.0,0.0,0.0,0.0,0
1676519539197417202,597,1676519539197158881,,0,0,22.41605497772636,114.04272235650173,110.75627136230469,0.0,0.0,0.0,0.0,0.0,0.0,0.0,0.0,0.0,0
1676519539397966267,598,1676519539397674108,,0,0,22.4160566852583,114.04272193511505,110.75006103515625,0.0,0.0,0.0,0.0,0.0,0.0,0.0,0.0,0.0,0
1676519539597171030,599,1676519539596977436,,0,0,22.416059039301643,114.04272130293003,110.76105499267578,0.0,0.0,0.0,0.0,0.0,0.0,0.0,0.0,0.0,0
1676519539797242620,600,1676519539797056797,,0,0,22.416062073834034,114.04272046521378,110.7588882446289,0.0,0.0,0.0,0.0,0.0,0.0,0.0,0.0,0.0,0
1676519539997558295,601,1676519539997288821,,0,0,22.416065699451305,114.04271954370314,110.76129913330078,0.0,0.0,0.0,0.0,0.0,0.0,0.0,0.0,0.0,0
1676519540196864160,602,1676519540196669274,,0,0,22.416069796558318,114.04271850542078,110.76860046386719,0.0,0.0,0.0,0.0,0.0,0.0,0.0,0.0,0.0,0
1676519540397728717,603,1676519540397441806,,0,0,22.416074196018737,114.04271740057331,110.77630615234375,0.0,0.0,0.0,0.0,0.0,0.0,0.0,0.0,0.0,0
1676519540597374141,604,1676519540597162818,,0,0,22.41607880101636,114.0427162633977,110.80157470703125,0.0,0.0,0.0,0.0,0.0,0.0,0.0,0.0,0.0,0
1676519540797321065,605,1676519540797067566,,0,0,22.41608330793109,114.04271516329098,110.85131072998047,0.0,0.0,0.0,0.0,0.0,0.0,0.0,0.0,0.0,0
1676519540997125656,606,1676519540996828168,,0,0,22.416086831701147,114.04271431751215,110.9461898803711,0.0,0.0,0.0,0.0,0.0,0.0,0.0,0.0,0.0,0
1676519541197205559,607,1676519541196951906,,0,0,22.416089431582893,114.04271358559457,110.91397094726562,0.0,0.0,0.0,0.0,0.0,0.0,0.0,0.0,0.0,0
1676519541397055725,608,1676519541396820856,,0,0,22.416090922723498,114.04271302228827,110.83678436279297,0.0,0.0,0.0,0.0,0.0,0.0,0.0,0.0,0.0,0
1676519541597116202,609,1676519541596850091,,0,0,22.416091742525193,114.0427126850128,110.82989501953125,0.0,0.0,0.0,0.0,0.0,0.0,0.0,0.0,0.0,0
1676519541797203911,610,1676519541796994075,,0,0,22.41609246830725,114.04271280278996,110.85686492919922,0.0,0.0,0.0,0.0,0.0,0.0,0.0,0.0,0.0,0
1676519541997563409,611,1676519541997334863,,0,0,22.416093227250343,114.04271368640978,110.8725357055664,0.0,0.0,0.0,0.0,0.0,0.0,0.0,0.0,0.0,0
1676519542197740972,612,1676519542197529507,,0,0,22.416093992553037,114.04271541169221,110.86669921875,0.0,0.0,0.0,0.0,0.0,0.0,0.0,0.0,0.0,0
1676519542397175231,613,1676519542396904016,,0,0,22.416094855364737,114.04271794697681,110.86509704589844,0.0,0.0,0.0,0.0,0.0,0.0,0.0,0.0,0.0,0
1676519542598039895,614,1676519542597847995,,0,0,22.416095753750046,114.04272130108951,110.85308837890625,0.0,0.0,0.0,0.0,0.0,0.0,0.0,0.0,0.0,0
1676519542797370742,615,1676519542797126422,,0,0,22.416096713369384,114.04272535608935,110.84542846679688,0.0,0.0,0.0,0.0,0.0,0.0,0.0,0.0,0.0,0
1676519542997872235,616,1676519542997628108,,0,0,22.416097728582027,114.0427300763532,110.84030151367188,0.0,0.0,0.0,0.0,0.0,0.0,0.0,0.0,0.0,0
1676519543197090743,617,1676519543196855705,,0,0,22.416098821637537,114.04273530172922,110.83296966552734,0.0,0.0,0.0,0.0,0.0,0.0,0.0,0.0,0.0,0
1676519543397892431,618,1676519543397731338,,0,0,22.416100057582273,114.04274111333041,110.83827209472656,0.0,0.0,0.0,0.0,0.0,0.0,0.0,0.0,0.0,0
1676519543597248606,619,1676519543597042671,,0,0,22.4161014083449,114.04274745022306,110.83008575439453,0.0,0.0,0.0,0.0,0.0,0.0,0.0,0.0,0.0,0
1676519543797065692,620,1676519543796905779,,0,0,22.4161028116405,114.0427542298326,110.80679321289062,0.0,0.0,0.0,0.0,0.0,0.0,0.0,0.0,0.0,0
1676519543997010133,621,1676519543996841614,,0,0,22.41610428439038,114.04276129860821,110.77525329589844,0.0,0.0,0.0,0.0,0.0,0.0,0.0,0.0,0.0,0
1676519544197943905,622,1676519544197738440,,0,0,22.416105605362286,114.04276814382092,110.63976287841797,0.0,0.0,0.0,0.0,0.0,0.0,0.0,0.0,0.0,0
1676519544397125341,623,1676519544396923831,,0,0,22.416106569898364,114.04277321634753,110.6507797241211,0.0,0.0,0.0,0.0,0.0,0.0,0.0,0.0,0.0,0
1676519544597413297,624,1676519544597199728,,0,0,22.416107166063625,114.04277660347402,110.68938446044922,0.0,0.0,0.0,0.0,0.0,0.0,0.0,0.0,0.0,0
1676519544797007861,625,1676519544796772516,,0,0,22.416107483301722,114.04277917875474,110.71869659423828,0.0,0.0,0.0,0.0,0.0,0.0,0.0,0.0,0.0,0
1676519544997046952,626,1676519544996786871,,0,0,22.41610771978014,114.04278122629496,110.7040786743164,0.0,0.0,0.0,0.0,0.0,0.0,0.0,0.0,0.0,0
1676519545196952659,627,1676519545196683375,,0,0,22.416107873230796,114.04278251910343,110.69221496582031,0.0,0.0,0.0,0.0,0.0,0.0,0.0,0.0,0.0,0
1676519545397756089,628,1676519545397461315,,0,0,22.416107932057407,114.0427830384061,110.70343780517578,0.0,0.0,0.0,0.0,0.0,0.0,0.0,0.0,0.0,0
1676519545597435712,629,1676519545597193614,,0,0,22.416107871041262,114.04278284960243,110.704833984375,0.0,0.0,0.0,0.0,0.0,0.0,0.0,0.0,0.0,0
1676519545797244843,630,1676519545797081019,,0,0,22.41610765086388,114.04278195915462,110.6834487915039,0.0,0.0,0.0,0.0,0.0,0.0,0.0,0.0,0.0,0
1676519545997085099,631,1676519545996810758,,0,0,22.416107280683086,114.0427803536429,110.67648315429688,0.0,0.0,0.0,0.0,0.0,0.0,0.0,0.0,0.0,0
1676519546197328221,632,1676519546197053233,,0,0,22.41610683233219,114.04277797077809,110.68048858642578,0.0,0.0,0.0,0.0,0.0,0.0,0.0,0.0,0.0,0
1676519546397863477,633,1676519546397638086,,0,0,22.41610620469064,114.04277483608426,110.68946838378906,0.0,0.0,0.0,0.0,0.0,0.0,0.0,0.0,0.0,0
1676519546597267892,634,1676519546597039599,,0,0,22.416105404796827,114.04277109574168,110.68782043457031,0.0,0.0,0.0,0.0,0.0,0.0,0.0,0.0,0.0,0
1676519546797798214,635,1676519546797505420,,0,0,22.416104501309935,114.04276676960552,110.68537139892578,0.0,0.0,0.0,0.0,0.0,0.0,0.0,0.0,0.0,0
1676519546998024582,636,1676519546997697514,,0,0,22.416103485562886,114.04276195352354,110.69044494628906,0.0,0.0,0.0,0.0,0.0,0.0,0.0,0.0,0.0,0
1676519547197796876,637,1676519547197584668,,0,0,22.41610240142735,114.04275669005155,110.68997955322266,0.0,0.0,0.0,0.0,0.0,0.0,0.0,0.0,0.0,0
1676519547397241188,638,1676519547396946584,,0,0,22.41610124764759,114.04275101990665,110.68299102783203,0.0,0.0,0.0,0.0,0.0,0.0,0.0,0.0,0.0,0
1676519547596994755,639,1676519547596715688,,0,0,22.41610005576905,114.04274508694948,110.69841003417969,0.0,0.0,0.0,0.0,0.0,0.0,0.0,0.0,0.0,0
1676519547797888478,640,1676519547797686627,,0,0,22.416098834810086,114.04273898399086,110.69964599609375,0.0,0.0,0.0,0.0,0.0,0.0,0.0,0.0,0.0,0
1676519547997609990,641,1676519547997395508,,0,0,22.416097512652765,114.04273279093624,110.70681762695312,0.0,0.0,0.0,0.0,0.0,0.0,0.0,0.0,0.0,0
1676519548197739883,642,1676519548197559572,,0,0,22.416096167170377,114.0427265160873,110.70721435546875,0.0,0.0,0.0,0.0,0.0,0.0,0.0,0.0,0.0,0
1676519548397775131,643,1676519548397485243,,0,0,22.416094721726896,114.04272015985977,110.70482635498047,0.0,0.0,0.0,0.0,0.0,0.0,0.0,0.0,0.0,0
1676519548597659512,644,1676519548597392796,,0,0,22.416093301034145,114.04271365782164,110.69380950927734,0.0,0.0,0.0,0.0,0.0,0.0,0.0,0.0,0.0,0
1676519548797849128,645,1676519548797612780,,0,0,22.416091783961633,114.04270666979613,110.67715454101562,0.0,0.0,0.0,0.0,0.0,0.0,0.0,0.0,0.0,0
1676519548997505942,646,1676519548997208582,,0,0,22.4160901803682,114.04269913110983,110.67765045166016,0.0,0.0,0.0,0.0,0.0,0.0,0.0,0.0,0.0,0
1676519549197528608,647,1676519549197330456,,0,0,22.416088479353885,114.04269096773973,110.67991638183594,0.0,0.0,0.0,0.0,0.0,0.0,0.0,0.0,0.0,0
1676519549397505920,648,1676519549397249033,,0,0,22.41608663324962,114.04268242123392,110.69111633300781,0.0,0.0,0.0,0.0,0.0,0.0,0.0,0.0,0.0,0
1676519549597288922,649,1676519549597078630,,0,0,22.416084685549308,114.04267342344076,110.69550323486328,0.0,0.0,0.0,0.0,0.0,0.0,0.0,0.0,0.0,0
1676519549797017039,650,1676519549796759856,,0,0,22.416082731584854,114.0426641493754,110.69757080078125,0.0,0.0,0.0,0.0,0.0,0.0,0.0,0.0,0.0,0
1676519549997033494,651,1676519549996849067,,0,0,22.416080669410626,114.04265460864909,110.69756317138672,0.0,0.0,0.0,0.0,0.0,0.0,0.0,0.0,0.0,0
1676519550196883843,652,1676519550196701867,,0,0,22.416078512518343,114.04264482528679,110.69989013671875,0.0,0.0,0.0,0.0,0.0,0.0,0.0,0.0,0.0,0
1676519550397583525,653,1676519550397392265,,0,0,22.416076223653032,114.04263480586177,110.67138671875,0.0,0.0,0.0,0.0,0.0,0.0,0.0,0.0,0.0,0
1676519550597269190,654,1676519550597070301,,0,0,22.41607385437766,114.04262434526856,110.66187286376953,0.0,0.0,0.0,0.0,0.0,0.0,0.0,0.0,0.0,0
1676519550797285817,655,1676519550797023869,,0,0,22.41607146880747,114.04261346899236,110.67276763916016,0.0,0.0,0.0,0.0,0.0,0.0,0.0,0.0,0.0,0
1676519550997847325,656,1676519550997638055,,0,0,22.416068989095006,114.04260232791472,110.69230651855469,0.0,0.0,0.0,0.0,0.0,0.0,0.0,0.0,0.0,0
1676519551197137810,657,1676519551196875387,,0,0,22.416066601918427,114.04259108975027,110.75163269042969,0.0,0.0,0.0,0.0,0.0,0.0,0.0,0.0,0.0,0
1676519551397225856,658,1676519551397006768,,0,0,22.416064463328926,114.0425812966259,110.8913345336914,0.0,0.0,0.0,0.0,0.0,0.0,0.0,0.0,0.0,0
1676519551597208623,659,1676519551597044504,,0,0,22.416062430130218,114.04257310129,110.8681640625,0.0,0.0,0.0,0.0,0.0,0.0,0.0,0.0,0.0,0
1676519551797006360,660,1676519551796812338,,0,0,22.416060469899648,114.04256679136495,110.84859466552734,0.0,0.0,0.0,0.0,0.0,0.0,0.0,0.0,0.0,0
1676519551997971472,661,1676519551997749529,,0,0,22.416058837217484,114.0425622287665,110.79269409179688,0.0,0.0,0.0,0.0,0.0,0.0,0.0,0.0,0.0,0
1676519552196986322,662,1676519552196812861,,0,0,22.416057624757986,114.04255915115414,110.7540283203125,0.0,0.0,0.0,0.0,0.0,0.0,0.0,0.0,0.0,0
1676519552397011122,663,1676519552396719154,,0,0,22.41605692174253,114.04255715510548,110.77706146240234,0.0,0.0,0.0,0.0,0.0,0.0,0.0,0.0,0.0,0
1676519552597061594,664,1676519552596807275,,0,0,22.416056566173243,114.04255601839928,110.78377532958984,0.0,0.0,0.0,0.0,0.0,0.0,0.0,0.0,0.0,0
1676519552797184469,665,1676519552797018130,,0,0,22.416056463660777,114.04255583564222,110.78141021728516,0.0,0.0,0.0,0.0,0.0,0.0,0.0,0.0,0.0,0
1676519552997208402,666,1676519552996957042,,0,0,22.416056533135183,114.04255649634236,110.77739715576172,0.0,0.0,0.0,0.0,0.0,0.0,0.0,0.0,0.0,0
1676519553197729059,667,1676519553197489886,,0,0,22.416056858514253,114.04255802016208,110.77482604980469,0.0,0.0,0.0,0.0,0.0,0.0,0.0,0.0,0.0,0
1676519553397795850,668,1676519553397583974,,0,0,22.416057300470122,114.0425603021733,110.76250457763672,0.0,0.0,0.0,0.0,0.0,0.0,0.0,0.0,0.0,0
1676519553597350829,669,1676519553597066195,,0,0,22.4160579574854,114.04256331361724,110.76903533935547,0.0,0.0,0.0,0.0,0.0,0.0,0.0,0.0,0.0,0
1676519553797571872,670,1676519553797367159,,0,0,22.416058726183977,114.04256699132894,110.76564025878906,0.0,0.0,0.0,0.0,0.0,0.0,0.0,0.0,0.0,0
1676519553997792546,671,1676519553997537452,,0,0,22.41605957304909,114.04257127868675,110.75447845458984,0.0,0.0,0.0,0.0,0.0,0.0,0.0,0.0,0.0,0
1676519554197425201,672,1676519554197184525,,0,0,22.416060581504727,114.04257612135288,110.75582122802734,0.0,0.0,0.0,0.0,0.0,0.0,0.0,0.0,0.0,0
1676519554396635247,673,1676519554396396831,,0,0,22.416061638054533,114.04258138167562,110.75460052490234,0.0,0.0,0.0,0.0,0.0,0.0,0.0,0.0,0.0,0
1676519554597278218,674,1676519554597048521,,0,0,22.41606283802918,114.04258707487348,110.76641845703125,0.0,0.0,0.0,0.0,0.0,0.0,0.0,0.0,0.0,0
1676519554796827146,675,1676519554796680659,,0,0,22.41606413305889,114.0425930994254,110.76374816894531,0.0,0.0,0.0,0.0,0.0,0.0,0.0,0.0,0.0,0
1676519554997501645,676,1676519554997238487,,0,0,22.416065490979094,114.0425995178197,110.77356719970703,0.0,0.0,0.0,0.0,0.0,0.0,0.0,0.0,0.0,0
1676519555196203783,677,1676519555196009392,,0,0,22.416066985592153,114.04260624022007,110.78172302246094,0.0,0.0,0.0,0.0,0.0,0.0,0.0,0.0,0.0,0
1676519555396887346,678,1676519555396666070,,0,0,22.41606852223932,114.04261327970553,110.79041290283203,0.0,0.0,0.0,0.0,0.0,0.0,0.0,0.0,0.0,0
1676519555597573611,679,1676519555597373932,,0,0,22.416070165985648,114.0426206192461,110.80425262451172,0.0,0.0,0.0,0.0,0.0,0.0,0.0,0.0,0.0,0
1676519555796636961,680,1676519555796434012,,0,0,22.41607182166775,114.04262823362491,110.81671142578125,0.0,0.0,0.0,0.0,0.0,0.0,0.0,0.0,0.0,0
1676519555997335964,681,1676519555997167219,,0,0,22.416073504963446,114.04263609979057,110.82963562011719,0.0,0.0,0.0,0.0,0.0,0.0,0.0,0.0,0.0,0
1676519556197036464,682,1676519556196734859,,0,0,22.416075248726777,114.04264423741972,110.84610748291016,0.0,0.0,0.0,0.0,0.0,0.0,0.0,0.0,0.0,0
1676519556396929571,683,1676519556396714507,,0,0,22.416077046185677,114.04265256259323,110.85176849365234,0.0,0.0,0.0,0.0,0.0,0.0,0.0,0.0,0.0,0
1676519556596737186,684,1676519556596410683,,0,0,22.416078910111537,114.04266111394004,110.86027526855469,0.0,0.0,0.0,0.0,0.0,0.0,0.0,0.0,0.0,0
1676519556796871044,685,1676519556796671192,,0,0,22.41608084357808,114.0426698528533,110.86264038085938,0.0,0.0,0.0,0.0,0.0,0.0,0.0,0.0,0.0,0
1676519556996115113,686,1676519556995938291,,0,0,22.416082798139193,114.04267879902987,110.86384582519531,0.0,0.0,0.0,0.0,0.0,0.0,0.0,0.0,0.0,0
1676519557196475345,687,1676519557196304829,,0,0,22.416084740851666,114.04268797830431,110.87203216552734,0.0,0.0,0.0,0.0,0.0,0.0,0.0,0.0,0.0,0
1676519557396657193,688,1676519557396395801,,0,0,22.41608651925409,114.04269745335571,110.88787078857422,0.0,0.0,0.0,0.0,0.0,0.0,0.0,0.0,0.0,0
1676519557596593640,689,1676519557596387412,,0,0,22.416088073592483,114.04270710806446,110.8874282836914,0.0,0.0,0.0,0.0,0.0,0.0,0.0,0.0,0.0,0
1676519557796518454,690,1676519557796289764,,0,0,22.416089271737313,114.04271677247696,110.87320709228516,0.0,0.0,0.0,0.0,0.0,0.0,0.0,0.0,0.0,0
1676519557996686357,691,1676519557996366302,,0,0,22.41609026945797,114.0427264390708,110.8710708618164,0.0,0.0,0.0,0.0,0.0,0.0,0.0,0.0,0.0,0
1676519558196994473,692,1676519558196747310,,0,0,22.41609116296536,114.0427360118167,110.88639831542969,0.0,0.0,0.0,0.0,0.0,0.0,0.0,0.0,0.0,0
1676519558396581501,693,1676519558396364216,,0,0,22.416091915090316,114.0427453602841,110.87478637695312,0.0,0.0,0.0,0.0,0.0,0.0,0.0,0.0,0.0,0
1676519558596600824,694,1676519558596303689,,0,0,22.416092584741353,114.04275440523165,110.68812561035156,0.0,0.0,0.0,0.0,0.0,0.0,0.0,0.0,0.0,0
1676519558796755059,695,1676519558796561726,,0,0,22.41609308665744,114.04276087137939,110.68877410888672,0.0,0.0,0.0,0.0,0.0,0.0,0.0,0.0,0.0,0
1676519558996228615,696,1676519558996056238,,0,0,22.416093282371435,114.04276497690272,110.78303527832031,0.0,0.0,0.0,0.0,0.0,0.0,0.0,0.0,0.0,0
1676519559196698815,697,1676519559196492281,,0,0,22.4160931716285,114.04276821134353,110.7731704711914,0.0,0.0,0.0,0.0,0.0,0.0,0.0,0.0,0.0,0
1676519559396181715,698,1676519559395982953,,0,0,22.41609286432471,114.04277046826932,110.7684555053711,0.0,0.0,0.0,0.0,0.0,0.0,0.0,0.0,0.0,0
1676519559596702981,699,1676519559596493924,,0,0,22.416092676106754,114.04277198739335,110.79598999023438,0.0,0.0,0.0,0.0,0.0,0.0,0.0,0.0,0.0,0
1676519559796964925,700,1676519559796711219,,0,0,22.41609249502475,114.04277307509153,110.80718994140625,0.0,0.0,0.0,0.0,0.0,0.0,0.0,0.0,0.0,0
1676519559996364390,701,1676519559996160594,,0,0,22.416092299625273,114.04277383431847,110.81958770751953,0.0,0.0,0.0,0.0,0.0,0.0,0.0,0.0,0.0,0
1676519560196687759,702,1676519560196441180,,0,0,22.416092056276455,114.04277434078908,110.8316650390625,0.0,0.0,0.0,0.0,0.0,0.0,0.0,0.0,0.0,0
1676519560396815548,703,1676519560396597983,,0,0,22.41609185399426,114.04277468239651,110.8569564819336,0.0,0.0,0.0,0.0,0.0,0.0,0.0,0.0,0.0,0
1676519560596935373,704,1676519560596724157,,0,0,22.4160916958826,114.04277495850425,110.8643798828125,0.0,0.0,0.0,0.0,0.0,0.0,0.0,0.0,0.0,0
1676519560796333259,705,1676519560796122884,,0,0,22.41609154607992,114.0427752134428,110.8642807006836,0.0,0.0,0.0,0.0,0.0,0.0,0.0,0.0,0.0,0
1676519560996972672,706,1676519560996798000,,0,0,22.41609139126293,114.04277542372797,110.85951232910156,0.0,0.0,0.0,0.0,0.0,0.0,0.0,0.0,0.0,0
1676519561196329602,707,1676519561196065207,,0,0,22.416091319948432,114.04277560661795,110.8647689819336,0.0,0.0,0.0,0.0,0.0,0.0,0.0,0.0,0.0,0
1676519561396519393,708,1676519561396301592,,0,0,22.416091279655795,114.0427757345662,110.87106323242188,0.0,0.0,0.0,0.0,0.0,0.0,0.0,0.0,0.0,0
1676519561597079913,709,1676519561596777176,,0,0,22.416091269120475,114.04277586998025,110.87083435058594,0.0,0.0,0.0,0.0,0.0,0.0,0.0,0.0,0.0,0
1676519561796426370,710,1676519561796252573,,0,0,22.41609132083424,114.04277598093435,110.87320709228516,0.0,0.0,0.0,0.0,0.0,0.0,0.0,0.0,0.0,0
1676519561996034695,711,1676519561995782559,,0,0,22.416091362170008,114.04277611513123,110.87483978271484,0.0,0.0,0.0,0.0,0.0,0.0,0.0,0.0,0.0,0
1676519562196588293,712,1676519562196414455,,0,0,22.416091463134872,114.04277626553724,110.87763214111328,0.0,0.0,0.0,0.0,0.0,0.0,0.0,0.0,0.0,0
1676519562396585714,713,1676519562396329418,,0,0,22.416091555278047,114.04277639277407,110.87187957763672,0.0,0.0,0.0,0.0,0.0,0.0,0.0,0.0,0.0,0
1676519562596810230,714,1676519562596575263,,0,0,22.416091639553493,114.04277663771911,110.87481689453125,0.0,0.0,0.0,0.0,0.0,0.0,0.0,0.0,0.0,0
1676519562796079215,715,1676519562795837008,,0,0,22.41609171495178,114.04277684965284,110.86650085449219,0.0,0.0,0.0,0.0,0.0,0.0,0.0,0.0,0.0,0
1676519562996924318,716,1676519562996687421,,0,0,22.41609180115622,114.04277698432594,110.8656234741211,0.0,0.0,0.0,0.0,0.0,0.0,0.0,0.0,0.0,0
1676519563196787373,717,1676519563196540838,,0,0,22.4160918986641,114.04277711320864,110.86305236816406,0.0,0.0,0.0,0.0,0.0,0.0,0.0,0.0,0.0,0
1676519563396723154,718,1676519563396467196,,0,0,22.416091969485755,114.0427771673985,110.85635375976562,0.0,0.0,0.0,0.0,0.0,0.0,0.0,0.0,0.0,0
1676519563596613061,719,1676519563596419468,,0,0,22.416092050861028,114.04277722798226,110.8484115600586,0.0,0.0,0.0,0.0,0.0,0.0,0.0,0.0,0.0,0
1676519563797089363,720,1676519563796760941,,0,0,22.416092112011977,114.04277726725785,110.83971405029297,0.0,0.0,0.0,0.0,0.0,0.0,0.0,0.0,0.0,0
1676519563996419696,721,1676519563996175457,,0,0,22.4160921827863,114.0427773180049,110.83367156982422,0.0,0.0,0.0,0.0,0.0,0.0,0.0,0.0,0.0,0
1676519564196517297,722,1676519564196281131,,0,0,22.416092274290104,114.04277735211332,110.82740783691406,0.0,0.0,0.0,0.0,0.0,0.0,0.0,0.0,0.0,0
1676519564395987731,723,1676519564395812709,,0,0,22.41609240289131,114.04277737235608,110.8299560546875,0.0,0.0,0.0,0.0,0.0,0.0,0.0,0.0,0.0,0
1676519564596697323,724,1676519564596436257,,0,0,22.41609247746934,114.04277740346988,110.81835174560547,0.0,0.0,0.0,0.0,0.0,0.0,0.0,0.0,0.0,0
1676519564796923347,725,1676519564796582433,,0,0,22.416092520101603,114.04277743523967,110.81280517578125,0.0,0.0,0.0,0.0,0.0,0.0,0.0,0.0,0.0,0
1676519564995986922,726,1676519564995803170,,0,0,22.416092535688936,114.04277746628723,110.80414581298828,0.0,0.0,0.0,0.0,0.0,0.0,0.0,0.0,0.0,0
1676519565196888422,727,1676519565196704870,,0,0,22.416092567500325,114.04277753889914,110.80227661132812,0.0,0.0,0.0,0.0,0.0,0.0,0.0,0.0,0.0,0
1676519565397067409,728,1676519565396849695,,0,0,22.416092566432305,114.04277760538596,110.79248809814453,0.0,0.0,0.0,0.0,0.0,0.0,0.0,0.0,0.0,0
1676519565596840769,729,1676519565596644234,,0,0,22.41609256898539,114.04277765886047,110.79756927490234,0.0,0.0,0.0,0.0,0.0,0.0,0.0,0.0,0.0,0
1676519565796683726,730,1676519565796392468,,0,0,22.416092589659236,114.04277775347478,110.79598999023438,0.0,0.0,0.0,0.0,0.0,0.0,0.0,0.0,0.0,0
1676519565996712446,731,1676519565996483469,,0,0,22.416092611489468,114.04277786065292,110.79209899902344,0.0,0.0,0.0,0.0,0.0,0.0,0.0,0.0,0.0,0
1676519566195839585,732,1676519566195654958,,0,0,22.416092622652336,114.04277791357222,110.78145599365234,0.0,0.0,0.0,0.0,0.0,0.0,0.0,0.0,0.0,0
1676519566396277993,733,1676519566396071244,,0,0,22.41609266919188,114.04277796694242,110.78356170654297,0.0,0.0,0.0,0.0,0.0,0.0,0.0,0.0,0.0,0
1676519566596867628,734,1676519566596672381,,0,0,22.416092644947557,114.04277801886634,110.78707122802734,0.0,0.0,0.0,0.0,0.0,0.0,0.0,0.0,0.0,0
1676519566796184119,735,1676519566795922807,,0,0,22.416092608494747,114.04277805716443,110.7745590209961,0.0,0.0,0.0,0.0,0.0,0.0,0.0,0.0,0.0,0
1676519566996705914,736,1676519566996370624,,0,0,22.416092493117194,114.04277811046325,110.77481842041016,0.0,0.0,0.0,0.0,0.0,0.0,0.0,0.0,0.0,0
1676519567196819027,737,1676519567196513315,,0,0,22.41609309939701,114.04277872386713,110.78307342529297,0.0,0.0,0.0,0.0,0.0,0.0,0.0,0.0,0.0,0
1676519567395985269,738,1676519567395759053,,0,0,22.416093668902565,114.0427798067035,110.76296997070312,0.0,0.0,0.0,0.0,0.0,0.0,0.0,0.0,0.0,0
1676519567596770980,739,1676519567596535097,,0,0,22.41609387843489,114.0427811329139,110.76770782470703,0.0,0.0,0.0,0.0,0.0,0.0,0.0,0.0,0.0,0
1676519567796939214,740,1676519567796605330,,0,0,22.41609372255644,114.04278253741896,110.75145721435547,0.0,0.0,0.0,0.0,0.0,0.0,0.0,0.0,0.0,0
1676519567995938142,741,1676519567995742091,,0,0,22.416093185777214,114.04278390928226,110.7594985961914,0.0,0.0,0.0,0.0,0.0,0.0,0.0,0.0,0.0,0
1676519568196121829,742,1676519568195948914,,0,0,22.416092324996022,114.04278506301074,110.76417541503906,0.0,0.0,0.0,0.0,0.0,0.0,0.0,0.0,0.0,0
1676519568396540887,743,1676519568396291824,,0,0,22.416091799209976,114.0427856629981,110.77438354492188,0.0,0.0,0.0,0.0,0.0,0.0,0.0,0.0,0.0,0
1676519568596891480,744,1676519568596707599,,0,0,22.41609168656959,114.04278592935077,110.78802490234375,0.0,0.0,0.0,0.0,0.0,0.0,0.0,0.0,0.0,0
1676519568796312537,745,1676519568796106996,,0,0,22.416091698050163,114.04278603821032,110.8006820678711,0.0,0.0,0.0,0.0,0.0,0.0,0.0,0.0,0.0,0
1676519568996772333,746,1676519568996515002,,0,0,22.416091663269885,114.04278598407733,110.80743408203125,0.0,0.0,0.0,0.0,0.0,0.0,0.0,0.0,0.0,0
1676519569196677553,747,1676519569196306913,,0,0,22.416091666342222,114.04278573013696,110.8252944946289,0.0,0.0,0.0,0.0,0.0,0.0,0.0,0.0,0.0,0
1676519569396832182,748,1676519569396631968,,0,0,22.41609165891062,114.04278530695963,110.88611602783203,0.0,0.0,0.0,0.0,0.0,0.0,0.0,0.0,0.0,0
1676519569596190062,749,1676519569595953156,,0,0,22.41609171313923,114.04278476778843,111.00984191894531,0.0,0.0,0.0,0.0,0.0,0.0,0.0,0.0,0.0,0
1676519569796910907,750,1676519569796686365,,0,0,22.4160917626246,114.0427841227753,111.23161315917969,0.0,0.0,0.0,0.0,0.0,0.0,0.0,0.0,0.0,0
1676519569995921431,751,1676519569995762540,,0,0,22.41609186269406,114.04278338861289,111.55894470214844,0.0,0.0,0.0,0.0,0.0,0.0,0.0,0.0,0.0,0
1676519570196764063,752,1676519570196507908,,0,0,22.416091942330993,114.0427824982485,112.0068130493164,0.0,0.0,0.0,0.0,0.0,0.0,0.0,0.0,0.0,0
1676519570396404515,753,1676519570396147267,,0,0,22.416092026253402,114.04278147290532,112.56693267822266,0.0,0.0,0.0,0.0,0.0,0.0,0.0,0.0,0.0,0
1676519570596681018,754,1676519570596442625,,0,0,22.41609214873745,114.0427803358805,113.18807983398438,0.0,0.0,0.0,0.0,0.0,0.0,0.0,0.0,0.0,0
1676519570796048095,755,1676519570795903942,,0,0,22.416092317498013,114.04277914981087,113.853271484375,0.0,0.0,0.0,0.0,0.0,0.0,0.0,0.0,0.0,0
1676519570996647001,756,1676519570996418981,,0,0,22.416092525771163,114.04277798340816,114.52351379394531,0.0,0.0,0.0,0.0,0.0,0.0,0.0,0.0,0.0,0
1676519571196800258,757,1676519571196575888,,0,0,22.416092716485263,114.04277682434947,115.19773864746094,0.0,0.0,0.0,0.0,0.0,0.0,0.0,0.0,0.0,0
1676519571396822973,758,1676519571396613674,,0,0,22.416092921449597,114.04277567515899,115.86396026611328,0.0,0.0,0.0,0.0,0.0,0.0,0.0,0.0,0.0,0
1676519571596823628,759,1676519571596567976,,0,0,22.41609311371352,114.04277460988705,116.51537322998047,0.0,0.0,0.0,0.0,0.0,0.0,0.0,0.0,0.0,0
1676519571795836947,760,1676519571795640286,,0,0,22.41609333516225,114.042773603692,117.14462280273438,0.0,0.0,0.0,0.0,0.0,0.0,0.0,0.0,0.0,0
1676519571996100860,761,1676519571995861161,,0,0,22.416093557834426,114.04277260686271,117.77472686767578,0.0,0.0,0.0,0.0,0.0,0.0,0.0,0.0,0.0,0
1676519572196814907,762,1676519572196567279,,0,0,22.416093789751976,114.04277171365901,118.39142608642578,0.0,0.0,0.0,0.0,0.0,0.0,0.0,0.0,0.0,0
1676519572396589080,763,1676519572396332485,,0,0,22.416093990048623,114.04277086090035,119.0069808959961,0.0,0.0,0.0,0.0,0.0,0.0,0.0,0.0,0.0,0
1676519572596693316,764,1676519572596446331,,0,0,22.416094157038213,114.04276999158579,119.61947631835938,0.0,0.0,0.0,0.0,0.0,0.0,0.0,0.0,0.0,0
1676519572795849335,765,1676519572795669765,,0,0,22.41609432389211,114.04276914273176,120.22782897949219,0.0,0.0,0.0,0.0,0.0,0.0,0.0,0.0,0.0,0
1676519572996131162,766,1676519572995864758,,0,0,22.416094488453044,114.0427683589921,120.8316879272461,0.0,0.0,0.0,0.0,0.0,0.0,0.0,0.0,0.0,0
1676519573196304496,767,1676519573196118959,,0,0,22.41609464417622,114.04276758720127,121.44605255126953,0.0,0.0,0.0,0.0,0.0,0.0,0.0,0.0,0.0,0
1676519573396639837,768,1676519573396425496,,0,0,22.416094757082984,114.0427668988267,122.05012512207031,0.0,0.0,0.0,0.0,0.0,0.0,0.0,0.0,0.0,0
1676519573596286144,769,1676519573595988275,,0,0,22.416094862268814,114.04276619093567,122.66336822509766,0.0,0.0,0.0,0.0,0.0,0.0,0.0,0.0,0.0,0
1676519573796046368,770,1676519573795873263,,0,0,22.41609494876741,114.04276553672035,123.27487182617188,0.0,0.0,0.0,0.0,0.0,0.0,0.0,0.0,0.0,0
1676519573997005481,771,1676519573996763771,,0,0,22.41609501267558,114.04276486415803,123.8877182006836,0.0,0.0,0.0,0.0,0.0,0.0,0.0,0.0,0.0,0
1676519574196811916,772,1676519574196605710,,0,0,22.41609507662414,114.04276418019978,124.49095153808594,0.0,0.0,0.0,0.0,0.0,0.0,0.0,0.0,0.0,0
1676519574396551845,773,1676519574396339621,,0,0,22.41609515929796,114.04276355031121,125.1010513305664,0.0,0.0,0.0,0.0,0.0,0.0,0.0,0.0,0.0,0
1676519574596927578,774,1676519574596550616,,0,0,22.416095207870068,114.04276289745562,125.69596862792969,0.0,0.0,0.0,0.0,0.0,0.0,0.0,0.0,0.0,0
1676519574796631463,775,1676519574796361469,,0,0,22.41609530048847,114.04276226329367,126.29714965820312,0.0,0.0,0.0,0.0,0.0,0.0,0.0,0.0,0.0,0
1676519574996071881,776,1676519574995846253,,0,0,22.416095363560267,114.04276156665594,126.8948974609375,0.0,0.0,0.0,0.0,0.0,0.0,0.0,0.0,0.0,0
1676519575196780585,777,1676519575196441312,,0,0,22.4160954197753,114.04276086996956,127.50091552734375,0.0,0.0,0.0,0.0,0.0,0.0,0.0,0.0,0.0,0
1676519575395877226,778,1676519575395660767,,0,0,22.41609550518882,114.04276018199103,128.09934997558594,0.0,0.0,0.0,0.0,0.0,0.0,0.0,0.0,0.0,0
1676519575596612771,779,1676519575596331491,,0,0,22.416095567750617,114.04275948616812,128.7135467529297,0.0,0.0,0.0,0.0,0.0,0.0,0.0,0.0,0.0,0
1676519575796295841,780,1676519575796125765,,0,0,22.41609562637157,114.04275872387655,129.31460571289062,0.0,0.0,0.0,0.0,0.0,0.0,0.0,0.0,0.0,0
1676519575996708852,781,1676519575996504748,,0,0,22.4160957252801,114.04275803090398,129.92221069335938,0.0,0.0,0.0,0.0,0.0,0.0,0.0,0.0,0.0,0
1676519576196682580,782,1676519576196509723,,0,0,22.416095811623116,114.04275729777972,130.52999877929688,0.0,0.0,0.0,0.0,0.0,0.0,0.0,0.0,0.0,0
1676519576395784615,783,1676519576395549334,,0,0,22.416095850133697,114.04275659663725,131.1331024169922,0.0,0.0,0.0,0.0,0.0,0.0,0.0,0.0,0.0,0
1676519576595991801,784,1676519576595794983,,0,0,22.416095980012912,114.04275588231084,131.72854614257812,0.0,0.0,0.0,0.0,0.0,0.0,0.0,0.0,0.0,0
1676519576796528094,785,1676519576796233849,,0,0,22.416096095945118,114.04275517526378,132.3433074951172,0.0,0.0,0.0,0.0,0.0,0.0,0.0,0.0,0.0,0
1676519576996575749,786,1676519576996264176,,0,0,22.416096150651317,114.04275446774416,132.94862365722656,0.0,0.0,0.0,0.0,0.0,0.0,0.0,0.0,0.0,0
1676519577196222798,787,1676519577195989409,,0,0,22.416096197141048,114.04275377068726,133.5513458251953,0.0,0.0,0.0,0.0,0.0,0.0,0.0,0.0,0.0,0
1676519577396466752,788,1676519577396224231,,0,0,22.41609626775562,114.04275305218933,134.15992736816406,0.0,0.0,0.0,0.0,0.0,0.0,0.0,0.0,0.0,0
1676519577596158451,789,1676519577595978495,,0,0,22.416096288776824,114.04275233357458,134.76287841796875,0.0,0.0,0.0,0.0,0.0,0.0,0.0,0.0,0.0,0
1676519577796154261,790,1676519577795930660,,0,0,22.416096323740764,114.04275162196637,135.36929321289062,0.0,0.0,0.0,0.0,0.0,0.0,0.0,0.0,0.0,0
1676519577995956974,791,1676519577995758831,,0,0,22.416096380569122,114.04275089208679,135.9716796875,0.0,0.0,0.0,0.0,0.0,0.0,0.0,0.0,0.0,0
