%time,field.header.seq,field.header.stamp,field.header.frame_id,field.status.status,field.status.service,field.latitude,field.longitude,field.altitude,field.position_covariance0,field.position_covariance1,field.position_covariance2,field.position_covariance3,field.position_covariance4,field.position_covariance5,field.position_covariance6,field.position_covariance7,field.position_covariance8,field.position_covariance_type
1676530496429518242,559,1676530496429178844,,0,0,22.41615499600229,114.0427044090086,99.67140197753906,0.0,0.0,0.0,0.0,0.0,0.0,0.0,0.0,0.0,0
1676530496629018126,560,1676530496628751258,,0,0,22.41615501587616,114.04270442110611,99.65667724609375,0.0,0.0,0.0,0.0,0.0,0.0,0.0,0.0,0.0,0
1676530496829262444,561,1676530496828987092,,0,0,22.416155025094465,114.04270445945976,99.664306640625,0.0,0.0,0.0,0.0,0.0,0.0,0.0,0.0,0.0,0
1676530497028515375,562,1676530497028259346,,0,0,22.41615502634592,114.0427044544093,99.66751861572266,0.0,0.0,0.0,0.0,0.0,0.0,0.0,0.0,0.0,0
1676530497229035078,563,1676530497228744015,,0,0,22.416155007726545,114.04270444184353,99.65747833251953,0.0,0.0,0.0,0.0,0.0,0.0,0.0,0.0,0.0,0
1676530497428811054,564,1676530497428606698,,0,0,22.416155088004043,114.04270445269371,99.6608657836914,0.0,0.0,0.0,0.0,0.0,0.0,0.0,0.0,0.0,0
1676530497628755578,565,1676530497628558288,,0,0,22.416155076335006,114.04270449732077,99.66748046875,0.0,0.0,0.0,0.0,0.0,0.0,0.0,0.0,0.0,0
1676530497829191250,566,1676530497828906748,,0,0,22.41615499542813,114.04270450826542,99.65230560302734,0.0,0.0,0.0,0.0,0.0,0.0,0.0,0.0,0.0,0
1676530498028915588,567,1676530498028258751,,0,0,22.41615497229697,114.04270446258249,99.65665435791016,0.0,0.0,0.0,0.0,0.0,0.0,0.0,0.0,0.0,0
1676530498228459043,568,1676530498228220568,,0,0,22.4161549177554,114.04270442514505,99.67789459228516,0.0,0.0,0.0,0.0,0.0,0.0,0.0,0.0,0.0,0
1676530498428310277,569,1676530498428035759,,0,0,22.416154940333733,114.04270441397,99.66575622558594,0.0,0.0,0.0,0.0,0.0,0.0,0.0,0.0,0.0,0
1676530498629006522,570,1676530498628804512,,0,0,22.416154939360904,114.04270436843221,99.68274688720703,0.0,0.0,0.0,0.0,0.0,0.0,0.0,0.0,0.0,0
1676530498828794738,571,1676530498828573947,,0,0,22.41615497662396,114.04270443878742,99.66509246826172,0.0,0.0,0.0,0.0,0.0,0.0,0.0,0.0,0.0,0
1676530499029357093,572,1676530499028710762,,0,0,22.416154937490024,114.04270444713327,99.66856384277344,0.0,0.0,0.0,0.0,0.0,0.0,0.0,0.0,0.0,0
1676530499229049903,573,1676530499228850034,,0,0,22.41615495848845,114.0427044957147,99.66151428222656,0.0,0.0,0.0,0.0,0.0,0.0,0.0,0.0,0.0,0
1676530499428993175,574,1676530499428732543,,0,0,22.41615493920571,114.04270450358834,99.65853881835938,0.0,0.0,0.0,0.0,0.0,0.0,0.0,0.0,0.0,0
1676530499629317269,575,1676530499629054995,,0,0,22.416154951409325,114.04270450616406,99.6632080078125,0.0,0.0,0.0,0.0,0.0,0.0,0.0,0.0,0.0,0
1676530499828829790,576,1676530499828549910,,0,0,22.41615496304188,114.04270446576344,99.66741943359375,0.0,0.0,0.0,0.0,0.0,0.0,0.0,0.0,0.0,0
1676530500029321246,577,1676530500029049227,,0,0,22.41615494135052,114.04270446378663,99.66799926757812,0.0,0.0,0.0,0.0,0.0,0.0,0.0,0.0,0.0,0
1676530500228912189,578,1676530500228692474,,0,0,22.416154949060516,114.04270452731969,99.65300750732422,0.0,0.0,0.0,0.0,0.0,0.0,0.0,0.0,0.0,0
1676530500429685387,579,1676530500428902735,,0,0,22.41615497506291,114.04270451130837,99.64558410644531,0.0,0.0,0.0,0.0,0.0,0.0,0.0,0.0,0.0,0
1676530500628530318,580,1676530500628346346,,0,0,22.416154978563416,114.04270454650543,99.64425659179688,0.0,0.0,0.0,0.0,0.0,0.0,0.0,0.0,0.0,0
1676530500828989975,581,1676530500828701727,,0,0,22.41615496079696,114.04270450174339,99.65010070800781,0.0,0.0,0.0,0.0,0.0,0.0,0.0,0.0,0.0,0
1676530501029055910,582,1676530501028474126,,0,0,22.416154991803978,114.04270455691366,99.64388275146484,0.0,0.0,0.0,0.0,0.0,0.0,0.0,0.0,0.0,0
1676530501228919730,583,1676530501228730351,,0,0,22.41615492947525,114.04270446277413,99.6506576538086,0.0,0.0,0.0,0.0,0.0,0.0,0.0,0.0,0.0,0
1676530501429161043,584,1676530501428957329,,0,0,22.416154963815288,114.04270452401994,99.65424346923828,0.0,0.0,0.0,0.0,0.0,0.0,0.0,0.0,0.0,0
1676530501629182741,585,1676530501628920543,,0,0,22.41615499988653,114.04270452631098,99.64409637451172,0.0,0.0,0.0,0.0,0.0,0.0,0.0,0.0,0.0,0
1676530501828769020,586,1676530501828531058,,0,0,22.41615502100608,114.04270452841574,99.64344787597656,0.0,0.0,0.0,0.0,0.0,0.0,0.0,0.0,0.0,0
1676530502029181821,587,1676530502028962601,,0,0,22.416155071915455,114.04270456755339,99.63936614990234,0.0,0.0,0.0,0.0,0.0,0.0,0.0,0.0,0.0,0
1676530502228542281,588,1676530502228293318,,0,0,22.41615504834286,114.04270466390169,99.62342071533203,0.0,0.0,0.0,0.0,0.0,0.0,0.0,0.0,0.0,0
1676530502429374990,589,1676530502429121960,,0,0,22.41615502166583,114.04270464056039,99.62214660644531,0.0,0.0,0.0,0.0,0.0,0.0,0.0,0.0,0.0,0
1676530502629127565,590,1676530502628893834,,0,0,22.416154940036467,114.04270459425528,99.64495849609375,0.0,0.0,0.0,0.0,0.0,0.0,0.0,0.0,0.0,0
1676530502828410542,591,1676530502828182646,,0,0,22.416154969019125,114.04270461958353,99.6367416381836,0.0,0.0,0.0,0.0,0.0,0.0,0.0,0.0,0.0,0
1676530503028933805,592,1676530503028697162,,0,0,22.41615492446668,114.04270446925541,99.61821746826172,0.0,0.0,0.0,0.0,0.0,0.0,0.0,0.0,0.0,0
1676530503229387854,593,1676530503229113482,,0,0,22.416154967020255,114.04270453386177,99.60962677001953,0.0,0.0,0.0,0.0,0.0,0.0,0.0,0.0,0.0,0
1676530503428721743,594,1676530503428432568,,0,0,22.416154957421778,114.04270449483292,99.60611724853516,0.0,0.0,0.0,0.0,0.0,0.0,0.0,0.0,0.0,0
1676530503628897577,595,1676530503628666877,,0,0,22.41615499791191,114.04270441117535,99.60343933105469,0.0,0.0,0.0,0.0,0.0,0.0,0.0,0.0,0.0,0
1676530503829152634,596,1676530503828752348,,0,0,22.416154967697196,114.04270446755181,99.6018295288086,0.0,0.0,0.0,0.0,0.0,0.0,0.0,0.0,0.0,0
1676530504029002345,597,1676530504028421524,,0,0,22.41615498144497,114.04270448317315,99.59625244140625,0.0,0.0,0.0,0.0,0.0,0.0,0.0,0.0,0.0,0
1676530504228260940,598,1676530504228088417,,0,0,22.416154976567945,114.04270440252017,99.59765625,0.0,0.0,0.0,0.0,0.0,0.0,0.0,0.0,0.0,0
1676530504429320174,599,1676530504429104807,,0,0,22.41615497377163,114.04270447052065,99.59059143066406,0.0,0.0,0.0,0.0,0.0,0.0,0.0,0.0,0.0,0
1676530504628874524,600,1676530504628643712,,0,0,22.416154999678387,114.04270451647675,99.60274505615234,0.0,0.0,0.0,0.0,0.0,0.0,0.0,0.0,0.0,0
1676530504829211743,601,1676530504828969058,,0,0,22.416154985118336,114.0427045708065,99.59196472167969,0.0,0.0,0.0,0.0,0.0,0.0,0.0,0.0,0.0,0
1676530505029107394,602,1676530505028551780,,0,0,22.416154956560973,114.04270462556836,99.59750366210938,0.0,0.0,0.0,0.0,0.0,0.0,0.0,0.0,0.0,0
1676530505229095908,603,1676530505228881887,,0,0,22.41615493534078,114.04270468806034,99.58759307861328,0.0,0.0,0.0,0.0,0.0,0.0,0.0,0.0,0.0,0
1676530505429204298,604,1676530505428984972,,0,0,22.416154936689,114.04270465897136,99.59268951416016,0.0,0.0,0.0,0.0,0.0,0.0,0.0,0.0,0.0,0
1676530505629275527,605,1676530505629046671,,0,0,22.416154923375466,114.04270469902781,99.58748626708984,0.0,0.0,0.0,0.0,0.0,0.0,0.0,0.0,0.0,0
1676530505829092608,606,1676530505828793733,,0,0,22.416154944600397,114.04270465494821,99.57903289794922,0.0,0.0,0.0,0.0,0.0,0.0,0.0,0.0,0.0,0
1676530506028570750,607,1676530506028343825,,0,0,22.416154943187383,114.04270466681682,99.58348083496094,0.0,0.0,0.0,0.0,0.0,0.0,0.0,0.0,0.0,0
1676530506229055636,608,1676530506228839027,,0,0,22.416154951737575,114.04270471504921,99.57452392578125,0.0,0.0,0.0,0.0,0.0,0.0,0.0,0.0,0.0,0
1676530506428578588,609,1676530506428390974,,0,0,22.416154937628928,114.04270470402454,99.57821655273438,0.0,0.0,0.0,0.0,0.0,0.0,0.0,0.0,0.0,0
1676530506628538054,610,1676530506628277663,,0,0,22.416154953859923,114.04270463997,99.58021545410156,0.0,0.0,0.0,0.0,0.0,0.0,0.0,0.0,0.0,0
1676530506829186905,611,1676530506828881057,,0,0,22.416154858505976,114.0427045645741,99.65243530273438,0.0,0.0,0.0,0.0,0.0,0.0,0.0,0.0,0.0,0
1676530507029088287,612,1676530507028820197,,0,0,22.41615487101129,114.04270455776947,99.64701843261719,0.0,0.0,0.0,0.0,0.0,0.0,0.0,0.0,0.0,0
1676530507228664290,613,1676530507228448403,,0,0,22.41615487371999,114.04270456247117,99.65254211425781,0.0,0.0,0.0,0.0,0.0,0.0,0.0,0.0,0.0,0
1676530507428457847,614,1676530507428264301,,0,0,22.4161548730141,114.04270453226316,99.6594467163086,0.0,0.0,0.0,0.0,0.0,0.0,0.0,0.0,0.0,0
1676530507628542359,615,1676530507628335186,,0,0,22.416154855573783,114.04270454649037,99.65158081054688,0.0,0.0,0.0,0.0,0.0,0.0,0.0,0.0,0.0,0
1676530507828354698,616,1676530507828114328,,0,0,22.416154879223157,114.04270456313375,99.6445541381836,0.0,0.0,0.0,0.0,0.0,0.0,0.0,0.0,0.0,0
1676530508028833778,617,1676530508028597657,,0,0,22.416154876475797,114.04270451390957,99.6519546508789,0.0,0.0,0.0,0.0,0.0,0.0,0.0,0.0,0.0,0
1676530508228499642,618,1676530508228243079,,0,0,22.416154862855574,114.0427045000258,99.64376068115234,0.0,0.0,0.0,0.0,0.0,0.0,0.0,0.0,0.0,0
1676530508428687312,619,1676530508428491564,,0,0,22.41615484832695,114.04270454569374,99.6467056274414,0.0,0.0,0.0,0.0,0.0,0.0,0.0,0.0,0.0,0
1676530508628512709,620,1676530508628288168,,0,0,22.41615484238833,114.04270455298722,99.64482116699219,0.0,0.0,0.0,0.0,0.0,0.0,0.0,0.0,0.0,0
1676530508828986108,621,1676530508828734185,,0,0,22.41615485541939,114.04270449105351,99.64993286132812,0.0,0.0,0.0,0.0,0.0,0.0,0.0,0.0,0.0,0
1676530509028509290,622,1676530509028185626,,0,0,22.4161548601346,114.04270451704787,99.6440658569336,0.0,0.0,0.0,0.0,0.0,0.0,0.0,0.0,0.0,0
1676530509229109911,623,1676530509228887561,,0,0,22.416154863151128,114.04270450054605,99.64916229248047,0.0,0.0,0.0,0.0,0.0,0.0,0.0,0.0,0.0,0
1676530509428991869,624,1676530509428763635,,0,0,22.416154849575165,114.04270449945243,99.6591567993164,0.0,0.0,0.0,0.0,0.0,0.0,0.0,0.0,0.0,0
1676530509628677448,625,1676530509628482022,,0,0,22.41615482816993,114.04270448374702,99.6595230102539,0.0,0.0,0.0,0.0,0.0,0.0,0.0,0.0,0.0,0
1676530509829323877,626,1676530509828977032,,0,0,22.416154836716885,114.04270448278626,99.6629638671875,0.0,0.0,0.0,0.0,0.0,0.0,0.0,0.0,0.0,0
1676530510029285056,627,1676530510029093522,,0,0,22.416154862445133,114.04270450191298,99.65142822265625,0.0,0.0,0.0,0.0,0.0,0.0,0.0,0.0,0.0,0
1676530510229187162,628,1676530510228961435,,0,0,22.416154824455642,114.04270444201954,99.65986633300781,0.0,0.0,0.0,0.0,0.0,0.0,0.0,0.0,0.0,0
1676530510428977794,629,1676530510428667821,,0,0,22.41615485767435,114.04270445569769,99.65766143798828,0.0,0.0,0.0,0.0,0.0,0.0,0.0,0.0,0.0,0
1676530510629145700,630,1676530510628846460,,0,0,22.416154820916766,114.04270449724919,99.64661407470703,0.0,0.0,0.0,0.0,0.0,0.0,0.0,0.0,0.0,0
1676530510829216947,631,1676530510828989085,,0,0,22.416154832138055,114.04270442344821,99.65423583984375,0.0,0.0,0.0,0.0,0.0,0.0,0.0,0.0,0.0,0
1676530511028869479,632,1676530511028634975,,0,0,22.41615486919549,114.04270445491461,99.65834045410156,0.0,0.0,0.0,0.0,0.0,0.0,0.0,0.0,0.0,0
1676530511228607534,633,1676530511228404083,,0,0,22.416154877242064,114.04270443001926,99.64447784423828,0.0,0.0,0.0,0.0,0.0,0.0,0.0,0.0,0.0,0
1676530511428617277,634,1676530511428403793,,0,0,22.41615488134818,114.04270447573832,99.6391830444336,0.0,0.0,0.0,0.0,0.0,0.0,0.0,0.0,0.0,0
1676530511628645669,635,1676530511628421891,,0,0,22.416154903628414,114.04270444106612,99.63716888427734,0.0,0.0,0.0,0.0,0.0,0.0,0.0,0.0,0.0,0
1676530511829275514,636,1676530511828925341,,0,0,22.416154876033676,114.04270444489771,99.63336944580078,0.0,0.0,0.0,0.0,0.0,0.0,0.0,0.0,0.0,0
1676530512028818200,637,1676530512028558199,,0,0,22.416154890580476,114.04270441379597,99.65938568115234,0.0,0.0,0.0,0.0,0.0,0.0,0.0,0.0,0.0,0
1676530512229031336,638,1676530512228777324,,0,0,22.416154906750123,114.04270443382475,99.6563491821289,0.0,0.0,0.0,0.0,0.0,0.0,0.0,0.0,0.0,0
1676530512428448888,639,1676530512428259552,,0,0,22.41615488122553,114.04270444358008,99.65000915527344,0.0,0.0,0.0,0.0,0.0,0.0,0.0,0.0,0.0,0
1676530512629000336,640,1676530512628725268,,0,0,22.416154890858213,114.0427044245194,99.65233612060547,0.0,0.0,0.0,0.0,0.0,0.0,0.0,0.0,0.0,0
1676530512829174545,641,1676530512828835906,,0,0,22.416154909715633,114.04270440490387,99.67935943603516,0.0,0.0,0.0,0.0,0.0,0.0,0.0,0.0,0.0,0
1676530513027877915,642,1676530513027328067,,0,0,22.416154909281826,114.04270433334122,99.68738555908203,0.0,0.0,0.0,0.0,0.0,0.0,0.0,0.0,0.0,0
1676530513229261920,643,1676530513229013738,,0,0,22.416154941150268,114.04270437053627,99.67850494384766,0.0,0.0,0.0,0.0,0.0,0.0,0.0,0.0,0.0,0
1676530513429214716,644,1676530513428986161,,0,0,22.41615492534141,114.04270439498848,99.69075012207031,0.0,0.0,0.0,0.0,0.0,0.0,0.0,0.0,0.0,0
1676530513628789632,645,1676530513628553591,,0,0,22.416154877193755,114.0427044147391,99.69515991210938,0.0,0.0,0.0,0.0,0.0,0.0,0.0,0.0,0.0,0
1676530513828126092,646,1676530513827520282,,0,0,22.416154902499837,114.0427044569837,99.68754577636719,0.0,0.0,0.0,0.0,0.0,0.0,0.0,0.0,0.0,0
1676530514028068314,647,1676530514027378300,,0,0,22.416154909863877,114.04270445860588,99.69153594970703,0.0,0.0,0.0,0.0,0.0,0.0,0.0,0.0,0.0,0
1676530514227929473,648,1676530514227729372,,0,0,22.416154975525632,114.04270443399228,99.67029571533203,0.0,0.0,0.0,0.0,0.0,0.0,0.0,0.0,0.0,0
1676530514427857281,649,1676530514427552421,,0,0,22.416154961829044,114.04270445332958,99.68037414550781,0.0,0.0,0.0,0.0,0.0,0.0,0.0,0.0,0.0,0
1676530514628090391,650,1676530514627817672,,0,0,22.416154964562207,114.0427044728305,99.6800537109375,0.0,0.0,0.0,0.0,0.0,0.0,0.0,0.0,0.0,0
1676530514827701699,651,1676530514827471406,,0,0,22.416154944268836,114.04270436313936,99.68035888671875,0.0,0.0,0.0,0.0,0.0,0.0,0.0,0.0,0.0,0
1676530515028069126,652,1676530515027222642,,0,0,22.416154870395633,114.04270427571029,99.73300170898438,0.0,0.0,0.0,0.0,0.0,0.0,0.0,0.0,0.0,0
1676530515227444958,653,1676530515227234577,,0,0,22.416154567034734,114.04270414218392,99.85375213623047,0.0,0.0,0.0,0.0,0.0,0.0,0.0,0.0,0.0,0
1676530515427372863,654,1676530515427216827,,0,0,22.41615414443426,114.04270397173508,99.92849731445312,0.0,0.0,0.0,0.0,0.0,0.0,0.0,0.0,0.0,0
1676530515627917863,655,1676530515627607164,,0,0,22.41615341593299,114.04270428220417,100.0445556640625,0.0,0.0,0.0,0.0,0.0,0.0,0.0,0.0,0.0,0
1676530515828192861,656,1676530515827966655,,0,0,22.41615233509016,114.04270465587368,100.20561981201172,0.0,0.0,0.0,0.0,0.0,0.0,0.0,0.0,0.0,0
1676530516028303208,657,1676530516028045420,,0,0,22.41615098521793,114.04270556565424,100.29399871826172,0.0,0.0,0.0,0.0,0.0,0.0,0.0,0.0,0.0,0
1676530516228003438,658,1676530516227794047,,0,0,22.41614942993526,114.04270667089591,100.34672546386719,0.0,0.0,0.0,0.0,0.0,0.0,0.0,0.0,0.0,0
1676530516427512463,659,1676530516427308752,,0,0,22.416147535608456,114.04270736404153,100.3241195678711,0.0,0.0,0.0,0.0,0.0,0.0,0.0,0.0,0.0,0
1676530516628216571,660,1676530516628007823,,0,0,22.416145423682543,114.04270773351219,100.350830078125,0.0,0.0,0.0,0.0,0.0,0.0,0.0,0.0,0.0,0
1676530516828444786,661,1676530516828223073,,0,0,22.416143676499726,114.04270786375568,100.3056869506836,0.0,0.0,0.0,0.0,0.0,0.0,0.0,0.0,0.0,0
1676530517028171744,662,1676530517027945602,,0,0,22.416142087439063,114.04270781609988,100.2118148803711,0.0,0.0,0.0,0.0,0.0,0.0,0.0,0.0,0.0,0
1676530517227856071,663,1676530517227639826,,0,0,22.416140792324445,114.04270791008611,100.19701385498047,0.0,0.0,0.0,0.0,0.0,0.0,0.0,0.0,0.0,0
1676530517428387568,664,1676530517428124373,,0,0,22.416139307621545,114.04270783311215,100.26158905029297,0.0,0.0,0.0,0.0,0.0,0.0,0.0,0.0,0.0,0
1676530517628070561,665,1676530517627857703,,0,0,22.41613733868032,114.04270768659607,100.26486206054688,0.0,0.0,0.0,0.0,0.0,0.0,0.0,0.0,0.0,0
1676530517827984910,666,1676530517827715683,,0,0,22.416135364913895,114.04270783307656,100.26814270019531,0.0,0.0,0.0,0.0,0.0,0.0,0.0,0.0,0.0,0
1676530518028396533,667,1676530518028112792,,0,0,22.416133106719542,114.04270829687889,100.24532318115234,0.0,0.0,0.0,0.0,0.0,0.0,0.0,0.0,0.0,0
1676530518228225624,668,1676530518228073132,,0,0,22.416130696146848,114.04270872824738,100.25709533691406,0.0,0.0,0.0,0.0,0.0,0.0,0.0,0.0,0.0,0
1676530518428264943,669,1676530518428003820,,0,0,22.416128025114368,114.0427089661653,100.27031707763672,0.0,0.0,0.0,0.0,0.0,0.0,0.0,0.0,0.0,0
1676530518627837204,670,1676530518627560137,,0,0,22.416125697837195,114.04270928502234,100.28250122070312,0.0,0.0,0.0,0.0,0.0,0.0,0.0,0.0,0.0,0
1676530518827967373,671,1676530518827712685,,0,0,22.416123051557477,114.04270968115922,100.27002716064453,0.0,0.0,0.0,0.0,0.0,0.0,0.0,0.0,0.0,0
1676530519027681706,672,1676530519027415736,,0,0,22.416120479658844,114.04270988809118,100.29899597167969,0.0,0.0,0.0,0.0,0.0,0.0,0.0,0.0,0.0,0
1676530519227519594,673,1676530519227267801,,0,0,22.416117944861718,114.04270977715642,100.32550811767578,0.0,0.0,0.0,0.0,0.0,0.0,0.0,0.0,0.0,0
1676530519428356354,674,1676530519428076166,,0,0,22.416115697684727,114.04270986775937,100.26534271240234,0.0,0.0,0.0,0.0,0.0,0.0,0.0,0.0,0.0,0
1676530519627397987,675,1676530519627202548,,0,0,22.416113477732043,114.04271002461073,100.2279052734375,0.0,0.0,0.0,0.0,0.0,0.0,0.0,0.0,0.0,0
1676530519827953643,676,1676530519827716358,,0,0,22.416111566762062,114.04271016150727,100.26287078857422,0.0,0.0,0.0,0.0,0.0,0.0,0.0,0.0,0.0,0
1676530520028432976,677,1676530520028178039,,0,0,22.416109593284858,114.04271033953242,100.23497772216797,0.0,0.0,0.0,0.0,0.0,0.0,0.0,0.0,0.0,0
1676530520227987762,678,1676530520227766735,,0,0,22.41610822911945,114.04271101625451,100.15055084228516,0.0,0.0,0.0,0.0,0.0,0.0,0.0,0.0,0.0,0
1676530520427446580,679,1676530520427207186,,0,0,22.416107145232857,114.04271172227517,100.05593872070312,0.0,0.0,0.0,0.0,0.0,0.0,0.0,0.0,0.0,0
1676530520628211786,680,1676530520627976688,,0,0,22.416106357157464,114.04271212961814,99.94657897949219,0.0,0.0,0.0,0.0,0.0,0.0,0.0,0.0,0.0,0
1676530520828400233,681,1676530520828208440,,0,0,22.416105844033325,114.04271250075337,99.81993103027344,0.0,0.0,0.0,0.0,0.0,0.0,0.0,0.0,0.0,0
1676530521028310997,682,1676530521027362595,,0,0,22.416105546998356,114.04271270337692,99.7206039428711,0.0,0.0,0.0,0.0,0.0,0.0,0.0,0.0,0.0,0
1676530521227760663,683,1676530521227462387,,0,0,22.41610531226676,114.04271308136731,99.67591094970703,0.0,0.0,0.0,0.0,0.0,0.0,0.0,0.0,0.0,0
1676530521427636916,684,1676530521427339888,,0,0,22.41610535738386,114.04271322975764,99.69385528564453,0.0,0.0,0.0,0.0,0.0,0.0,0.0,0.0,0.0,0
1676530521628033982,685,1676530521627271895,,0,0,22.41610542919901,114.0427131457318,99.66452026367188,0.0,0.0,0.0,0.0,0.0,0.0,0.0,0.0,0.0,0
1676530521827757679,686,1676530521827464025,,0,0,22.41610547259684,114.0427130533739,99.657470703125,0.0,0.0,0.0,0.0,0.0,0.0,0.0,0.0,0.0,0
1676530522027721385,687,1676530522027434419,,0,0,22.416105391279807,114.0427131499561,99.66437530517578,0.0,0.0,0.0,0.0,0.0,0.0,0.0,0.0,0.0,0
1676530522227701160,688,1676530522227136274,,0,0,22.416105143745288,114.0427129263065,99.65580749511719,0.0,0.0,0.0,0.0,0.0,0.0,0.0,0.0,0.0,0
1676530522428309956,689,1676530522427217749,,0,0,22.416105056544826,114.04271271356248,99.66051483154297,0.0,0.0,0.0,0.0,0.0,0.0,0.0,0.0,0.0,0
1676530522628559932,690,1676530522627809309,,0,0,22.416104998326528,114.04271265269111,99.67974090576172,0.0,0.0,0.0,0.0,0.0,0.0,0.0,0.0,0.0,0
1676530522827548382,691,1676530522827250750,,0,0,22.416104998611868,114.042712641132,99.67216491699219,0.0,0.0,0.0,0.0,0.0,0.0,0.0,0.0,0.0,0
1676530523028329101,692,1676530523027869146,,0,0,22.416104968678873,114.04271262544411,99.66600036621094,0.0,0.0,0.0,0.0,0.0,0.0,0.0,0.0,0.0,0
1676530523227992180,693,1676530523227727253,,0,0,22.416104974524995,114.04271261500675,99.6788101196289,0.0,0.0,0.0,0.0,0.0,0.0,0.0,0.0,0.0,0
1676530523428071207,694,1676530523427611877,,0,0,22.4161049700859,114.04271258927733,99.66016387939453,0.0,0.0,0.0,0.0,0.0,0.0,0.0,0.0,0.0,0
1676530523628516677,695,1676530523627912000,,0,0,22.41610499061308,114.04271262028254,99.67138671875,0.0,0.0,0.0,0.0,0.0,0.0,0.0,0.0,0.0,0
1676530523828352894,696,1676530523827808807,,0,0,22.4161049724537,114.04271259829865,99.66545867919922,0.0,0.0,0.0,0.0,0.0,0.0,0.0,0.0,0.0,0
1676530524028249566,697,1676530524027769951,,0,0,22.416104993990945,114.0427126325105,99.6618881225586,0.0,0.0,0.0,0.0,0.0,0.0,0.0,0.0,0.0,0
1676530524228549049,698,1676530524228265008,,0,0,22.416104988737317,114.04271259011277,99.66813659667969,0.0,0.0,0.0,0.0,0.0,0.0,0.0,0.0,0.0,0
1676530524427751404,699,1676530524427291487,,0,0,22.416104986203486,114.0427125899296,99.66846466064453,0.0,0.0,0.0,0.0,0.0,0.0,0.0,0.0,0.0,0
1676530524628272195,700,1676530524627802249,,0,0,22.416105011063284,114.04271261938862,99.6634292602539,0.0,0.0,0.0,0.0,0.0,0.0,0.0,0.0,0.0,0
1676530524827677096,701,1676530524827262750,,0,0,22.416105022186763,114.0427126102671,99.67344665527344,0.0,0.0,0.0,0.0,0.0,0.0,0.0,0.0,0.0,0
1676530525027376646,702,1676530525027108709,,0,0,22.416105041837344,114.04271260035466,99.66543579101562,0.0,0.0,0.0,0.0,0.0,0.0,0.0,0.0,0.0,0
1676530525227732890,703,1676530525227482543,,0,0,22.416105054706684,114.04271265542991,99.66105651855469,0.0,0.0,0.0,0.0,0.0,0.0,0.0,0.0,0.0,0
1676530525428273612,704,1676530525428028228,,0,0,22.416105085681806,114.0427126320716,99.65776824951172,0.0,0.0,0.0,0.0,0.0,0.0,0.0,0.0,0.0,0
1676530525628087375,705,1676530525627358208,,0,0,22.416105034837226,114.04271262541714,99.66320037841797,0.0,0.0,0.0,0.0,0.0,0.0,0.0,0.0,0.0,0
1676530525828200767,706,1676530525827673297,,0,0,22.41610501430414,114.04271264182131,99.65931701660156,0.0,0.0,0.0,0.0,0.0,0.0,0.0,0.0,0.0,0
1676530526027763781,707,1676530526027480630,,0,0,22.416105033687767,114.04271262413289,99.66451263427734,0.0,0.0,0.0,0.0,0.0,0.0,0.0,0.0,0.0,0
1676530526227647812,708,1676530526227433575,,0,0,22.4161050067819,114.04271262203855,99.6698989868164,0.0,0.0,0.0,0.0,0.0,0.0,0.0,0.0,0.0,0
1676530526428616112,709,1676530526427772211,,0,0,22.416104994844776,114.04271265075772,99.67889404296875,0.0,0.0,0.0,0.0,0.0,0.0,0.0,0.0,0.0,0
1676530526628884697,710,1676530526627941289,,0,0,22.416105034461285,114.04271257821573,99.666259765625,0.0,0.0,0.0,0.0,0.0,0.0,0.0,0.0,0.0,0
1676530526828354263,711,1676530526827721503,,0,0,22.416105024162405,114.04271262079672,99.6676254272461,0.0,0.0,0.0,0.0,0.0,0.0,0.0,0.0,0.0,0
1676530527027962714,712,1676530527027682074,,0,0,22.416105074244633,114.04271255832764,99.65601348876953,0.0,0.0,0.0,0.0,0.0,0.0,0.0,0.0,0.0,0
1676530527228027519,713,1676530527227732410,,0,0,22.416105043422377,114.04271261366054,99.6671371459961,0.0,0.0,0.0,0.0,0.0,0.0,0.0,0.0,0.0,0
1676530527427962709,714,1676530527427284328,,0,0,22.41610504920715,114.04271263612526,99.66537475585938,0.0,0.0,0.0,0.0,0.0,0.0,0.0,0.0,0.0,0
1676530527628320948,715,1676530527627775402,,0,0,22.416105060108386,114.04271258771055,99.66333770751953,0.0,0.0,0.0,0.0,0.0,0.0,0.0,0.0,0.0,0
1676530527827422474,716,1676530527827099627,,0,0,22.416105063850814,114.0427125956887,99.66717529296875,0.0,0.0,0.0,0.0,0.0,0.0,0.0,0.0,0.0,0
1676530528028748221,717,1676530528028120628,,0,0,22.416105048149976,114.04271262096526,99.66885375976562,0.0,0.0,0.0,0.0,0.0,0.0,0.0,0.0,0.0,0
1676530528227367829,718,1676530528227151990,,0,0,22.416105046675625,114.04271259708636,99.67042541503906,0.0,0.0,0.0,0.0,0.0,0.0,0.0,0.0,0.0,0
1676530528428073748,719,1676530528427817330,,0,0,22.416105045976504,114.04271262866158,99.66626739501953,0.0,0.0,0.0,0.0,0.0,0.0,0.0,0.0,0.0,0
1676530528627846205,720,1676530528627226263,,0,0,22.41610504616646,114.04271263326777,99.66810607910156,0.0,0.0,0.0,0.0,0.0,0.0,0.0,0.0,0.0,0
1676530528828514510,721,1676530528827739505,,0,0,22.41610504697111,114.04271259027884,99.66670227050781,0.0,0.0,0.0,0.0,0.0,0.0,0.0,0.0,0.0,0
1676530529027609332,722,1676530529027211875,,0,0,22.41610521183988,114.04271308292128,99.63770294189453,0.0,0.0,0.0,0.0,0.0,0.0,0.0,0.0,0.0,0
1676530529227512767,723,1676530529227314411,,0,0,22.416105220722397,114.04271304555927,99.63568115234375,0.0,0.0,0.0,0.0,0.0,0.0,0.0,0.0,0.0,0
1676530529427629271,724,1676530529427385168,,0,0,22.41610523720983,114.0427130822368,99.65400695800781,0.0,0.0,0.0,0.0,0.0,0.0,0.0,0.0,0.0,0
1676530529628101142,725,1676530529627407947,,0,0,22.416105198212477,114.04271311660946,99.66838073730469,0.0,0.0,0.0,0.0,0.0,0.0,0.0,0.0,0.0,0
1676530529827545177,726,1676530529827089600,,0,0,22.416105164084996,114.04271315014412,99.66412353515625,0.0,0.0,0.0,0.0,0.0,0.0,0.0,0.0,0.0,0
1676530530027732895,727,1676530530027328162,,0,0,22.416105156015842,114.04271309670312,99.67060852050781,0.0,0.0,0.0,0.0,0.0,0.0,0.0,0.0,0.0,0
1676530530227334217,728,1676530530227119520,,0,0,22.416105153428536,114.04271310826518,99.68830871582031,0.0,0.0,0.0,0.0,0.0,0.0,0.0,0.0,0.0,0
1676530530428149656,729,1676530530427276758,,0,0,22.416105166568105,114.0427130968299,99.68416595458984,0.0,0.0,0.0,0.0,0.0,0.0,0.0,0.0,0.0,0
1676530530629083197,730,1676530530627970389,,0,0,22.4161051317238,114.04271308067597,99.69857025146484,0.0,0.0,0.0,0.0,0.0,0.0,0.0,0.0,0.0,0
1676530530828163079,731,1676530530827582996,,0,0,22.416105129094547,114.04271314256502,99.6790542602539,0.0,0.0,0.0,0.0,0.0,0.0,0.0,0.0,0.0,0
1676530531027207285,732,1676530531026978033,,0,0,22.416105134540555,114.04271314000415,99.67620086669922,0.0,0.0,0.0,0.0,0.0,0.0,0.0,0.0,0.0,0
1676530531227349563,733,1676530531227098175,,0,0,22.41610515247374,114.04271308303214,99.68213653564453,0.0,0.0,0.0,0.0,0.0,0.0,0.0,0.0,0.0,0
1676530531428034865,734,1676530531427748853,,0,0,22.41610514413247,114.04271309185671,99.67896270751953,0.0,0.0,0.0,0.0,0.0,0.0,0.0,0.0,0.0,0
1676530531628262762,735,1676530531627851510,,0,0,22.416105118287238,114.04271308807087,99.68170928955078,0.0,0.0,0.0,0.0,0.0,0.0,0.0,0.0,0.0,0
1676530531827883998,736,1676530531827474069,,0,0,22.416105138308016,114.04271307330299,99.67479705810547,0.0,0.0,0.0,0.0,0.0,0.0,0.0,0.0,0.0,0
1676530532027665683,737,1676530532027302319,,0,0,22.416105139497827,114.04271311453579,99.68120574951172,0.0,0.0,0.0,0.0,0.0,0.0,0.0,0.0,0.0,0
1676530532228441332,738,1676530532228181028,,0,0,22.416105139209538,114.04271310031325,99.68940734863281,0.0,0.0,0.0,0.0,0.0,0.0,0.0,0.0,0.0,0
1676530532428240959,739,1676530532428015173,,0,0,22.41610515376508,114.04271307438792,99.67972564697266,0.0,0.0,0.0,0.0,0.0,0.0,0.0,0.0,0.0,0
1676530532627687159,740,1676530532627212888,,0,0,22.416105162315148,114.0427130863871,99.685546875,0.0,0.0,0.0,0.0,0.0,0.0,0.0,0.0,0.0,0
1676530532828015024,741,1676530532827312466,,0,0,22.41610517656611,114.04271309517215,99.68241119384766,0.0,0.0,0.0,0.0,0.0,0.0,0.0,0.0,0.0,0
1676530533029217135,742,1676530533027691620,,0,0,22.416105181239796,114.04271308529297,99.682861328125,0.0,0.0,0.0,0.0,0.0,0.0,0.0,0.0,0.0,0
1676530533228033591,743,1676530533227801544,,0,0,22.41610517916669,114.04271307551717,99.68991088867188,0.0,0.0,0.0,0.0,0.0,0.0,0.0,0.0,0.0,0
1676530533427386810,744,1676530533427116188,,0,0,22.416105188245513,114.04271309804805,99.6832046508789,0.0,0.0,0.0,0.0,0.0,0.0,0.0,0.0,0.0,0
1676530533628517819,745,1676530533628198992,,0,0,22.416105168323778,114.0427130931762,99.68791961669922,0.0,0.0,0.0,0.0,0.0,0.0,0.0,0.0,0.0,0
1676530533827680115,746,1676530533827177447,,0,0,22.416105187025106,114.04271308292222,99.67648315429688,0.0,0.0,0.0,0.0,0.0,0.0,0.0,0.0,0.0,0
1676530534028663897,747,1676530534028072347,,0,0,22.41610520450997,114.04271307863127,99.6769790649414,0.0,0.0,0.0,0.0,0.0,0.0,0.0,0.0,0.0,0
1676530534227942309,748,1676530534227631912,,0,0,22.416105182019972,114.04271308808937,99.67802429199219,0.0,0.0,0.0,0.0,0.0,0.0,0.0,0.0,0.0,0
1676530534428263542,749,1676530534428015348,,0,0,22.416105165411675,114.0427130914572,99.68119812011719,0.0,0.0,0.0,0.0,0.0,0.0,0.0,0.0,0.0,0
1676530534627989270,750,1676530534627787476,,0,0,22.41610515614953,114.04271309049467,99.6793441772461,0.0,0.0,0.0,0.0,0.0,0.0,0.0,0.0,0.0,0
1676530534828472145,751,1676530534827838739,,0,0,22.416105236291187,114.04271302908346,99.66748809814453,0.0,0.0,0.0,0.0,0.0,0.0,0.0,0.0,0.0,0
1676530535027646244,752,1676530535027179672,,0,0,22.416105151231488,114.04271308151053,99.65860748291016,0.0,0.0,0.0,0.0,0.0,0.0,0.0,0.0,0.0,0
1676530535227794868,753,1676530535227427303,,0,0,22.41610517093872,114.04271307586845,99.6613540649414,0.0,0.0,0.0,0.0,0.0,0.0,0.0,0.0,0.0,0
1676530535427508239,754,1676530535427248578,,0,0,22.416105166364872,114.04271308773966,99.65227508544922,0.0,0.0,0.0,0.0,0.0,0.0,0.0,0.0,0.0,0
1676530535628096424,755,1676530535627432004,,0,0,22.41610512911492,114.0427131321747,99.65766906738281,0.0,0.0,0.0,0.0,0.0,0.0,0.0,0.0,0.0,0
1676530535828153936,756,1676530535827609724,,0,0,22.416105134320087,114.04271313588809,99.65148162841797,0.0,0.0,0.0,0.0,0.0,0.0,0.0,0.0,0.0,0
1676530536028780732,757,1676530536027944084,,0,0,22.416105166373008,114.04271312740644,99.6467514038086,0.0,0.0,0.0,0.0,0.0,0.0,0.0,0.0,0.0,0
1676530536228029723,758,1676530536227664551,,0,0,22.416105146737834,114.04271310776588,99.6500015258789,0.0,0.0,0.0,0.0,0.0,0.0,0.0,0.0,0.0,0
1676530536428234869,759,1676530536427959670,,0,0,22.416105160906557,114.04271310977015,99.64900207519531,0.0,0.0,0.0,0.0,0.0,0.0,0.0,0.0,0.0,0
1676530536627867426,760,1676530536627597170,,0,0,22.416105171564798,114.04271306582116,99.65489196777344,0.0,0.0,0.0,0.0,0.0,0.0,0.0,0.0,0.0,0
1676530536828300864,761,1676530536827978745,,0,0,22.416105189648814,114.04271305736964,99.65005493164062,0.0,0.0,0.0,0.0,0.0,0.0,0.0,0.0,0.0,0
1676530537027676471,762,1676530537027109233,,0,0,22.416105201930353,114.04271307086063,99.64734649658203,0.0,0.0,0.0,0.0,0.0,0.0,0.0,0.0,0.0,0
1676530537227326788,763,1676530537227128665,,0,0,22.416105255359305,114.0427130924948,99.63729095458984,0.0,0.0,0.0,0.0,0.0,0.0,0.0,0.0,0.0,0
1676530537427926057,764,1676530537427724888,,0,0,22.416105250799564,114.04271309836783,99.6375961303711,0.0,0.0,0.0,0.0,0.0,0.0,0.0,0.0,0.0,0
1676530537628028163,765,1676530537627686564,,0,0,22.41610523625617,114.04271310009985,99.63968658447266,0.0,0.0,0.0,0.0,0.0,0.0,0.0,0.0,0.0,0
1676530537828095762,766,1676530537827844946,,0,0,22.416105275386197,114.04271307660724,99.63263702392578,0.0,0.0,0.0,0.0,0.0,0.0,0.0,0.0,0.0,0
1676530538028052277,767,1676530538027727538,,0,0,22.41610524963253,114.04271310749886,99.63289642333984,0.0,0.0,0.0,0.0,0.0,0.0,0.0,0.0,0.0,0
1676530538227922257,768,1676530538227592641,,0,0,22.416105237399744,114.04271309271478,99.64697265625,0.0,0.0,0.0,0.0,0.0,0.0,0.0,0.0,0.0,0
1676530538427342539,769,1676530538427125678,,0,0,22.41610523834631,114.04271309147073,99.64571380615234,0.0,0.0,0.0,0.0,0.0,0.0,0.0,0.0,0.0,0
1676530538627252147,770,1676530538627016036,,0,0,22.416105258385187,114.04271309344315,99.63639068603516,0.0,0.0,0.0,0.0,0.0,0.0,0.0,0.0,0.0,0
1676530538827901335,771,1676530538827299701,,0,0,22.416105261881533,114.04271306729056,99.6484603881836,0.0,0.0,0.0,0.0,0.0,0.0,0.0,0.0,0.0,0
1676530539028034423,772,1676530539027541600,,0,0,22.416105263086948,114.04271308180321,99.64026641845703,0.0,0.0,0.0,0.0,0.0,0.0,0.0,0.0,0.0,0
1676530539227747000,773,1676530539227446750,,0,0,22.416105266392528,114.04271306022997,99.64212799072266,0.0,0.0,0.0,0.0,0.0,0.0,0.0,0.0,0.0,0
1676530539427990617,774,1676530539427768752,,0,0,22.416105275413862,114.04271306330958,99.64132690429688,0.0,0.0,0.0,0.0,0.0,0.0,0.0,0.0,0.0,0
1676530539628371267,775,1676530539628132964,,0,0,22.416105266833263,114.04271310098008,99.63617706298828,0.0,0.0,0.0,0.0,0.0,0.0,0.0,0.0,0.0,0
1676530539828055830,776,1676530539827642169,,0,0,22.416105264673824,114.04271309002334,99.6366195678711,0.0,0.0,0.0,0.0,0.0,0.0,0.0,0.0,0.0,0
1676530540028515808,777,1676530540028021121,,0,0,22.416105271137855,114.04271308169736,99.63910675048828,0.0,0.0,0.0,0.0,0.0,0.0,0.0,0.0,0.0,0
1676530540227410550,778,1676530540227179030,,0,0,22.41610527373589,114.04271305752218,99.63937377929688,0.0,0.0,0.0,0.0,0.0,0.0,0.0,0.0,0.0,0
1676530540428421463,779,1676530540428106428,,0,0,22.41610528467572,114.04271306332429,99.63439178466797,0.0,0.0,0.0,0.0,0.0,0.0,0.0,0.0,0.0,0
1676530540627450494,780,1676530540627049025,,0,0,22.416105281494143,114.04271306435831,99.6343994140625,0.0,0.0,0.0,0.0,0.0,0.0,0.0,0.0,0.0,0
1676530540828030553,781,1676530540827729781,,0,0,22.416105298796865,114.04271307250535,99.62895202636719,0.0,0.0,0.0,0.0,0.0,0.0,0.0,0.0,0.0,0
1676530541027339157,782,1676530541027079992,,0,0,22.41610527900519,114.0427130537238,99.63871002197266,0.0,0.0,0.0,0.0,0.0,0.0,0.0,0.0,0.0,0
1676530541227202486,783,1676530541226946400,,0,0,22.41610527032962,114.04271305366687,99.63720703125,0.0,0.0,0.0,0.0,0.0,0.0,0.0,0.0,0.0,0
1676530541427744787,784,1676530541427518430,,0,0,22.41610527403418,114.04271307713942,99.63400268554688,0.0,0.0,0.0,0.0,0.0,0.0,0.0,0.0,0.0,0
1676530541628191611,785,1676530541627950458,,0,0,22.41610527392496,114.04271305032361,99.6337890625,0.0,0.0,0.0,0.0,0.0,0.0,0.0,0.0,0.0,0
1676530541827376889,786,1676530541827069239,,0,0,22.41610528974397,114.04271307385305,99.6301498413086,0.0,0.0,0.0,0.0,0.0,0.0,0.0,0.0,0.0,0
1676530542027817786,787,1676530542027451763,,0,0,22.416105273932427,114.04271308274647,99.63343048095703,0.0,0.0,0.0,0.0,0.0,0.0,0.0,0.0,0.0,0
1676530542228273859,788,1676530542228032877,,0,0,22.416105249903477,114.04271308821593,99.65061950683594,0.0,0.0,0.0,0.0,0.0,0.0,0.0,0.0,0.0,0
1676530542428037904,789,1676530542427805869,,0,0,22.41610524717097,114.04271306711678,99.65331268310547,0.0,0.0,0.0,0.0,0.0,0.0,0.0,0.0,0.0,0
1676530542626793740,790,1676530542626394340,,0,0,22.4161052395292,114.04271309828077,99.6571273803711,0.0,0.0,0.0,0.0,0.0,0.0,0.0,0.0,0.0,0
1676530542827178505,791,1676530542826843784,,0,0,22.41610524294341,114.04271306403088,99.65750885009766,0.0,0.0,0.0,0.0,0.0,0.0,0.0,0.0,0.0,0
1676530543026652308,792,1676530543026248640,,0,0,22.41610525728249,114.04271308458031,99.65275573730469,0.0,0.0,0.0,0.0,0.0,0.0,0.0,0.0,0.0,0
1676530543227093728,793,1676530543226860525,,0,0,22.4161052507816,114.04271307141998,99.6538314819336,0.0,0.0,0.0,0.0,0.0,0.0,0.0,0.0,0.0,0
1676530543426946048,794,1676530543426418338,,0,0,22.416105255372837,114.04271305807151,99.65299987792969,0.0,0.0,0.0,0.0,0.0,0.0,0.0,0.0,0.0,0
1676530543627273394,795,1676530543626352533,,0,0,22.41610524036701,114.0427130811705,99.65906524658203,0.0,0.0,0.0,0.0,0.0,0.0,0.0,0.0,0.0,0
1676530543827899171,796,1676530543826990228,,0,0,22.416105250556193,114.04271306169869,99.65068054199219,0.0,0.0,0.0,0.0,0.0,0.0,0.0,0.0,0.0,0
1676530544027021270,797,1676530544026636159,,0,0,22.416105267242482,114.0427130494422,99.6453628540039,0.0,0.0,0.0,0.0,0.0,0.0,0.0,0.0,0.0,0
1676530544226545118,798,1676530544226287879,,0,0,22.41610525374137,114.04271306673219,99.64987182617188,0.0,0.0,0.0,0.0,0.0,0.0,0.0,0.0,0.0,0
1676530544426771410,799,1676530544426512946,,0,0,22.416105260593902,114.0427130941766,99.64476776123047,0.0,0.0,0.0,0.0,0.0,0.0,0.0,0.0,0.0,0
1676530544627382510,800,1676530544626640484,,0,0,22.41610526764869,114.04271305106944,99.64268493652344,0.0,0.0,0.0,0.0,0.0,0.0,0.0,0.0,0.0,0
1676530544827901719,801,1676530544827068109,,0,0,22.41610525427406,114.04271306300856,99.65145874023438,0.0,0.0,0.0,0.0,0.0,0.0,0.0,0.0,0.0,0
1676530545026880644,802,1676530545026343009,,0,0,22.41610524999271,114.04271307068495,99.65230560302734,0.0,0.0,0.0,0.0,0.0,0.0,0.0,0.0,0.0,0
1676530545228049342,803,1676530545227847472,,0,0,22.416105261484873,114.0427130556075,99.64595031738281,0.0,0.0,0.0,0.0,0.0,0.0,0.0,0.0,0.0,0
1676530545426838505,804,1676530545426587592,,0,0,22.416105273981422,114.0427130642536,99.63785552978516,0.0,0.0,0.0,0.0,0.0,0.0,0.0,0.0,0.0,0
1676530545627574729,805,1676530545626965610,,0,0,22.41610526674345,114.04271306025379,99.64524841308594,0.0,0.0,0.0,0.0,0.0,0.0,0.0,0.0,0.0,0
1676530545827587026,806,1676530545826741768,,0,0,22.416105251846815,114.04271306165015,99.64728546142578,0.0,0.0,0.0,0.0,0.0,0.0,0.0,0.0,0.0,0
1676530546027436659,807,1676530546026880677,,0,0,22.416105243817515,114.04271306540771,99.64024353027344,0.0,0.0,0.0,0.0,0.0,0.0,0.0,0.0,0.0,0
1676530546227142500,808,1676530546226851463,,0,0,22.416105263178714,114.04271306998889,99.63755798339844,0.0,0.0,0.0,0.0,0.0,0.0,0.0,0.0,0.0,0
1676530546427037427,809,1676530546426762014,,0,0,22.41610523154337,114.04271310716837,99.65447235107422,0.0,0.0,0.0,0.0,0.0,0.0,0.0,0.0,0.0,0
1676530546627363525,810,1676530546626719874,,0,0,22.416105230577493,114.04271310291307,99.64918518066406,0.0,0.0,0.0,0.0,0.0,0.0,0.0,0.0,0.0,0
1676530546827788391,811,1676530546826845328,,0,0,22.41610524740442,114.04271311682203,99.64842987060547,0.0,0.0,0.0,0.0,0.0,0.0,0.0,0.0,0.0,0
1676530547026936549,812,1676530547026374201,,0,0,22.41610525376544,114.04271313797481,99.64518737792969,0.0,0.0,0.0,0.0,0.0,0.0,0.0,0.0,0.0,0
1676530547227122862,813,1676530547226801346,,0,0,22.41610525125054,114.04271311048443,99.64295959472656,0.0,0.0,0.0,0.0,0.0,0.0,0.0,0.0,0.0,0
1676530547427463033,814,1676530547426475850,,0,0,22.41610523213807,114.04271310215121,99.65148162841797,0.0,0.0,0.0,0.0,0.0,0.0,0.0,0.0,0.0,0
1676530547627407148,815,1676530547626634130,,0,0,22.41610524594424,114.04271311919253,99.64057159423828,0.0,0.0,0.0,0.0,0.0,0.0,0.0,0.0,0.0,0
1676530547827072174,816,1676530547826260770,,0,0,22.416105247089686,114.0427130937928,99.64093780517578,0.0,0.0,0.0,0.0,0.0,0.0,0.0,0.0,0.0,0
1676530548026875544,817,1676530548026391922,,0,0,22.416105226143547,114.0427131317948,99.64295959472656,0.0,0.0,0.0,0.0,0.0,0.0,0.0,0.0,0.0,0
1676530548226481342,818,1676530548226215586,,0,0,22.416105222384427,114.04271311309083,99.64895629882812,0.0,0.0,0.0,0.0,0.0,0.0,0.0,0.0,0.0,0
1676530548427211039,819,1676530548426993480,,0,0,22.416105220673092,114.04271311847444,99.64830780029297,0.0,0.0,0.0,0.0,0.0,0.0,0.0,0.0,0.0,0
1676530548627323727,820,1676530548627095089,,0,0,22.41610523423339,114.04271310372823,99.6433334350586,0.0,0.0,0.0,0.0,0.0,0.0,0.0,0.0,0.0,0
1676530548826513335,821,1676530548826095412,,0,0,22.416105250072146,114.04271308797105,99.64105224609375,0.0,0.0,0.0,0.0,0.0,0.0,0.0,0.0,0.0,0
1676530549026998140,822,1676530549026721525,,0,0,22.416105246288897,114.04271309862924,99.64324188232422,0.0,0.0,0.0,0.0,0.0,0.0,0.0,0.0,0.0,0
1676530549226384922,823,1676530549226160180,,0,0,22.41610522066161,114.04271310708491,99.64563751220703,0.0,0.0,0.0,0.0,0.0,0.0,0.0,0.0,0.0,0
1676530549426533064,824,1676530549426261759,,0,0,22.416105241350035,114.04271309162527,99.64273071289062,0.0,0.0,0.0,0.0,0.0,0.0,0.0,0.0,0.0,0
1676530549627256504,825,1676530549626877879,,0,0,22.416105220335147,114.04271309845463,99.64793395996094,0.0,0.0,0.0,0.0,0.0,0.0,0.0,0.0,0.0,0
1676530549827831157,826,1676530549826938638,,0,0,22.416105220280226,114.04271308586274,99.64971160888672,0.0,0.0,0.0,0.0,0.0,0.0,0.0,0.0,0.0,0
1676530550026840498,827,1676530550026297208,,0,0,22.416105252335093,114.04271306891728,99.64236450195312,0.0,0.0,0.0,0.0,0.0,0.0,0.0,0.0,0.0,0
1676530550227009346,828,1676530550226803547,,0,0,22.41610524433168,114.04271307142248,99.64169311523438,0.0,0.0,0.0,0.0,0.0,0.0,0.0,0.0,0.0,0
1676530550426796927,829,1676530550426499144,,0,0,22.416105123544085,114.04271303587191,99.66773223876953,0.0,0.0,0.0,0.0,0.0,0.0,0.0,0.0,0.0,0
1676530550627278371,830,1676530550626468212,,0,0,22.416104825291978,114.04271305075571,99.75806427001953,0.0,0.0,0.0,0.0,0.0,0.0,0.0,0.0,0.0,0
1676530550827098987,831,1676530550826359316,,0,0,22.416104486301474,114.04271311967986,99.91571044921875,0.0,0.0,0.0,0.0,0.0,0.0,0.0,0.0,0.0,0
1676530551027457519,832,1676530551026679472,,0,0,22.416104313947244,114.04271303060035,100.1395034790039,0.0,0.0,0.0,0.0,0.0,0.0,0.0,0.0,0.0,0
1676530551226947342,833,1676530551226755604,,0,0,22.416104125157304,114.04271303948703,100.46283721923828,0.0,0.0,0.0,0.0,0.0,0.0,0.0,0.0,0.0,0
1676530551426434157,834,1676530551426219448,,0,0,22.41610401281842,114.04271303685464,100.78643035888672,0.0,0.0,0.0,0.0,0.0,0.0,0.0,0.0,0.0,0
1676530551627052186,835,1676530551626800657,,0,0,22.416103940194233,114.04271303398811,101.10363006591797,0.0,0.0,0.0,0.0,0.0,0.0,0.0,0.0,0.0,0
1676530551826819706,836,1676530551826543308,,0,0,22.416103789504998,114.04271303665892,101.46861267089844,0.0,0.0,0.0,0.0,0.0,0.0,0.0,0.0,0.0,0
1676530552027000395,837,1676530552026708868,,0,0,22.41610363471637,114.0427130335131,101.8194580078125,0.0,0.0,0.0,0.0,0.0,0.0,0.0,0.0,0.0,0
1676530552226227703,838,1676530552225998303,,0,0,22.416103539579385,114.04271297261485,102.16065979003906,0.0,0.0,0.0,0.0,0.0,0.0,0.0,0.0,0.0,0
1676530552427037816,839,1676530552426808752,,0,0,22.4161034341451,114.04271290420728,102.50420379638672,0.0,0.0,0.0,0.0,0.0,0.0,0.0,0.0,0.0,0
1676530552626755861,840,1676530552626471960,,0,0,22.416103405344163,114.04271286824184,102.88140106201172,0.0,0.0,0.0,0.0,0.0,0.0,0.0,0.0,0.0,0
1676530552826261993,841,1676530552826023715,,0,0,22.416103337980275,114.04271280024206,103.29509735107422,0.0,0.0,0.0,0.0,0.0,0.0,0.0,0.0,0.0,0
1676530553026795063,842,1676530553026291833,,0,0,22.416103289682773,114.04271276280281,103.73715209960938,0.0,0.0,0.0,0.0,0.0,0.0,0.0,0.0,0.0,0
1676530553226878628,843,1676530553226699535,,0,0,22.416103258563023,114.04271272758952,104.20881652832031,0.0,0.0,0.0,0.0,0.0,0.0,0.0,0.0,0.0,0
1676530553426927564,844,1676530553426699610,,0,0,22.416103217418293,114.04271275227549,104.695556640625,0.0,0.0,0.0,0.0,0.0,0.0,0.0,0.0,0.0,0
1676530553627021784,845,1676530553626773424,,0,0,22.41610318372951,114.04271276765037,105.21672058105469,0.0,0.0,0.0,0.0,0.0,0.0,0.0,0.0,0.0,0
1676530553826898196,846,1676530553826633780,,0,0,22.416103162070165,114.04271274448432,105.74498748779297,0.0,0.0,0.0,0.0,0.0,0.0,0.0,0.0,0.0,0
1676530554026563265,847,1676530554026340835,,0,0,22.4161031427689,114.04271273967817,106.28900909423828,0.0,0.0,0.0,0.0,0.0,0.0,0.0,0.0,0.0,0
1676530554226646416,848,1676530554226478828,,0,0,22.41610306672494,114.04271279937615,106.84296417236328,0.0,0.0,0.0,0.0,0.0,0.0,0.0,0.0,0.0,0
1676530554426425249,849,1676530554426244999,,0,0,22.41610305906649,114.04271279378146,107.39607238769531,0.0,0.0,0.0,0.0,0.0,0.0,0.0,0.0,0.0,0
1676530554626351661,850,1676530554626166450,,0,0,22.416103062087302,114.04271286284803,107.95476531982422,0.0,0.0,0.0,0.0,0.0,0.0,0.0,0.0,0.0,0
1676530554827057088,851,1676530554826813924,,0,0,22.416103074496263,114.04271288482057,108.52474212646484,0.0,0.0,0.0,0.0,0.0,0.0,0.0,0.0,0.0,0
1676530555026863120,852,1676530555026594591,,0,0,22.416103080656512,114.04271294448546,109.09613800048828,0.0,0.0,0.0,0.0,0.0,0.0,0.0,0.0,0.0,0
1676530555226745617,853,1676530555226533979,,0,0,22.41610311411139,114.04271297530484,109.67288970947266,0.0,0.0,0.0,0.0,0.0,0.0,0.0,0.0,0.0,0
1676530555426582795,854,1676530555426411545,,0,0,22.416103146584224,114.04271299259754,110.24992370605469,0.0,0.0,0.0,0.0,0.0,0.0,0.0,0.0,0.0,0
1676530555627082370,855,1676530555626807697,,0,0,22.416103172868127,114.04271298842588,110.8297119140625,0.0,0.0,0.0,0.0,0.0,0.0,0.0,0.0,0.0,0
1676530555826401681,856,1676530555826119362,,0,0,22.41610323136216,114.04271295180395,111.4202651977539,0.0,0.0,0.0,0.0,0.0,0.0,0.0,0.0,0.0,0
1676530556026932707,857,1676530556026667843,,0,0,22.416103267188827,114.04271289276163,112.00550842285156,0.0,0.0,0.0,0.0,0.0,0.0,0.0,0.0,0.0,0
1676530556227106060,858,1676530556226928176,,0,0,22.416103345432127,114.04271282892543,112.59452056884766,0.0,0.0,0.0,0.0,0.0,0.0,0.0,0.0,0.0,0
1676530556426718840,859,1676530556426459691,,0,0,22.416103373430754,114.04271279292932,113.18025207519531,0.0,0.0,0.0,0.0,0.0,0.0,0.0,0.0,0.0,0
1676530556626650819,860,1676530556626388852,,0,0,22.416103444540735,114.04271275457249,113.75904083251953,0.0,0.0,0.0,0.0,0.0,0.0,0.0,0.0,0.0,0
1676530556826574920,861,1676530556826328829,,0,0,22.416103465617027,114.04271269899188,114.35242462158203,0.0,0.0,0.0,0.0,0.0,0.0,0.0,0.0,0.0,0
1676530557026469187,862,1676530557026255908,,0,0,22.4161034793007,114.04271267970758,114.9300765991211,0.0,0.0,0.0,0.0,0.0,0.0,0.0,0.0,0.0,0
1676530557227216473,863,1676530557226933637,,0,0,22.416103500029838,114.04271269893789,115.49158477783203,0.0,0.0,0.0,0.0,0.0,0.0,0.0,0.0,0.0,0
1676530557426428318,864,1676530557426256474,,0,0,22.416103510846554,114.0427126819163,116.05902099609375,0.0,0.0,0.0,0.0,0.0,0.0,0.0,0.0,0.0,0
1676530557627011519,865,1676530557626768717,,0,0,22.416103496900014,114.0427126997472,116.5992431640625,0.0,0.0,0.0,0.0,0.0,0.0,0.0,0.0,0.0,0
1676530557827002022,866,1676530557826666937,,0,0,22.416103515669263,114.04271270630481,117.13196563720703,0.0,0.0,0.0,0.0,0.0,0.0,0.0,0.0,0.0,0
1676530558027173535,867,1676530558026840579,,0,0,22.416103487910334,114.04271273017875,117.60977935791016,0.0,0.0,0.0,0.0,0.0,0.0,0.0,0.0,0.0,0
1676530558227202679,868,1676530558226543777,,0,0,22.416103451365604,114.04271264056595,118.06603240966797,0.0,0.0,0.0,0.0,0.0,0.0,0.0,0.0,0.0,0
1676530558426740831,869,1676530558426561557,,0,0,22.416103399349357,114.04271257868069,118.52450561523438,0.0,0.0,0.0,0.0,0.0,0.0,0.0,0.0,0.0,0
1676530558626172103,870,1676530558625955258,,0,0,22.41610330857923,114.04271258651053,118.9704818725586,0.0,0.0,0.0,0.0,0.0,0.0,0.0,0.0,0.0,0
1676530558826806942,871,1676530558826463388,,0,0,22.4161032730763,114.04271258626223,119.32103729248047,0.0,0.0,0.0,0.0,0.0,0.0,0.0,0.0,0.0,0
1676530559027364179,872,1676530559027054940,,0,0,22.41610323912552,114.04271252364683,119.53558349609375,0.0,0.0,0.0,0.0,0.0,0.0,0.0,0.0,0.0,0
1676530559226936359,873,1676530559226690362,,0,0,22.416103222288495,114.0427125355887,119.63157653808594,0.0,0.0,0.0,0.0,0.0,0.0,0.0,0.0,0.0,0
1676530559426713391,874,1676530559426523413,,0,0,22.416103136307118,114.04271260969946,119.6709213256836,0.0,0.0,0.0,0.0,0.0,0.0,0.0,0.0,0.0,0
1676530559626417777,875,1676530559626196165,,0,0,22.416103088515495,114.04271264138,119.66629028320312,0.0,0.0,0.0,0.0,0.0,0.0,0.0,0.0,0.0,0
1676530559826180026,876,1676530559825996522,,0,0,22.41610305400048,114.04271262692173,119.647216796875,0.0,0.0,0.0,0.0,0.0,0.0,0.0,0.0,0.0,0
1676530560027107519,877,1676530560026852071,,0,0,22.41610299431345,114.04271264694928,119.62706756591797,0.0,0.0,0.0,0.0,0.0,0.0,0.0,0.0,0.0,0
1676530560226509930,878,1676530560226333935,,0,0,22.416102971598505,114.04271263255842,119.60253143310547,0.0,0.0,0.0,0.0,0.0,0.0,0.0,0.0,0.0,0
1676530560426583883,879,1676530560426364910,,0,0,22.416102944936544,114.04271262051049,119.59725952148438,0.0,0.0,0.0,0.0,0.0,0.0,0.0,0.0,0.0,0
1676530560626365226,880,1676530560626097418,,0,0,22.41610291454529,114.04271267204531,119.59209442138672,0.0,0.0,0.0,0.0,0.0,0.0,0.0,0.0,0.0,0
1676530560826477960,881,1676530560826226288,,0,0,22.4161029158605,114.04271269488154,119.58907318115234,0.0,0.0,0.0,0.0,0.0,0.0,0.0,0.0,0.0,0
1676530561026560194,882,1676530561026128076,,0,0,22.416102923481947,114.04271267768713,119.59930419921875,0.0,0.0,0.0,0.0,0.0,0.0,0.0,0.0,0.0,0
1676530561226231314,883,1676530561226048588,,0,0,22.416102921322597,114.04271271994611,119.60034942626953,0.0,0.0,0.0,0.0,0.0,0.0,0.0,0.0,0.0,0
1676530561426730138,884,1676530561426472489,,0,0,22.416102952730835,114.04271271623921,119.6075439453125,0.0,0.0,0.0,0.0,0.0,0.0,0.0,0.0,0.0,0
1676530561626946623,885,1676530561626682905,,0,0,22.416102976128812,114.04271275133874,119.61451721191406,0.0,0.0,0.0,0.0,0.0,0.0,0.0,0.0,0.0,0
1676530561826867573,886,1676530561826591530,,0,0,22.41610301021335,114.04271279673986,119.62174224853516,0.0,0.0,0.0,0.0,0.0,0.0,0.0,0.0,0.0,0
1676530562027275770,887,1676530562027004143,,0,0,22.416103063257275,114.04271286792766,119.62739562988281,0.0,0.0,0.0,0.0,0.0,0.0,0.0,0.0,0.0,0
1676530562226769710,888,1676530562226530625,,0,0,22.416103105200158,114.04271291055909,119.62989807128906,0.0,0.0,0.0,0.0,0.0,0.0,0.0,0.0,0.0,0
1676530562427265876,889,1676530562427027426,,0,0,22.416103131858918,114.0427129906238,119.64102935791016,0.0,0.0,0.0,0.0,0.0,0.0,0.0,0.0,0.0,0
1676530562626414589,890,1676530562626174933,,0,0,22.4161031889696,114.04271301494352,119.65126037597656,0.0,0.0,0.0,0.0,0.0,0.0,0.0,0.0,0.0,0
1676530562826863443,891,1676530562826613681,,0,0,22.416103259374943,114.04271303715085,119.65074157714844,0.0,0.0,0.0,0.0,0.0,0.0,0.0,0.0,0.0,0
1676530563026340682,892,1676530563026016005,,0,0,22.41610330829324,114.04271307998972,119.66289520263672,0.0,0.0,0.0,0.0,0.0,0.0,0.0,0.0,0.0,0
1676530563227000526,893,1676530563226782282,,0,0,22.416103372267173,114.04271308122756,119.67058563232422,0.0,0.0,0.0,0.0,0.0,0.0,0.0,0.0,0.0,0
1676530563426486075,894,1676530563426229494,,0,0,22.41610343294504,114.04271310865279,119.6728744506836,0.0,0.0,0.0,0.0,0.0,0.0,0.0,0.0,0.0,0
1676530563626203693,895,1676530563626001020,,0,0,22.4161034841176,114.0427131226888,119.68441009521484,0.0,0.0,0.0,0.0,0.0,0.0,0.0,0.0,0.0,0
1676530563827197503,896,1676530563826877641,,0,0,22.416103551495148,114.0427131471212,119.71197509765625,0.0,0.0,0.0,0.0,0.0,0.0,0.0,0.0,0.0,0
1676530564026339353,897,1676530564026145015,,0,0,22.416103607089838,114.04271313387265,119.71659851074219,0.0,0.0,0.0,0.0,0.0,0.0,0.0,0.0,0.0,0
1676530564226807183,898,1676530564226603303,,0,0,22.4161036476949,114.0427131602488,119.71976470947266,0.0,0.0,0.0,0.0,0.0,0.0,0.0,0.0,0.0,0
1676530564426193950,899,1676530564425959666,,0,0,22.41610367999895,114.04271317749682,119.72662353515625,0.0,0.0,0.0,0.0,0.0,0.0,0.0,0.0,0.0,0
1676530564626329298,900,1676530564626075492,,0,0,22.4161037266506,114.04271317243747,119.72820281982422,0.0,0.0,0.0,0.0,0.0,0.0,0.0,0.0,0.0,0
1676530564826763267,901,1676530564826567534,,0,0,22.4161037486727,114.0427132192804,119.73172760009766,0.0,0.0,0.0,0.0,0.0,0.0,0.0,0.0,0.0,0
1676530565026615792,902,1676530565026347733,,0,0,22.416103760735837,114.04271324212974,119.73190307617188,0.0,0.0,0.0,0.0,0.0,0.0,0.0,0.0,0.0,0
1676530565227164103,903,1676530565226923464,,0,0,22.41610377425313,114.04271324252007,119.73272705078125,0.0,0.0,0.0,0.0,0.0,0.0,0.0,0.0,0.0,0
1676530565426943419,904,1676530565426717176,,0,0,22.416103773265526,114.0427133170478,119.73038482666016,0.0,0.0,0.0,0.0,0.0,0.0,0.0,0.0,0.0,0
1676530565626598884,905,1676530565626397393,,0,0,22.416103779659206,114.04271330395306,119.7324447631836,0.0,0.0,0.0,0.0,0.0,0.0,0.0,0.0,0.0,0
1676530565826636374,906,1676530565826395150,,0,0,22.41610380597781,114.04271328023823,119.73342895507812,0.0,0.0,0.0,0.0,0.0,0.0,0.0,0.0,0.0,0
1676530566026476789,907,1676530566026204915,,0,0,22.41610380038282,114.04271329117816,119.73501586914062,0.0,0.0,0.0,0.0,0.0,0.0,0.0,0.0,0.0,0
1676530566227028540,908,1676530566226775591,,0,0,22.416103826374737,114.04271328095503,119.7369613647461,0.0,0.0,0.0,0.0,0.0,0.0,0.0,0.0,0.0,0
1676530566426757555,909,1676530566426565010,,0,0,22.416103874060596,114.04271330084191,119.72962951660156,0.0,0.0,0.0,0.0,0.0,0.0,0.0,0.0,0.0,0
1676530566626611850,910,1676530566626437188,,0,0,22.416103885095627,114.04271328612982,119.73188018798828,0.0,0.0,0.0,0.0,0.0,0.0,0.0,0.0,0.0,0
1676530566826676756,911,1676530566826449167,,0,0,22.416103893912044,114.04271326426411,119.74144744873047,0.0,0.0,0.0,0.0,0.0,0.0,0.0,0.0,0.0,0
1676530567026745175,912,1676530567026522540,,0,0,22.416103883736792,114.04271327346731,119.73908233642578,0.0,0.0,0.0,0.0,0.0,0.0,0.0,0.0,0.0,0
1676530567226389996,913,1676530567226206190,,0,0,22.41610392111945,114.04271325472502,119.7313003540039,0.0,0.0,0.0,0.0,0.0,0.0,0.0,0.0,0.0,0
1676530567426237271,914,1676530567425980984,,0,0,22.41610390447415,114.04271324105459,119.72948455810547,0.0,0.0,0.0,0.0,0.0,0.0,0.0,0.0,0.0,0
1676530567626459189,915,1676530567626232284,,0,0,22.41610392332078,114.04271323267413,119.73222351074219,0.0,0.0,0.0,0.0,0.0,0.0,0.0,0.0,0.0,0
1676530567826359821,916,1676530567826118201,,0,0,22.41610393793401,114.0427132119403,119.72735595703125,0.0,0.0,0.0,0.0,0.0,0.0,0.0,0.0,0.0,0
1676530568026212743,917,1676530568025858848,,0,0,22.416103950248086,114.0427132207391,119.73136901855469,0.0,0.0,0.0,0.0,0.0,0.0,0.0,0.0,0.0,0
1676530568227054152,918,1676530568226833584,,0,0,22.416103976619343,114.04271320260001,119.73554229736328,0.0,0.0,0.0,0.0,0.0,0.0,0.0,0.0,0.0,0
1676530568426374944,919,1676530568426163745,,0,0,22.41610405151487,114.04271316371234,119.73433685302734,0.0,0.0,0.0,0.0,0.0,0.0,0.0,0.0,0.0,0
1676530568626470455,920,1676530568626104050,,0,0,22.416104125085166,114.0427131321201,119.73255920410156,0.0,0.0,0.0,0.0,0.0,0.0,0.0,0.0,0.0,0
1676530568826658457,921,1676530568826424296,,0,0,22.416104179597916,114.04271311037584,119.73509216308594,0.0,0.0,0.0,0.0,0.0,0.0,0.0,0.0,0.0,0
1676530569027031524,922,1676530569026741681,,0,0,22.41610419949535,114.04271310965014,119.74226379394531,0.0,0.0,0.0,0.0,0.0,0.0,0.0,0.0,0.0,0
1676530569226444141,923,1676530569226265733,,0,0,22.416104235374004,114.04271312858617,119.7450942993164,0.0,0.0,0.0,0.0,0.0,0.0,0.0,0.0,0.0,0
1676530569426342399,924,1676530569426150403,,0,0,22.41610428561763,114.04271313500843,119.7370376586914,0.0,0.0,0.0,0.0,0.0,0.0,0.0,0.0,0.0,0
1676530569626645466,925,1676530569626394361,,0,0,22.41610433616576,114.04271313550987,119.73799896240234,0.0,0.0,0.0,0.0,0.0,0.0,0.0,0.0,0.0,0
1676530569826684270,926,1676530569826399497,,0,0,22.416104338604107,114.04271314377331,119.74018096923828,0.0,0.0,0.0,0.0,0.0,0.0,0.0,0.0,0.0,0
1676530570026849293,927,1676530570026611776,,0,0,22.416104367927584,114.0427131895403,119.73164367675781,0.0,0.0,0.0,0.0,0.0,0.0,0.0,0.0,0.0,0
1676530570226404379,928,1676530570226140782,,0,0,22.41610435302559,114.0427132138356,119.73553466796875,0.0,0.0,0.0,0.0,0.0,0.0,0.0,0.0,0.0,0
1676530570425332669,929,1676530570425052115,,0,0,22.416104316410845,114.04271322403187,119.73600769042969,0.0,0.0,0.0,0.0,0.0,0.0,0.0,0.0,0.0,0
1676530570626203415,930,1676530570625946868,,0,0,22.416104323950556,114.04271322409863,119.73804473876953,0.0,0.0,0.0,0.0,0.0,0.0,0.0,0.0,0.0,0
1676530570827151083,931,1676530570826937641,,0,0,22.416104327696917,114.04271328329598,119.73794555664062,0.0,0.0,0.0,0.0,0.0,0.0,0.0,0.0,0.0,0
1676530571026845112,932,1676530571026592999,,0,0,22.41610430735384,114.0427133258512,119.73004150390625,0.0,0.0,0.0,0.0,0.0,0.0,0.0,0.0,0.0,0
1676530571226710689,933,1676530571226479354,,0,0,22.41610430183575,114.04271335214018,119.73152923583984,0.0,0.0,0.0,0.0,0.0,0.0,0.0,0.0,0.0,0
1676530571425331724,934,1676530571425134088,,0,0,22.41610430351217,114.04271332833045,119.73391723632812,0.0,0.0,0.0,0.0,0.0,0.0,0.0,0.0,0.0,0
1676530571625438430,935,1676530571625230825,,0,0,22.416104283980253,114.04271329167989,119.74466705322266,0.0,0.0,0.0,0.0,0.0,0.0,0.0,0.0,0.0,0
1676530571825816924,936,1676530571825608525,,0,0,22.416104271151976,114.04271325259873,119.73995971679688,0.0,0.0,0.0,0.0,0.0,0.0,0.0,0.0,0.0,0
1676530572026130678,937,1676530572025922242,,0,0,22.416104253241663,114.04271322359565,119.74069213867188,0.0,0.0,0.0,0.0,0.0,0.0,0.0,0.0,0.0,0
1676530572226626617,938,1676530572226385222,,0,0,22.41610423577574,114.04271317982986,119.73819732666016,0.0,0.0,0.0,0.0,0.0,0.0,0.0,0.0,0.0,0
1676530572425689203,939,1676530572425438311,,0,0,22.416104188616917,114.04271316398611,119.7372055053711,0.0,0.0,0.0,0.0,0.0,0.0,0.0,0.0,0.0,0
1676530572627320664,940,1676530572627043977,,0,0,22.416104203961165,114.04271314060836,119.73641204833984,0.0,0.0,0.0,0.0,0.0,0.0,0.0,0.0,0.0,0
1676530572825862257,941,1676530572825579761,,0,0,22.416104201576115,114.04271312729269,119.74491119384766,0.0,0.0,0.0,0.0,0.0,0.0,0.0,0.0,0.0,0
1676530573025331336,942,1676530573025110682,,0,0,22.41610422949679,114.04271310794626,119.73665618896484,0.0,0.0,0.0,0.0,0.0,0.0,0.0,0.0,0.0,0
1676530573225173522,943,1676530573224952477,,0,0,22.41610426145499,114.0427131062021,119.73416900634766,0.0,0.0,0.0,0.0,0.0,0.0,0.0,0.0,0.0,0
1676530573425569611,944,1676530573425413518,,0,0,22.416104263478044,114.04271316972876,119.72722625732422,0.0,0.0,0.0,0.0,0.0,0.0,0.0,0.0,0.0,0
1676530573626001929,945,1676530573625839366,,0,0,22.416104262818,114.0427131872343,119.72808074951172,0.0,0.0,0.0,0.0,0.0,0.0,0.0,0.0,0.0,0
1676530573825295063,946,1676530573825042917,,0,0,22.41610427432744,114.04271317135029,119.72502899169922,0.0,0.0,0.0,0.0,0.0,0.0,0.0,0.0,0.0,0
1676530574025647335,947,1676530574025392314,,0,0,22.416104222093022,114.04271318108637,119.72639465332031,0.0,0.0,0.0,0.0,0.0,0.0,0.0,0.0,0.0,0
1676530574225863726,948,1676530574225686198,,0,0,22.41610418477878,114.04271318189153,119.73637390136719,0.0,0.0,0.0,0.0,0.0,0.0,0.0,0.0,0.0,0
1676530574425932877,949,1676530574425735521,,0,0,22.416104149160795,114.04271314292531,119.72905731201172,0.0,0.0,0.0,0.0,0.0,0.0,0.0,0.0,0.0,0
1676530574626190879,950,1676530574626008676,,0,0,22.41610416456503,114.04271308017287,119.7310791015625,0.0,0.0,0.0,0.0,0.0,0.0,0.0,0.0,0.0,0
1676530574825578903,951,1676530574825311814,,0,0,22.416104151529304,114.04271311627254,119.73443603515625,0.0,0.0,0.0,0.0,0.0,0.0,0.0,0.0,0.0,0
1676530575026066090,952,1676530575025806530,,0,0,22.416104153149114,114.04271316505557,119.72895050048828,0.0,0.0,0.0,0.0,0.0,0.0,0.0,0.0,0.0,0
1676530575226006654,953,1676530575225764584,,0,0,22.416104183489303,114.0427131699689,119.72389221191406,0.0,0.0,0.0,0.0,0.0,0.0,0.0,0.0,0.0,0
1676530575425538154,954,1676530575425370510,,0,0,22.416104186478478,114.04271318073586,119.7281265258789,0.0,0.0,0.0,0.0,0.0,0.0,0.0,0.0,0.0,0
1676530575626117607,955,1676530575625928153,,0,0,22.416104164191555,114.04271325267347,119.72151947021484,0.0,0.0,0.0,0.0,0.0,0.0,0.0,0.0,0.0,0
1676530575825324681,956,1676530575825022197,,0,0,22.416104165983192,114.04271330191335,119.71765899658203,0.0,0.0,0.0,0.0,0.0,0.0,0.0,0.0,0.0,0
1676530576025266981,957,1676530576025072841,,0,0,22.41610417501615,114.04271331308419,119.71666717529297,0.0,0.0,0.0,0.0,0.0,0.0,0.0,0.0,0.0,0
1676530576225461635,958,1676530576225270929,,0,0,22.416104218508586,114.04271332448633,119.71781158447266,0.0,0.0,0.0,0.0,0.0,0.0,0.0,0.0,0.0,0
1676530576426196341,959,1676530576425948869,,0,0,22.416104282986847,114.04271335000627,119.71717834472656,0.0,0.0,0.0,0.0,0.0,0.0,0.0,0.0,0.0,0
1676530576625852062,960,1676530576625626009,,0,0,22.416104345932734,114.0427133578641,119.71697235107422,0.0,0.0,0.0,0.0,0.0,0.0,0.0,0.0,0.0,0
1676530576826147644,961,1676530576825897461,,0,0,22.416104391885227,114.04271335484803,119.71731567382812,0.0,0.0,0.0,0.0,0.0,0.0,0.0,0.0,0.0,0
1676530577025621959,962,1676530577025366076,,0,0,22.416104425307548,114.04271337603276,119.71603393554688,0.0,0.0,0.0,0.0,0.0,0.0,0.0,0.0,0.0,0
1676530577225622586,963,1676530577225309175,,0,0,22.416104473565465,114.04271341278259,119.7205810546875,0.0,0.0,0.0,0.0,0.0,0.0,0.0,0.0,0.0,0
1676530577425336183,964,1676530577425163111,,0,0,22.41610453402987,114.04271342695078,119.71644592285156,0.0,0.0,0.0,0.0,0.0,0.0,0.0,0.0,0.0,0
1676530577625879119,965,1676530577625621226,,0,0,22.416104544762284,114.04271343699149,119.71881103515625,0.0,0.0,0.0,0.0,0.0,0.0,0.0,0.0,0.0,0
1676530577825423385,966,1676530577825181305,,0,0,22.416104561942817,114.04271349491464,119.70714569091797,0.0,0.0,0.0,0.0,0.0,0.0,0.0,0.0,0.0,0
1676530578025917946,967,1676530578025746339,,0,0,22.41610458476108,114.04271352405856,119.70732879638672,0.0,0.0,0.0,0.0,0.0,0.0,0.0,0.0,0.0,0
1676530578225545398,968,1676530578225360838,,0,0,22.416104620986093,114.04271354220437,119.71680450439453,0.0,0.0,0.0,0.0,0.0,0.0,0.0,0.0,0.0,0
1676530578425776861,969,1676530578425546841,,0,0,22.416104662080063,114.04271354432578,119.71700286865234,0.0,0.0,0.0,0.0,0.0,0.0,0.0,0.0,0.0,0
1676530578625935373,970,1676530578625739417,,0,0,22.416104679822453,114.04271351454328,119.71762084960938,0.0,0.0,0.0,0.0,0.0,0.0,0.0,0.0,0.0,0
1676530578826055695,971,1676530578825843209,,0,0,22.416104698498962,114.04271351609323,119.71893310546875,0.0,0.0,0.0,0.0,0.0,0.0,0.0,0.0,0.0,0
1676530579026277097,972,1676530579025987013,,0,0,22.416104704915142,114.04271348907783,119.71956634521484,0.0,0.0,0.0,0.0,0.0,0.0,0.0,0.0,0.0,0
1676530579225869780,973,1676530579225719425,,0,0,22.41610472966577,114.04271344869628,119.72098541259766,0.0,0.0,0.0,0.0,0.0,0.0,0.0,0.0,0.0,0
1676530579425247569,974,1676530579425002126,,0,0,22.41610476677336,114.04271337558633,119.7184829711914,0.0,0.0,0.0,0.0,0.0,0.0,0.0,0.0,0.0,0
1676530579625492069,975,1676530579625297624,,0,0,22.416104778847306,114.04271332106903,119.72010040283203,0.0,0.0,0.0,0.0,0.0,0.0,0.0,0.0,0.0,0
