%time,field.header.seq,field.header.stamp,field.header.frame_id,field.status.status,field.status.service,field.latitude,field.longitude,field.altitude,field.position_covariance0,field.position_covariance1,field.position_covariance2,field.position_covariance3,field.position_covariance4,field.position_covariance5,field.position_covariance6,field.position_covariance7,field.position_covariance8,field.position_covariance_type
1676528002146186838,240,1676528002145630445,,0,0,22.416690669975683,114.04280325377393,100.09497833251953,0.0,0.0,0.0,0.0,0.0,0.0,0.0,0.0,0.0,0
1676528002346380436,241,1676528002345448889,,0,0,22.416690697866077,114.0428032672147,100.0863265991211,0.0,0.0,0.0,0.0,0.0,0.0,0.0,0.0,0.0,0
1676528002545351053,242,1676528002545113242,,0,0,22.416690689211254,114.04280324968012,100.08252716064453,0.0,0.0,0.0,0.0,0.0,0.0,0.0,0.0,0.0,0
1676528002746161096,243,1676528002745827179,,0,0,22.416690700751857,114.04280324804256,100.08697509765625,0.0,0.0,0.0,0.0,0.0,0.0,0.0,0.0,0.0,0
1676528002945073195,244,1676528002944832966,,0,0,22.416690704070078,114.0428032403351,100.09504699707031,0.0,0.0,0.0,0.0,0.0,0.0,0.0,0.0,0.0,0
1676528003146526799,245,1676528003145740877,,0,0,22.416690668903296,114.04280323200344,100.08822631835938,0.0,0.0,0.0,0.0,0.0,0.0,0.0,0.0,0.0,0
1676528003346509762,246,1676528003345541520,,0,0,22.416690683331066,114.042803242863,100.08501434326172,0.0,0.0,0.0,0.0,0.0,0.0,0.0,0.0,0.0,0
1676528003545090029,247,1676528003544925140,,0,0,22.41669069427351,114.04280323398186,100.07691192626953,0.0,0.0,0.0,0.0,0.0,0.0,0.0,0.0,0.0,0
1676528003745433588,248,1676528003745246935,,0,0,22.416690684185976,114.04280323316472,100.08171844482422,0.0,0.0,0.0,0.0,0.0,0.0,0.0,0.0,0.0,0
1676528003945093403,249,1676528003944921915,,0,0,22.416690700276348,114.04280323419896,100.08349609375,0.0,0.0,0.0,0.0,0.0,0.0,0.0,0.0,0.0,0
1676528004146235310,250,1676528004145425911,,0,0,22.41669068207829,114.04280325340805,100.08139038085938,0.0,0.0,0.0,0.0,0.0,0.0,0.0,0.0,0.0,0
1676528004346649352,251,1676528004345773428,,0,0,22.416690683550105,114.04280322088114,100.08694458007812,0.0,0.0,0.0,0.0,0.0,0.0,0.0,0.0,0.0,0
1676528004546485196,252,1676528004545541943,,0,0,22.416690702642512,114.04280320477318,100.08052825927734,0.0,0.0,0.0,0.0,0.0,0.0,0.0,0.0,0.0,0
1676528004745639239,253,1676528004745406545,,0,0,22.416690684169772,114.04280323773031,100.07543182373047,0.0,0.0,0.0,0.0,0.0,0.0,0.0,0.0,0.0,0
1676528004945976184,254,1676528004945705041,,0,0,22.41669070700654,114.04280321614591,100.0809555053711,0.0,0.0,0.0,0.0,0.0,0.0,0.0,0.0,0.0,0
1676528005145913621,255,1676528005144894415,,0,0,22.416690690936562,114.04280319857365,100.08937072753906,0.0,0.0,0.0,0.0,0.0,0.0,0.0,0.0,0.0,0
1676528005346753246,256,1676528005345741968,,0,0,22.416690697574605,114.04280320065305,100.08222198486328,0.0,0.0,0.0,0.0,0.0,0.0,0.0,0.0,0.0,0
1676528005545089635,257,1676528005544903492,,0,0,22.41669070192191,114.04280318445292,100.08231353759766,0.0,0.0,0.0,0.0,0.0,0.0,0.0,0.0,0.0,0
1676528005746096439,258,1676528005745823201,,0,0,22.416690688235935,114.04280318229559,100.07867431640625,0.0,0.0,0.0,0.0,0.0,0.0,0.0,0.0,0.0,0
1676528005946017245,259,1676528005945784807,,0,0,22.416690712672874,114.0428031908501,100.08235931396484,0.0,0.0,0.0,0.0,0.0,0.0,0.0,0.0,0.0,0
1676528006146701556,260,1676528006145702620,,0,0,22.416690724901105,114.04280325015363,100.10391235351562,0.0,0.0,0.0,0.0,0.0,0.0,0.0,0.0,0.0,0
1676528006346702064,261,1676528006345652641,,0,0,22.416690721688735,114.04280324618776,100.1014175415039,0.0,0.0,0.0,0.0,0.0,0.0,0.0,0.0,0.0,0
1676528006544992154,262,1676528006544781121,,0,0,22.416690745057316,114.04280323205491,100.10478210449219,0.0,0.0,0.0,0.0,0.0,0.0,0.0,0.0,0.0,0
1676528006745892511,263,1676528006745636128,,0,0,22.416690747152497,114.0428032244931,100.10894012451172,0.0,0.0,0.0,0.0,0.0,0.0,0.0,0.0,0.0,0
1676528006945913444,264,1676528006945679832,,0,0,22.416690729022264,114.04280324841413,100.10821533203125,0.0,0.0,0.0,0.0,0.0,0.0,0.0,0.0,0.0,0
1676528007146447511,265,1676528007145427087,,0,0,22.416690744141167,114.04280324243486,100.10968017578125,0.0,0.0,0.0,0.0,0.0,0.0,0.0,0.0,0.0,0
1676528007346286667,266,1676528007345537579,,0,0,22.416690774107327,114.04280320075868,100.10910034179688,0.0,0.0,0.0,0.0,0.0,0.0,0.0,0.0,0.0,0
1676528007545306126,267,1676528007545062735,,0,0,22.416690784511495,114.0428031965215,100.10215759277344,0.0,0.0,0.0,0.0,0.0,0.0,0.0,0.0,0.0,0
1676528007745478216,268,1676528007745217571,,0,0,22.41669076139267,114.04280321010177,100.10173034667969,0.0,0.0,0.0,0.0,0.0,0.0,0.0,0.0,0.0,0
1676528007945188253,269,1676528007944965078,,0,0,22.416690796749503,114.0428032130432,100.0977554321289,0.0,0.0,0.0,0.0,0.0,0.0,0.0,0.0,0.0,0
1676528008146537690,270,1676528008145861261,,0,0,22.4166907582766,114.04280323448097,100.09286499023438,0.0,0.0,0.0,0.0,0.0,0.0,0.0,0.0,0.0,0
1676528008345921289,271,1676528008345040768,,0,0,22.416690772139603,114.04280324839837,100.09432220458984,0.0,0.0,0.0,0.0,0.0,0.0,0.0,0.0,0.0,0
1676528008545052724,272,1676528008544861295,,0,0,22.41669077535748,114.04280318974489,100.10477447509766,0.0,0.0,0.0,0.0,0.0,0.0,0.0,0.0,0.0,0
1676528008745250133,273,1676528008745006507,,0,0,22.41669076541641,114.04280322956905,100.09989166259766,0.0,0.0,0.0,0.0,0.0,0.0,0.0,0.0,0.0,0
1676528008945715955,274,1676528008945496341,,0,0,22.416690783041098,114.04280321695937,100.1010971069336,0.0,0.0,0.0,0.0,0.0,0.0,0.0,0.0,0.0,0
1676528009145865234,275,1676528009144882374,,0,0,22.41669079159502,114.04280319623618,100.10595703125,0.0,0.0,0.0,0.0,0.0,0.0,0.0,0.0,0.0,0
1676528009346036233,276,1676528009344925144,,0,0,22.416690777820513,114.04280321141488,100.09679412841797,0.0,0.0,0.0,0.0,0.0,0.0,0.0,0.0,0.0,0
1676528009545097296,277,1676528009544868094,,0,0,22.416690787499846,114.04280320716224,100.1039047241211,0.0,0.0,0.0,0.0,0.0,0.0,0.0,0.0,0.0,0
1676528009745672534,278,1676528009745469574,,0,0,22.41669079555055,114.04280318869674,100.10537719726562,0.0,0.0,0.0,0.0,0.0,0.0,0.0,0.0,0.0,0
1676528009945057647,279,1676528009944904319,,0,0,22.416690788222247,114.04280320129658,100.10384368896484,0.0,0.0,0.0,0.0,0.0,0.0,0.0,0.0,0.0,0
1676528010145870265,280,1676528010145061370,,0,0,22.416690702875748,114.04280324650112,100.10355377197266,0.0,0.0,0.0,0.0,0.0,0.0,0.0,0.0,0.0,0
1676528010346496864,281,1676528010345460404,,0,0,22.416690708607394,114.0428032299093,100.11084747314453,0.0,0.0,0.0,0.0,0.0,0.0,0.0,0.0,0.0,0
1676528010545633273,282,1676528010545394161,,0,0,22.41669069883957,114.0428032383346,100.10396575927734,0.0,0.0,0.0,0.0,0.0,0.0,0.0,0.0,0.0,0
1676528010745285901,283,1676528010745042928,,0,0,22.416690665690343,114.04280326676027,100.11170959472656,0.0,0.0,0.0,0.0,0.0,0.0,0.0,0.0,0.0,0
1676528010945787513,284,1676528010945534060,,0,0,22.41669066489565,114.0428032779323,100.10798645019531,0.0,0.0,0.0,0.0,0.0,0.0,0.0,0.0,0.0,0
1676528011145419290,285,1676528011144473918,,0,0,22.41669068811607,114.04280325078966,100.11212158203125,0.0,0.0,0.0,0.0,0.0,0.0,0.0,0.0,0.0,0
1676528011346870761,286,1676528011345910113,,0,0,22.41669068030313,114.0428032464184,100.11353302001953,0.0,0.0,0.0,0.0,0.0,0.0,0.0,0.0,0.0,0
1676528011544884587,287,1676528011544685577,,0,0,22.416690699025885,114.04280326871911,100.10530090332031,0.0,0.0,0.0,0.0,0.0,0.0,0.0,0.0,0.0,0
1676528011744453971,288,1676528011744264428,,0,0,22.416690686001424,114.04280323762164,100.11103820800781,0.0,0.0,0.0,0.0,0.0,0.0,0.0,0.0,0.0,0
1676528011944727969,289,1676528011944538655,,0,0,22.41669070041953,114.04280327687106,100.10211944580078,0.0,0.0,0.0,0.0,0.0,0.0,0.0,0.0,0.0,0
1676528012144391614,290,1676528012144144040,,0,0,22.41669070707589,114.04280325033075,100.10182189941406,0.0,0.0,0.0,0.0,0.0,0.0,0.0,0.0,0.0,0
1676528012345147683,291,1676528012344929618,,0,0,22.41669071427264,114.04280323909012,100.1064682006836,0.0,0.0,0.0,0.0,0.0,0.0,0.0,0.0,0.0,0
1676528012544986961,292,1676528012544770991,,0,0,22.416690699605528,114.04280324109696,100.11042022705078,0.0,0.0,0.0,0.0,0.0,0.0,0.0,0.0,0.0,0
1676528012744170115,293,1676528012744004284,,0,0,22.41669069653465,114.0428032514808,100.11055755615234,0.0,0.0,0.0,0.0,0.0,0.0,0.0,0.0,0.0,0
1676528012944144603,294,1676528012943953870,,0,0,22.4166907092842,114.04280325530124,100.11318969726562,0.0,0.0,0.0,0.0,0.0,0.0,0.0,0.0,0.0,0
1676528013145531057,295,1676528013144696767,,0,0,22.416690704783566,114.0428032598847,100.10443878173828,0.0,0.0,0.0,0.0,0.0,0.0,0.0,0.0,0.0,0
1676528013344349486,296,1676528013344127320,,0,0,22.416690706494464,114.04280324349655,100.10675811767578,0.0,0.0,0.0,0.0,0.0,0.0,0.0,0.0,0.0,0
1676528013544172630,297,1676528013543970920,,0,0,22.416690709210318,114.04280325898876,100.10243225097656,0.0,0.0,0.0,0.0,0.0,0.0,0.0,0.0,0.0,0
1676528013745025678,298,1676528013744808703,,0,0,22.41669071765148,114.0428032501779,100.10448455810547,0.0,0.0,0.0,0.0,0.0,0.0,0.0,0.0,0.0,0
1676528013944471758,299,1676528013944294237,,0,0,22.416690668501133,114.04280327170102,100.10472106933594,0.0,0.0,0.0,0.0,0.0,0.0,0.0,0.0,0.0,0
1676528014144097458,300,1676528014143930611,,0,0,22.416690682403836,114.04280328776785,100.10999298095703,0.0,0.0,0.0,0.0,0.0,0.0,0.0,0.0,0.0,0
1676528014344232468,301,1676528014343964138,,0,0,22.416690675959508,114.04280333058811,100.10203552246094,0.0,0.0,0.0,0.0,0.0,0.0,0.0,0.0,0.0,0
1676528014545064835,302,1676528014544839405,,0,0,22.416690680161388,114.04280332058347,100.10163879394531,0.0,0.0,0.0,0.0,0.0,0.0,0.0,0.0,0.0,0
1676528014743979116,303,1676528014743830842,,0,0,22.4166907155413,114.0428032701512,100.10132598876953,0.0,0.0,0.0,0.0,0.0,0.0,0.0,0.0,0.0,0
1676528014944462498,304,1676528014944182392,,0,0,22.416690680253662,114.0428032915711,100.10640716552734,0.0,0.0,0.0,0.0,0.0,0.0,0.0,0.0,0.0,0
1676528015145104596,305,1676528015144110407,,0,0,22.416690711532386,114.04280330639996,100.10264587402344,0.0,0.0,0.0,0.0,0.0,0.0,0.0,0.0,0.0,0
1676528015345703913,306,1676528015344742824,,0,0,22.41669068695862,114.0428032925405,100.09982299804688,0.0,0.0,0.0,0.0,0.0,0.0,0.0,0.0,0.0,0
1676528015544658423,307,1676528015544414530,,0,0,22.416690707973594,114.04280330891028,100.10293579101562,0.0,0.0,0.0,0.0,0.0,0.0,0.0,0.0,0.0,0
1676528015744229988,308,1676528015744021462,,0,0,22.416690683446767,114.04280332996085,100.10206604003906,0.0,0.0,0.0,0.0,0.0,0.0,0.0,0.0,0.0,0
1676528015944154855,309,1676528015943915551,,0,0,22.416690704340763,114.04280331322295,100.09730529785156,0.0,0.0,0.0,0.0,0.0,0.0,0.0,0.0,0.0,0
1676528016145450195,310,1676528016144384609,,0,0,22.416690698576367,114.0428033261756,100.0947265625,0.0,0.0,0.0,0.0,0.0,0.0,0.0,0.0,0.0,0
1676528016344191863,311,1676528016343976176,,0,0,22.416690704373842,114.04280331473485,100.09539031982422,0.0,0.0,0.0,0.0,0.0,0.0,0.0,0.0,0.0,0
1676528016545023527,312,1676528016544802130,,0,0,22.416690708328986,114.04280328555804,100.09320831298828,0.0,0.0,0.0,0.0,0.0,0.0,0.0,0.0,0.0,0
1676528016744871944,313,1676528016744669779,,0,0,22.41669071780249,114.04280329210631,100.09387969970703,0.0,0.0,0.0,0.0,0.0,0.0,0.0,0.0,0.0,0
1676528016944229624,314,1676528016943937910,,0,0,22.41669070022822,114.04280330999732,100.08172607421875,0.0,0.0,0.0,0.0,0.0,0.0,0.0,0.0,0.0,0
1676528017145357659,315,1676528017144295796,,0,0,22.416690729803115,114.0428033009191,100.08641815185547,0.0,0.0,0.0,0.0,0.0,0.0,0.0,0.0,0.0,0
1676528017344700072,316,1676528017344212690,,0,0,22.41669071850818,114.04280330358414,100.08863830566406,0.0,0.0,0.0,0.0,0.0,0.0,0.0,0.0,0.0,0
1676528017544211352,317,1676528017544002820,,0,0,22.416690705155133,114.04280330982522,100.08507537841797,0.0,0.0,0.0,0.0,0.0,0.0,0.0,0.0,0.0,0
1676528017744712577,318,1676528017744444205,,0,0,22.416690711075365,114.0428033250402,100.07571411132812,0.0,0.0,0.0,0.0,0.0,0.0,0.0,0.0,0.0,0
1676528017944850181,319,1676528017944636335,,0,0,22.416690720753163,114.04280330693705,100.07762145996094,0.0,0.0,0.0,0.0,0.0,0.0,0.0,0.0,0.0,0
1676528018144769777,320,1676528018143878725,,0,0,22.416690712737093,114.04280332928049,100.06800079345703,0.0,0.0,0.0,0.0,0.0,0.0,0.0,0.0,0.0,0
1676528018344116552,321,1676528018343922715,,0,0,22.416690694003435,114.04280333297199,100.07062530517578,0.0,0.0,0.0,0.0,0.0,0.0,0.0,0.0,0.0,0
1676528018544787497,322,1676528018544546071,,0,0,22.41669068468598,114.04280334509804,100.0682601928711,0.0,0.0,0.0,0.0,0.0,0.0,0.0,0.0,0.0,0
1676528018744819913,323,1676528018744624561,,0,0,22.41669069135225,114.04280333029482,100.07206726074219,0.0,0.0,0.0,0.0,0.0,0.0,0.0,0.0,0.0,0
1676528018944566420,324,1676528018944336948,,0,0,22.416690685013506,114.04280333817195,100.06806182861328,0.0,0.0,0.0,0.0,0.0,0.0,0.0,0.0,0.0,0
1676528019145341637,325,1676528019144337802,,0,0,22.416690700031687,114.04280331717128,100.06969451904297,0.0,0.0,0.0,0.0,0.0,0.0,0.0,0.0,0.0,0
1676528019344768361,326,1676528019344554149,,0,0,22.416690694165396,114.042803319113,100.05911254882812,0.0,0.0,0.0,0.0,0.0,0.0,0.0,0.0,0.0,0
1676528019545378345,327,1676528019544861086,,0,0,22.416690698429317,114.04280331552074,100.0545654296875,0.0,0.0,0.0,0.0,0.0,0.0,0.0,0.0,0.0,0
1676528019744770358,328,1676528019744600046,,0,0,22.41669069720109,114.04280331667078,100.06004333496094,0.0,0.0,0.0,0.0,0.0,0.0,0.0,0.0,0.0,0
1676528019945002583,329,1676528019944822540,,0,0,22.41669069412804,114.042803307753,100.05335998535156,0.0,0.0,0.0,0.0,0.0,0.0,0.0,0.0,0.0,0
1676528020145303842,330,1676528020144529469,,0,0,22.41669070303858,114.04280331883466,100.05540466308594,0.0,0.0,0.0,0.0,0.0,0.0,0.0,0.0,0.0,0
1676528020344953034,331,1676528020344390491,,0,0,22.41669070804971,114.04280333700432,100.04660034179688,0.0,0.0,0.0,0.0,0.0,0.0,0.0,0.0,0.0,0
1676528020544548597,332,1676528020544347534,,0,0,22.41669071059847,114.04280332335492,100.0493392944336,0.0,0.0,0.0,0.0,0.0,0.0,0.0,0.0,0.0,0
1676528020744017987,333,1676528020743777452,,0,0,22.416690714576507,114.0428033137027,100.04620361328125,0.0,0.0,0.0,0.0,0.0,0.0,0.0,0.0,0.0,0
1676528020945536290,334,1676528020944684585,,0,0,22.416690722120848,114.04280332334694,100.04120635986328,0.0,0.0,0.0,0.0,0.0,0.0,0.0,0.0,0.0,0
1676528021145420777,335,1676528021144750553,,0,0,22.416690703699025,114.04280334861055,100.0444564819336,0.0,0.0,0.0,0.0,0.0,0.0,0.0,0.0,0.0,0
1676528021344232211,336,1676528021344026354,,0,0,22.416690706892904,114.04280332313611,100.04989624023438,0.0,0.0,0.0,0.0,0.0,0.0,0.0,0.0,0.0,0
1676528021545064853,337,1676528021544754884,,0,0,22.416690700292673,114.04280331505704,100.04826354980469,0.0,0.0,0.0,0.0,0.0,0.0,0.0,0.0,0.0,0
1676528021744508025,338,1676528021744290313,,0,0,22.416690711753997,114.0428033269931,100.04833984375,0.0,0.0,0.0,0.0,0.0,0.0,0.0,0.0,0.0,0
1676528021944517246,339,1676528021944338922,,0,0,22.41669070958913,114.0428033137747,100.04548645019531,0.0,0.0,0.0,0.0,0.0,0.0,0.0,0.0,0.0,0
1676528022145274039,340,1676528022144604179,,0,0,22.416690722555813,114.0428033165479,100.03923034667969,0.0,0.0,0.0,0.0,0.0,0.0,0.0,0.0,0.0,0
1676528022345113457,341,1676528022344463703,,0,0,22.416690711251807,114.0428033049352,100.0467529296875,0.0,0.0,0.0,0.0,0.0,0.0,0.0,0.0,0.0,0
1676528022544737223,342,1676528022544435186,,0,0,22.41669071174275,114.04280330790259,100.0418472290039,0.0,0.0,0.0,0.0,0.0,0.0,0.0,0.0,0.0,0
1676528022744372696,343,1676528022744142756,,0,0,22.416690712507673,114.04280332881083,100.03742218017578,0.0,0.0,0.0,0.0,0.0,0.0,0.0,0.0,0.0,0
1676528022944676321,344,1676528022944483787,,0,0,22.41669071377582,114.04280333026374,100.03440856933594,0.0,0.0,0.0,0.0,0.0,0.0,0.0,0.0,0.0,0
1676528023145576483,345,1676528023144868277,,0,0,22.41669071092926,114.04280330036056,100.0379867553711,0.0,0.0,0.0,0.0,0.0,0.0,0.0,0.0,0.0,0
1676528023345228828,346,1676528023344544186,,0,0,22.416690688728718,114.04280328589336,100.08159637451172,0.0,0.0,0.0,0.0,0.0,0.0,0.0,0.0,0.0,0
1676528023544937537,347,1676528023544665964,,0,0,22.416690717783787,114.04280326807252,100.08482360839844,0.0,0.0,0.0,0.0,0.0,0.0,0.0,0.0,0.0,0
1676528023744336599,348,1676528023744149355,,0,0,22.41669070990283,114.04280328972972,100.08110046386719,0.0,0.0,0.0,0.0,0.0,0.0,0.0,0.0,0.0,0
1676528023944839471,349,1676528023944631833,,0,0,22.416690709537466,114.0428032919906,100.08486938476562,0.0,0.0,0.0,0.0,0.0,0.0,0.0,0.0,0.0,0
1676528024145894838,350,1676528024144959139,,0,0,22.416690696678497,114.04280328980559,100.07679748535156,0.0,0.0,0.0,0.0,0.0,0.0,0.0,0.0,0.0,0
1676528024344382754,351,1676528024344162841,,0,0,22.41669068452113,114.04280324560939,100.09243774414062,0.0,0.0,0.0,0.0,0.0,0.0,0.0,0.0,0.0,0
1676528024545037615,352,1676528024544617454,,0,0,22.416690691437243,114.04280325426737,100.07674407958984,0.0,0.0,0.0,0.0,0.0,0.0,0.0,0.0,0.0,0
1676528024744255350,353,1676528024744040863,,0,0,22.416690709101285,114.04280325823652,100.07695007324219,0.0,0.0,0.0,0.0,0.0,0.0,0.0,0.0,0.0,0
1676528024944406908,354,1676528024944083422,,0,0,22.416690720726073,114.04280326498838,100.08170318603516,0.0,0.0,0.0,0.0,0.0,0.0,0.0,0.0,0.0,0
1676528025145401410,355,1676528025144527238,,0,0,22.416690715642133,114.04280326209862,100.0738754272461,0.0,0.0,0.0,0.0,0.0,0.0,0.0,0.0,0.0,0
1676528025345005451,356,1676528025344313574,,0,0,22.41669070912382,114.04280327184775,100.07542419433594,0.0,0.0,0.0,0.0,0.0,0.0,0.0,0.0,0.0,0
1676528025544567928,357,1676528025544374295,,0,0,22.416690698453877,114.04280324951222,100.0716323852539,0.0,0.0,0.0,0.0,0.0,0.0,0.0,0.0,0.0,0
1676528025744556224,358,1676528025744343992,,0,0,22.416690730646245,114.04280325448927,100.0718002319336,0.0,0.0,0.0,0.0,0.0,0.0,0.0,0.0,0.0,0
1676528025944177821,359,1676528025943942864,,0,0,22.416690706282257,114.04280326176423,100.06684112548828,0.0,0.0,0.0,0.0,0.0,0.0,0.0,0.0,0.0,0
1676528026144929851,360,1676528026143957024,,0,0,22.416690720052777,114.04280332907241,100.08792877197266,0.0,0.0,0.0,0.0,0.0,0.0,0.0,0.0,0.0,0
1676528026344764623,361,1676528026344591764,,0,0,22.416690735345377,114.04280331783198,100.09113311767578,0.0,0.0,0.0,0.0,0.0,0.0,0.0,0.0,0.0,0
1676528026545680753,362,1676528026544692913,,0,0,22.416690737084654,114.0428033713951,100.08060455322266,0.0,0.0,0.0,0.0,0.0,0.0,0.0,0.0,0.0,0
1676528026744854802,363,1676528026744607888,,0,0,22.416690757585695,114.04280337378039,100.0785140991211,0.0,0.0,0.0,0.0,0.0,0.0,0.0,0.0,0.0,0
1676528026944423810,364,1676528026944264180,,0,0,22.41669075803673,114.04280338207127,100.08660125732422,0.0,0.0,0.0,0.0,0.0,0.0,0.0,0.0,0.0,0
1676528027145224845,365,1676528027144336732,,0,0,22.416690759599668,114.04280341788129,100.07762908935547,0.0,0.0,0.0,0.0,0.0,0.0,0.0,0.0,0.0,0
1676528027344375131,366,1676528027344153749,,0,0,22.416690754299864,114.04280336273524,100.0793685913086,0.0,0.0,0.0,0.0,0.0,0.0,0.0,0.0,0.0,0
1676528027544236897,367,1676528027544010234,,0,0,22.416690763364997,114.04280336725245,100.07396697998047,0.0,0.0,0.0,0.0,0.0,0.0,0.0,0.0,0.0,0
1676528027744692075,368,1676528027744381789,,0,0,22.416690787628824,114.04280339010384,100.07947540283203,0.0,0.0,0.0,0.0,0.0,0.0,0.0,0.0,0.0,0
1676528027944635383,369,1676528027944408879,,0,0,22.416690771715448,114.04280336053579,100.07401275634766,0.0,0.0,0.0,0.0,0.0,0.0,0.0,0.0,0.0,0
1676528028145637247,370,1676528028144780271,,0,0,22.416690769760717,114.04280333805478,100.08910369873047,0.0,0.0,0.0,0.0,0.0,0.0,0.0,0.0,0.0,0
1676528028344231700,371,1676528028343887532,,0,0,22.416690778803414,114.04280336569657,100.08090209960938,0.0,0.0,0.0,0.0,0.0,0.0,0.0,0.0,0.0,0
1676528028544706922,372,1676528028544458746,,0,0,22.416690767140324,114.04280334334088,100.0854721069336,0.0,0.0,0.0,0.0,0.0,0.0,0.0,0.0,0.0,0
1676528028744094564,373,1676528028743881890,,0,0,22.41669078135002,114.04280332311498,100.08433532714844,0.0,0.0,0.0,0.0,0.0,0.0,0.0,0.0,0.0,0
1676528028944543494,374,1676528028944354340,,0,0,22.41669080942271,114.04280334597647,100.0852279663086,0.0,0.0,0.0,0.0,0.0,0.0,0.0,0.0,0.0,0
1676528029145400516,375,1676528029144634125,,0,0,22.416690796290204,114.04280333627204,100.08109283447266,0.0,0.0,0.0,0.0,0.0,0.0,0.0,0.0,0.0,0
1676528029344805217,376,1676528029344451274,,0,0,22.4166908143721,114.04280334234967,100.08475494384766,0.0,0.0,0.0,0.0,0.0,0.0,0.0,0.0,0.0,0
1676528029544228042,377,1676528029543968523,,0,0,22.41669080740287,114.04280331720832,100.08438110351562,0.0,0.0,0.0,0.0,0.0,0.0,0.0,0.0,0.0,0
1676528029744271441,378,1676528029744027917,,0,0,22.416690807550413,114.0428033855595,100.07640075683594,0.0,0.0,0.0,0.0,0.0,0.0,0.0,0.0,0.0,0
1676528029944310595,379,1676528029944112967,,0,0,22.416690841941545,114.04280331521946,100.08008575439453,0.0,0.0,0.0,0.0,0.0,0.0,0.0,0.0,0.0,0
1676528030145124137,380,1676528030144229824,,0,0,22.4166907485955,114.04280333003503,100.08794403076172,0.0,0.0,0.0,0.0,0.0,0.0,0.0,0.0,0.0,0
1676528030345645210,381,1676528030344843256,,0,0,22.416690749117162,114.04280338080969,100.09829711914062,0.0,0.0,0.0,0.0,0.0,0.0,0.0,0.0,0.0,0
1676528030544207169,382,1676528030543996241,,0,0,22.416690789129177,114.04280336627247,100.09017181396484,0.0,0.0,0.0,0.0,0.0,0.0,0.0,0.0,0.0,0
1676528030744919601,383,1676528030744668948,,0,0,22.416690796410695,114.04280334486994,100.08747100830078,0.0,0.0,0.0,0.0,0.0,0.0,0.0,0.0,0.0,0
1676528030944502082,384,1676528030944330829,,0,0,22.416690821796713,114.04280335847737,100.06988525390625,0.0,0.0,0.0,0.0,0.0,0.0,0.0,0.0,0.0,0
1676528031144552793,385,1676528031143814220,,0,0,22.416690796043277,114.04280332072655,100.08433532714844,0.0,0.0,0.0,0.0,0.0,0.0,0.0,0.0,0.0,0
1676528031345057500,386,1676528031344423955,,0,0,22.416690780861916,114.04280328177518,100.07710266113281,0.0,0.0,0.0,0.0,0.0,0.0,0.0,0.0,0.0,0
1676528031544491272,387,1676528031544299308,,0,0,22.41669076970012,114.04280335010134,100.0484848022461,0.0,0.0,0.0,0.0,0.0,0.0,0.0,0.0,0.0,0
1676528031744884342,388,1676528031744655620,,0,0,22.416690777994134,114.04280330820427,100.05943298339844,0.0,0.0,0.0,0.0,0.0,0.0,0.0,0.0,0.0,0
1676528031944226211,389,1676528031944051633,,0,0,22.416690748170602,114.04280329809906,100.07432556152344,0.0,0.0,0.0,0.0,0.0,0.0,0.0,0.0,0.0,0
1676528032144619705,390,1676528032143799187,,0,0,22.416690728849062,114.04280317361606,100.07621765136719,0.0,0.0,0.0,0.0,0.0,0.0,0.0,0.0,0.0,0
1676528032345225846,391,1676528032344500910,,0,0,22.416690714665126,114.04280317412812,100.08150482177734,0.0,0.0,0.0,0.0,0.0,0.0,0.0,0.0,0.0,0
1676528032545226101,392,1676528032544583624,,0,0,22.416690714846613,114.042803133196,100.07817077636719,0.0,0.0,0.0,0.0,0.0,0.0,0.0,0.0,0.0,0
1676528032744812449,393,1676528032744627166,,0,0,22.416690706028085,114.04280314807855,100.08158111572266,0.0,0.0,0.0,0.0,0.0,0.0,0.0,0.0,0.0,0
1676528032944318954,394,1676528032944127776,,0,0,22.416690725872808,114.04280312551599,100.0761489868164,0.0,0.0,0.0,0.0,0.0,0.0,0.0,0.0,0.0,0
1676528033144916124,395,1676528033144171836,,0,0,22.416690722257353,114.04280313208895,100.07938385009766,0.0,0.0,0.0,0.0,0.0,0.0,0.0,0.0,0.0,0
1676528033345133081,396,1676528033344414137,,0,0,22.41669074391351,114.04280313965943,100.0776138305664,0.0,0.0,0.0,0.0,0.0,0.0,0.0,0.0,0.0,0
1676528033544673101,397,1676528033544455963,,0,0,22.416690771661198,114.04280315762443,100.07460021972656,0.0,0.0,0.0,0.0,0.0,0.0,0.0,0.0,0.0,0
1676528033744766198,398,1676528033744542460,,0,0,22.41669074764218,114.04280314548016,100.06298828125,0.0,0.0,0.0,0.0,0.0,0.0,0.0,0.0,0.0,0
1676528033944330779,399,1676528033944158966,,0,0,22.416690756118964,114.0428031833695,100.0459213256836,0.0,0.0,0.0,0.0,0.0,0.0,0.0,0.0,0.0,0
1676528034144046891,400,1676528034143869168,,0,0,22.416690776437093,114.04280310861874,100.05557250976562,0.0,0.0,0.0,0.0,0.0,0.0,0.0,0.0,0.0,0
1676528034344756410,401,1676528034344104547,,0,0,22.4166907551309,114.04280310416905,100.05889129638672,0.0,0.0,0.0,0.0,0.0,0.0,0.0,0.0,0.0,0
1676528034544300516,402,1676528034544062155,,0,0,22.416690768858786,114.04280313986213,100.05347442626953,0.0,0.0,0.0,0.0,0.0,0.0,0.0,0.0,0.0,0
1676528034744040566,403,1676528034743834916,,0,0,22.416690802329615,114.0428031023533,100.063232421875,0.0,0.0,0.0,0.0,0.0,0.0,0.0,0.0,0.0,0
1676528034944220426,404,1676528034944008063,,0,0,22.416690791405575,114.0428031394314,100.06605529785156,0.0,0.0,0.0,0.0,0.0,0.0,0.0,0.0,0.0,0
1676528035145419574,405,1676528035144650795,,0,0,22.41669078676687,114.04280313067278,100.0665512084961,0.0,0.0,0.0,0.0,0.0,0.0,0.0,0.0,0.0,0
1676528035345544096,406,1676528035344741304,,0,0,22.41669078034537,114.04280313487243,100.07264709472656,0.0,0.0,0.0,0.0,0.0,0.0,0.0,0.0,0.0,0
1676528035544180111,407,1676528035543992293,,0,0,22.41669079729576,114.04280338178052,100.10250854492188,0.0,0.0,0.0,0.0,0.0,0.0,0.0,0.0,0.0,0
1676528035744695770,408,1676528035744431903,,0,0,22.416690765574888,114.04280334531026,100.08917999267578,0.0,0.0,0.0,0.0,0.0,0.0,0.0,0.0,0.0,0
1676528035944351108,409,1676528035944124351,,0,0,22.416690817359505,114.04280336575097,100.07954406738281,0.0,0.0,0.0,0.0,0.0,0.0,0.0,0.0,0.0,0
1676528036144998686,410,1676528036144083019,,0,0,22.416690843345137,114.04280336029383,100.07652282714844,0.0,0.0,0.0,0.0,0.0,0.0,0.0,0.0,0.0,0
1676528036344221256,411,1676528036343922337,,0,0,22.41669081398892,114.04280332987894,100.07826232910156,0.0,0.0,0.0,0.0,0.0,0.0,0.0,0.0,0.0,0
1676528036544532615,412,1676528036544325391,,0,0,22.416690813494277,114.04280326143726,100.0840835571289,0.0,0.0,0.0,0.0,0.0,0.0,0.0,0.0,0.0,0
1676528036744668799,413,1676528036744439720,,0,0,22.416690821147128,114.04280334441889,100.0752944946289,0.0,0.0,0.0,0.0,0.0,0.0,0.0,0.0,0.0,0
1676528036944034142,414,1676528036943886768,,0,0,22.41669080820614,114.04280331349948,100.07225799560547,0.0,0.0,0.0,0.0,0.0,0.0,0.0,0.0,0.0,0
1676528037145221405,415,1676528037144269863,,0,0,22.4166908108322,114.0428033109912,100.07118225097656,0.0,0.0,0.0,0.0,0.0,0.0,0.0,0.0,0.0,0
1676528037344087661,416,1676528037343859546,,0,0,22.416690822762753,114.04280331376208,100.06675720214844,0.0,0.0,0.0,0.0,0.0,0.0,0.0,0.0,0.0,0
1676528037545257063,417,1676528037544304699,,0,0,22.41669079858607,114.0428033329603,100.06439208984375,0.0,0.0,0.0,0.0,0.0,0.0,0.0,0.0,0.0,0
1676528037744338069,418,1676528037744156545,,0,0,22.416690805597643,114.04280331714341,100.06092834472656,0.0,0.0,0.0,0.0,0.0,0.0,0.0,0.0,0.0,0
1676528037944347631,419,1676528037944084588,,0,0,22.41669069819587,114.0428032828707,100.08123016357422,0.0,0.0,0.0,0.0,0.0,0.0,0.0,0.0,0.0,0
1676528038145022903,420,1676528038144162719,,0,0,22.416690665111133,114.04280327748084,100.08300018310547,0.0,0.0,0.0,0.0,0.0,0.0,0.0,0.0,0.0,0
1676528038344933550,421,1676528038344384407,,0,0,22.416690651124934,114.04280329635152,100.09032440185547,0.0,0.0,0.0,0.0,0.0,0.0,0.0,0.0,0.0,0
1676528038544232758,422,1676528038543977929,,0,0,22.416690640088987,114.04280331183926,100.08033752441406,0.0,0.0,0.0,0.0,0.0,0.0,0.0,0.0,0.0,0
1676528038744903352,423,1676528038744687439,,0,0,22.416690650224957,114.0428032995078,100.08334350585938,0.0,0.0,0.0,0.0,0.0,0.0,0.0,0.0,0.0,0
1676528038943988780,424,1676528038943792336,,0,0,22.416690663434537,114.04280330856396,100.07997131347656,0.0,0.0,0.0,0.0,0.0,0.0,0.0,0.0,0.0,0
1676528039144603035,425,1676528039143951655,,0,0,22.41669066043329,114.04280332271699,100.07908630371094,0.0,0.0,0.0,0.0,0.0,0.0,0.0,0.0,0.0,0
1676528039345341782,426,1676528039344492794,,0,0,22.416690670328773,114.04280329974637,100.08343505859375,0.0,0.0,0.0,0.0,0.0,0.0,0.0,0.0,0.0,0
1676528039544069897,427,1676528039543862027,,0,0,22.41669065125308,114.04280332298487,100.07426452636719,0.0,0.0,0.0,0.0,0.0,0.0,0.0,0.0,0.0,0
1676528039744503463,428,1676528039744289785,,0,0,22.416690651827512,114.04280329737767,100.078125,0.0,0.0,0.0,0.0,0.0,0.0,0.0,0.0,0.0,0
1676528039944832523,429,1676528039944580131,,0,0,22.4166906437759,114.04280328275536,100.08250427246094,0.0,0.0,0.0,0.0,0.0,0.0,0.0,0.0,0.0,0
1676528040144878734,430,1676528040144635534,,0,0,22.41669063505317,114.04280329920569,100.07642364501953,0.0,0.0,0.0,0.0,0.0,0.0,0.0,0.0,0.0,0
1676528040344903186,431,1676528040344178232,,0,0,22.41669067578647,114.04280330442359,100.0811996459961,0.0,0.0,0.0,0.0,0.0,0.0,0.0,0.0,0.0,0
1676528040544036829,432,1676528040543801407,,0,0,22.41669065886722,114.04280330303719,100.07711791992188,0.0,0.0,0.0,0.0,0.0,0.0,0.0,0.0,0.0,0
1676528040743611887,433,1676528040743262995,,0,0,22.416690657099842,114.04280329676543,100.0757064819336,0.0,0.0,0.0,0.0,0.0,0.0,0.0,0.0,0.0,0
1676528040944816189,434,1676528040944608640,,0,0,22.41669066653846,114.0428033133774,100.07357788085938,0.0,0.0,0.0,0.0,0.0,0.0,0.0,0.0,0.0,0
1676528041144525916,435,1676528041143600168,,0,0,22.4166906474547,114.0428033131029,100.06221771240234,0.0,0.0,0.0,0.0,0.0,0.0,0.0,0.0,0.0,0
1676528041344537568,436,1676528041343890825,,0,0,22.416690644585522,114.04280332056913,100.06063079833984,0.0,0.0,0.0,0.0,0.0,0.0,0.0,0.0,0.0,0
1676528041544011155,437,1676528041543807490,,0,0,22.41669065176223,114.04280331642252,100.06636810302734,0.0,0.0,0.0,0.0,0.0,0.0,0.0,0.0,0.0,0
1676528041743508621,438,1676528041743231041,,0,0,22.416690634414206,114.04280328786975,100.06857299804688,0.0,0.0,0.0,0.0,0.0,0.0,0.0,0.0,0.0,0
1676528041943608985,439,1676528041943104743,,0,0,22.41669073258697,114.0428033091685,100.10052490234375,0.0,0.0,0.0,0.0,0.0,0.0,0.0,0.0,0.0,0
1676528042144036925,440,1676528042143251507,,0,0,22.416690712623986,114.04280327822883,100.1012191772461,0.0,0.0,0.0,0.0,0.0,0.0,0.0,0.0,0.0,0
1676528042343340043,441,1676528042343095901,,0,0,22.416690724144544,114.04280328276447,100.10284423828125,0.0,0.0,0.0,0.0,0.0,0.0,0.0,0.0,0.0,0
1676528042543262708,442,1676528042543018145,,0,0,22.41669072389086,114.04280332178135,100.09961700439453,0.0,0.0,0.0,0.0,0.0,0.0,0.0,0.0,0.0,0
1676528042743184444,443,1676528042743005769,,0,0,22.416690691378896,114.04280329153833,100.09898376464844,0.0,0.0,0.0,0.0,0.0,0.0,0.0,0.0,0.0,0
1676528042943861863,444,1676528042943646236,,0,0,22.416690708798708,114.04280320451156,100.1035385131836,0.0,0.0,0.0,0.0,0.0,0.0,0.0,0.0,0.0,0
1676528043144344104,445,1676528043143632890,,0,0,22.41669067425163,114.04280306084787,100.10153198242188,0.0,0.0,0.0,0.0,0.0,0.0,0.0,0.0,0.0,0
1676528043343243702,446,1676528043342985088,,0,0,22.416690648650615,114.042803111026,100.10169982910156,0.0,0.0,0.0,0.0,0.0,0.0,0.0,0.0,0.0,0
1676528043543085749,447,1676528043542834041,,0,0,22.416690367660223,114.0428031821837,100.02851104736328,0.0,0.0,0.0,0.0,0.0,0.0,0.0,0.0,0.0,0
1676528043743553962,448,1676528043743351567,,0,0,22.41669058568551,114.04280328693689,100.08323669433594,0.0,0.0,0.0,0.0,0.0,0.0,0.0,0.0,0.0,0
1676528043943490917,449,1676528043943231290,,0,0,22.416690600719857,114.0428032953863,100.09247589111328,0.0,0.0,0.0,0.0,0.0,0.0,0.0,0.0,0.0,0
1676528044144082270,450,1676528044143257390,,0,0,22.416690640769595,114.04280326681912,100.10317993164062,0.0,0.0,0.0,0.0,0.0,0.0,0.0,0.0,0.0,0
1676528044343667395,451,1676528044343375792,,0,0,22.416690643009442,114.0428032180465,100.126953125,0.0,0.0,0.0,0.0,0.0,0.0,0.0,0.0,0.0,0
1676528044543844406,452,1676528044543623207,,0,0,22.41669062277908,114.0428032753665,100.1226577758789,0.0,0.0,0.0,0.0,0.0,0.0,0.0,0.0,0.0,0
1676528044743564120,453,1676528044743334180,,0,0,22.416690218546893,114.04280327260003,99.97941589355469,0.0,0.0,0.0,0.0,0.0,0.0,0.0,0.0,0.0,0
1676528044943563377,454,1676528044943206791,,0,0,22.416690601055677,114.04280317510458,100.01347351074219,0.0,0.0,0.0,0.0,0.0,0.0,0.0,0.0,0.0,0
1676528045143937270,455,1676528045143055159,,0,0,22.416690567127993,114.04280316244295,100.0062255859375,0.0,0.0,0.0,0.0,0.0,0.0,0.0,0.0,0.0,0
1676528045343172962,456,1676528045342990097,,0,0,22.41669062486179,114.04280306596625,100.00498962402344,0.0,0.0,0.0,0.0,0.0,0.0,0.0,0.0,0.0,0
1676528045543917329,457,1676528045543622702,,0,0,22.416690606762007,114.04280304984233,100.01587677001953,0.0,0.0,0.0,0.0,0.0,0.0,0.0,0.0,0.0,0
1676528045743968695,458,1676528045743753521,,0,0,22.416690596098757,114.04280306843408,100.01177215576172,0.0,0.0,0.0,0.0,0.0,0.0,0.0,0.0,0.0,0
1676528045943505065,459,1676528045943195970,,0,0,22.416690688046167,114.0428032870615,100.073974609375,0.0,0.0,0.0,0.0,0.0,0.0,0.0,0.0,0.0,0
1676528046143990161,460,1676528046143229756,,0,0,22.416690676584974,114.04280332804788,100.07856750488281,0.0,0.0,0.0,0.0,0.0,0.0,0.0,0.0,0.0,0
1676528046344248321,461,1676528046343715913,,0,0,22.416690653815692,114.04280331538267,100.07669830322266,0.0,0.0,0.0,0.0,0.0,0.0,0.0,0.0,0.0,0
1676528046543869375,462,1676528046543629116,,0,0,22.416690611037712,114.04280334477498,100.05540466308594,0.0,0.0,0.0,0.0,0.0,0.0,0.0,0.0,0.0,0
1676528046743505302,463,1676528046743293379,,0,0,22.416690624175885,114.04280332337876,100.05559539794922,0.0,0.0,0.0,0.0,0.0,0.0,0.0,0.0,0.0,0
1676528046943632824,464,1676528046943417689,,0,0,22.416690611431815,114.04280332263369,100.05427551269531,0.0,0.0,0.0,0.0,0.0,0.0,0.0,0.0,0.0,0
1676528047144469104,465,1676528047143770855,,0,0,22.416690604108805,114.04280331652275,100.0545883178711,0.0,0.0,0.0,0.0,0.0,0.0,0.0,0.0,0.0,0
1676528047343622472,466,1676528047343413432,,0,0,22.416690581516455,114.04280332486948,100.04011535644531,0.0,0.0,0.0,0.0,0.0,0.0,0.0,0.0,0.0,0
1676528047543798367,467,1676528047543545669,,0,0,22.4166906288522,114.04280330105321,100.04489135742188,0.0,0.0,0.0,0.0,0.0,0.0,0.0,0.0,0.0,0
1676528047743265430,468,1676528047743053082,,0,0,22.41669059859257,114.04280331797253,100.04965209960938,0.0,0.0,0.0,0.0,0.0,0.0,0.0,0.0,0.0,0
1676528047943337198,469,1676528047942973194,,0,0,22.416690510879583,114.04280332307646,100.0347900390625,0.0,0.0,0.0,0.0,0.0,0.0,0.0,0.0,0.0,0
1676528048144295936,470,1676528048143516057,,0,0,22.41669052758085,114.04280328689606,100.05046844482422,0.0,0.0,0.0,0.0,0.0,0.0,0.0,0.0,0.0,0
1676528048343008034,471,1676528048342834248,,0,0,22.416690514516315,114.04280331993132,100.0455322265625,0.0,0.0,0.0,0.0,0.0,0.0,0.0,0.0,0.0,0
1676528048543400903,472,1676528048543180134,,0,0,22.416690523523076,114.0428032983546,100.04399108886719,0.0,0.0,0.0,0.0,0.0,0.0,0.0,0.0,0.0,0
1676528048743776139,473,1676528048743532987,,0,0,22.416690527175433,114.0428033019802,100.03968811035156,0.0,0.0,0.0,0.0,0.0,0.0,0.0,0.0,0.0,0
1676528048943906546,474,1676528048943661272,,0,0,22.41669053954322,114.04280330389508,100.0347671508789,0.0,0.0,0.0,0.0,0.0,0.0,0.0,0.0,0.0,0
1676528049143454780,475,1676528049142809359,,0,0,22.416690519106957,114.04280333937702,100.02831268310547,0.0,0.0,0.0,0.0,0.0,0.0,0.0,0.0,0.0,0
1676528049343854027,476,1676528049343079059,,0,0,22.41669053307238,114.04280333554318,100.02531433105469,0.0,0.0,0.0,0.0,0.0,0.0,0.0,0.0,0.0,0
1676528049543077141,477,1676528049542890658,,0,0,22.4166905394499,114.04280328718102,100.0300064086914,0.0,0.0,0.0,0.0,0.0,0.0,0.0,0.0,0.0,0
1676528049743525430,478,1676528049743310234,,0,0,22.416690515775993,114.04280331557761,100.01590728759766,0.0,0.0,0.0,0.0,0.0,0.0,0.0,0.0,0.0,0
1676528049943212132,479,1676528049942933488,,0,0,22.416690509962145,114.04280332126376,100.01622772216797,0.0,0.0,0.0,0.0,0.0,0.0,0.0,0.0,0.0,0
1676528050144028635,480,1676528050143416700,,0,0,22.41669053486758,114.0428033218171,100.0199966430664,0.0,0.0,0.0,0.0,0.0,0.0,0.0,0.0,0.0,0
1676528050342811840,481,1676528050342648030,,0,0,22.416690507284194,114.04280332431179,100.01624298095703,0.0,0.0,0.0,0.0,0.0,0.0,0.0,0.0,0.0,0
1676528050544292638,482,1676528050543764748,,0,0,22.4166905096912,114.04280330644069,100.0173110961914,0.0,0.0,0.0,0.0,0.0,0.0,0.0,0.0,0.0,0
1676528050743628810,483,1676528050743397181,,0,0,22.416690496353592,114.04280332396932,100.00712585449219,0.0,0.0,0.0,0.0,0.0,0.0,0.0,0.0,0.0,0
1676528050943456176,484,1676528050943129976,,0,0,22.41669050375595,114.04280332701667,100.00543212890625,0.0,0.0,0.0,0.0,0.0,0.0,0.0,0.0,0.0,0
1676528051144023787,485,1676528051143250130,,0,0,22.416690497178568,114.04280333773845,100.00000762939453,0.0,0.0,0.0,0.0,0.0,0.0,0.0,0.0,0.0,0
1676528051344294305,486,1676528051343321840,,0,0,22.416690626961277,114.04280330679124,100.05256652832031,0.0,0.0,0.0,0.0,0.0,0.0,0.0,0.0,0.0,0
1676528051543537267,487,1676528051543302254,,0,0,22.416690626441138,114.04280330490012,100.05321502685547,0.0,0.0,0.0,0.0,0.0,0.0,0.0,0.0,0.0,0
1676528051743393167,488,1676528051743132990,,0,0,22.416690605116457,114.04280331390204,100.04854583740234,0.0,0.0,0.0,0.0,0.0,0.0,0.0,0.0,0.0,0
1676528051943256670,489,1676528051942906959,,0,0,22.41669062173274,114.04280330206882,100.054931640625,0.0,0.0,0.0,0.0,0.0,0.0,0.0,0.0,0.0,0
1676528052144403036,490,1676528052143757200,,0,0,22.416690628432136,114.04280330407444,100.04686737060547,0.0,0.0,0.0,0.0,0.0,0.0,0.0,0.0,0.0,0
1676528052343726446,491,1676528052343428305,,0,0,22.416690597341816,114.0428033098557,100.04987335205078,0.0,0.0,0.0,0.0,0.0,0.0,0.0,0.0,0.0,0
1676528052543666594,492,1676528052543342253,,0,0,22.41669059792681,114.04280328896955,100.05182647705078,0.0,0.0,0.0,0.0,0.0,0.0,0.0,0.0,0.0,0
1676528052743306911,493,1676528052743120481,,0,0,22.416690609082828,114.04280328127368,100.05582427978516,0.0,0.0,0.0,0.0,0.0,0.0,0.0,0.0,0.0,0
1676528052943976192,494,1676528052943773233,,0,0,22.4166906045689,114.04280327270546,100.05598449707031,0.0,0.0,0.0,0.0,0.0,0.0,0.0,0.0,0.0,0
1676528053144700681,495,1676528053143905010,,0,0,22.416690595417606,114.04280327083973,100.05548095703125,0.0,0.0,0.0,0.0,0.0,0.0,0.0,0.0,0.0,0
1676528053344259307,496,1676528053343591646,,0,0,22.41669060091254,114.0428032552412,100.05558776855469,0.0,0.0,0.0,0.0,0.0,0.0,0.0,0.0,0.0,0
1676528053543030894,497,1676528053542839961,,0,0,22.416690600360763,114.04280328044645,100.04701232910156,0.0,0.0,0.0,0.0,0.0,0.0,0.0,0.0,0.0,0
1676528053743152202,498,1676528053742931176,,0,0,22.41669061735686,114.04280327524862,100.05073547363281,0.0,0.0,0.0,0.0,0.0,0.0,0.0,0.0,0.0,0
1676528053943071820,499,1676528053942778982,,0,0,22.416690633199796,114.04280329556227,100.03907012939453,0.0,0.0,0.0,0.0,0.0,0.0,0.0,0.0,0.0,0
1676528054143676640,500,1676528054142986695,,0,0,22.416690695436635,114.04280330026374,100.08698272705078,0.0,0.0,0.0,0.0,0.0,0.0,0.0,0.0,0.0,0
1676528054344131466,501,1676528054343642401,,0,0,22.416690685170014,114.04280331527009,100.08045196533203,0.0,0.0,0.0,0.0,0.0,0.0,0.0,0.0,0.0,0
1676528054542964439,502,1676528054542788092,,0,0,22.416690682981617,114.04280332174916,100.07799530029297,0.0,0.0,0.0,0.0,0.0,0.0,0.0,0.0,0.0,0
1676528054743301398,503,1676528054743115394,,0,0,22.41669069577948,114.04280332117104,100.07914733886719,0.0,0.0,0.0,0.0,0.0,0.0,0.0,0.0,0.0,0
1676528054943785971,504,1676528054943591450,,0,0,22.416690688746005,114.0428033144635,100.07781982421875,0.0,0.0,0.0,0.0,0.0,0.0,0.0,0.0,0.0,0
1676528055144374995,505,1676528055143645071,,0,0,22.41669069173197,114.04280330870785,100.07745361328125,0.0,0.0,0.0,0.0,0.0,0.0,0.0,0.0,0.0,0
1676528055343717942,506,1676528055343455232,,0,0,22.416690687049655,114.04280333282573,100.07295227050781,0.0,0.0,0.0,0.0,0.0,0.0,0.0,0.0,0.0,0
1676528055543751393,507,1676528055543490812,,0,0,22.416690703971856,114.04280330357165,100.07099914550781,0.0,0.0,0.0,0.0,0.0,0.0,0.0,0.0,0.0,0
1676528055743063981,508,1676528055742857674,,0,0,22.41669070233007,114.04280331047947,100.07280731201172,0.0,0.0,0.0,0.0,0.0,0.0,0.0,0.0,0.0,0
1676528055943049501,509,1676528055942844110,,0,0,22.416690702237524,114.04280331805577,100.0744857788086,0.0,0.0,0.0,0.0,0.0,0.0,0.0,0.0,0.0,0
1676528056144038729,510,1676528056143307016,,0,0,22.416690698737703,114.04280331454278,100.0704345703125,0.0,0.0,0.0,0.0,0.0,0.0,0.0,0.0,0.0,0
1676528056343747269,511,1676528056343502809,,0,0,22.416690711748426,114.04280330060993,100.07257080078125,0.0,0.0,0.0,0.0,0.0,0.0,0.0,0.0,0.0,0
1676528056543456607,512,1676528056543217053,,0,0,22.416690709207007,114.0428033112179,100.07539367675781,0.0,0.0,0.0,0.0,0.0,0.0,0.0,0.0,0.0,0
1676528056742911825,513,1676528056742716871,,0,0,22.416690693848867,114.04280331549452,100.069580078125,0.0,0.0,0.0,0.0,0.0,0.0,0.0,0.0,0.0,0
1676528056943253218,514,1676528056943062828,,0,0,22.41669069647594,114.04280329914074,100.06792449951172,0.0,0.0,0.0,0.0,0.0,0.0,0.0,0.0,0.0,0
1676528057143453622,515,1676528057142730126,,0,0,22.41669068847611,114.04280330666778,100.06820678710938,0.0,0.0,0.0,0.0,0.0,0.0,0.0,0.0,0.0,0
1676528057343837647,516,1676528057343091706,,0,0,22.41669069273611,114.04280331866278,100.06009674072266,0.0,0.0,0.0,0.0,0.0,0.0,0.0,0.0,0.0,0
1676528057543017090,517,1676528057542814148,,0,0,22.41669069283819,114.04280332583252,100.06098175048828,0.0,0.0,0.0,0.0,0.0,0.0,0.0,0.0,0.0,0
1676528057743778577,518,1676528057743569155,,0,0,22.416690679435433,114.04280331069664,100.06421661376953,0.0,0.0,0.0,0.0,0.0,0.0,0.0,0.0,0.0,0
1676528057943495545,519,1676528057943133304,,0,0,22.41669068534024,114.04280330816425,100.05754852294922,0.0,0.0,0.0,0.0,0.0,0.0,0.0,0.0,0.0,0
1676528058143755931,520,1676528058143028081,,0,0,22.41669068709582,114.0428032884657,100.06204223632812,0.0,0.0,0.0,0.0,0.0,0.0,0.0,0.0,0.0,0
1676528058343072503,521,1676528058342866785,,0,0,22.416690678469013,114.0428033206452,100.05645751953125,0.0,0.0,0.0,0.0,0.0,0.0,0.0,0.0,0.0,0
1676528058543890746,522,1676528058543487861,,0,0,22.416690682350136,114.04280331647611,100.04957580566406,0.0,0.0,0.0,0.0,0.0,0.0,0.0,0.0,0.0,0
1676528058743426556,523,1676528058743178827,,0,0,22.416690695070496,114.04280331362436,100.05059051513672,0.0,0.0,0.0,0.0,0.0,0.0,0.0,0.0,0.0,0
1676528058943743814,524,1676528058943460497,,0,0,22.4166906896229,114.04280330833329,100.05581665039062,0.0,0.0,0.0,0.0,0.0,0.0,0.0,0.0,0.0,0
1676528059143916061,525,1676528059143137186,,0,0,22.416690674952704,114.04280330976998,100.05178833007812,0.0,0.0,0.0,0.0,0.0,0.0,0.0,0.0,0.0,0
1676528059343898918,526,1676528059343236819,,0,0,22.41669068583372,114.04280328999403,100.05165100097656,0.0,0.0,0.0,0.0,0.0,0.0,0.0,0.0,0.0,0
1676528059543550304,527,1676528059543290669,,0,0,22.416690676348786,114.04280330203102,100.05374145507812,0.0,0.0,0.0,0.0,0.0,0.0,0.0,0.0,0.0,0
1676528059743267846,528,1676528059743045421,,0,0,22.4166906885972,114.04280330128121,100.04742431640625,0.0,0.0,0.0,0.0,0.0,0.0,0.0,0.0,0.0,0
1676528059943629183,529,1676528059943350905,,0,0,22.416690676044347,114.0428033479251,100.07128143310547,0.0,0.0,0.0,0.0,0.0,0.0,0.0,0.0,0.0,0
1676528060144451681,530,1676528060143681962,,0,0,22.416690681151653,114.04280333676701,100.06928253173828,0.0,0.0,0.0,0.0,0.0,0.0,0.0,0.0,0.0,0
1676528060344023715,531,1676528060343461406,,0,0,22.416690680231504,114.04280333754662,100.06527709960938,0.0,0.0,0.0,0.0,0.0,0.0,0.0,0.0,0.0,0
1676528060543509053,532,1676528060543318716,,0,0,22.416690680027063,114.04280332296801,100.06773376464844,0.0,0.0,0.0,0.0,0.0,0.0,0.0,0.0,0.0,0
1676528060743210582,533,1676528060742962040,,0,0,22.41669071241539,114.04280332353056,100.06938171386719,0.0,0.0,0.0,0.0,0.0,0.0,0.0,0.0,0.0,0
1676528060943435613,534,1676528060943268209,,0,0,22.41669068834962,114.04280331751858,100.07113647460938,0.0,0.0,0.0,0.0,0.0,0.0,0.0,0.0,0.0,0
1676528061143888873,535,1676528061143247986,,0,0,22.416690691187657,114.04280331453404,100.06922912597656,0.0,0.0,0.0,0.0,0.0,0.0,0.0,0.0,0.0,0
1676528061343139452,536,1676528061342782377,,0,0,22.41669070381312,114.04280332577314,100.07001495361328,0.0,0.0,0.0,0.0,0.0,0.0,0.0,0.0,0.0,0
1676528061543016867,537,1676528061542743859,,0,0,22.41669068975774,114.0428033365973,100.05656433105469,0.0,0.0,0.0,0.0,0.0,0.0,0.0,0.0,0.0,0
1676528061743236306,538,1676528061743009362,,0,0,22.416690685049865,114.0428033144097,100.06000518798828,0.0,0.0,0.0,0.0,0.0,0.0,0.0,0.0,0.0,0
1676528061943801065,539,1676528061943559837,,0,0,22.416690690593114,114.04280332527135,100.06197357177734,0.0,0.0,0.0,0.0,0.0,0.0,0.0,0.0,0.0,0
1676528062143648046,540,1676528062142791971,,0,0,22.416690696490193,114.04280330850436,100.0635757446289,0.0,0.0,0.0,0.0,0.0,0.0,0.0,0.0,0.0,0
1676528062344119001,541,1676528062343687547,,0,0,22.41669070623406,114.04280332250507,100.06096649169922,0.0,0.0,0.0,0.0,0.0,0.0,0.0,0.0,0.0,0
1676528062544260080,542,1676528062543624644,,0,0,22.416690703637386,114.04280331195154,100.06147766113281,0.0,0.0,0.0,0.0,0.0,0.0,0.0,0.0,0.0,0
1676528062742993864,543,1676528062742760181,,0,0,22.416690685934277,114.04280330755392,100.06034851074219,0.0,0.0,0.0,0.0,0.0,0.0,0.0,0.0,0.0,0
1676528062943788355,544,1676528062943536001,,0,0,22.41669068919966,114.04280330393125,100.05825805664062,0.0,0.0,0.0,0.0,0.0,0.0,0.0,0.0,0.0,0
1676528063143946094,545,1676528063143442321,,0,0,22.41669069006055,114.04280329317727,100.05960083007812,0.0,0.0,0.0,0.0,0.0,0.0,0.0,0.0,0.0,0
1676528063344086223,546,1676528063343568305,,0,0,22.416690682479025,114.04280331068344,100.06128692626953,0.0,0.0,0.0,0.0,0.0,0.0,0.0,0.0,0.0,0
1676528063544345144,547,1676528063543657917,,0,0,22.41669069644226,114.04280329744475,100.0575942993164,0.0,0.0,0.0,0.0,0.0,0.0,0.0,0.0,0.0,0
1676528063743610713,548,1676528063743402539,,0,0,22.41669068041618,114.04280330166212,100.0559310913086,0.0,0.0,0.0,0.0,0.0,0.0,0.0,0.0,0.0,0
1676528063943354312,549,1676528063943138896,,0,0,22.416690690902907,114.04280332947887,100.04896545410156,0.0,0.0,0.0,0.0,0.0,0.0,0.0,0.0,0.0,0
1676528064144613119,550,1676528064143769468,,0,0,22.416690689867508,114.04280331161698,100.0489730834961,0.0,0.0,0.0,0.0,0.0,0.0,0.0,0.0,0.0,0
1676528064343139626,551,1676528064342911488,,0,0,22.416690724409328,114.04280329766026,100.05432891845703,0.0,0.0,0.0,0.0,0.0,0.0,0.0,0.0,0.0,0
1676528064544074827,552,1676528064543515321,,0,0,22.416690703596785,114.04280331133818,100.05152130126953,0.0,0.0,0.0,0.0,0.0,0.0,0.0,0.0,0.0,0
1676528064742991893,553,1676528064742811528,,0,0,22.41669070016987,114.04280328608627,100.0567626953125,0.0,0.0,0.0,0.0,0.0,0.0,0.0,0.0,0.0,0
1676528064943845669,554,1676528064943625017,,0,0,22.416690709532954,114.0428032956671,100.05565643310547,0.0,0.0,0.0,0.0,0.0,0.0,0.0,0.0,0.0,0
1676528065143655566,555,1676528065143273561,,0,0,22.416690702619356,114.04280330688398,100.04720306396484,0.0,0.0,0.0,0.0,0.0,0.0,0.0,0.0,0.0,0
1676528065344146832,556,1676528065343736230,,0,0,22.41669070978515,114.04280328948036,100.0544662475586,0.0,0.0,0.0,0.0,0.0,0.0,0.0,0.0,0.0,0
1676528065543310391,557,1676528065543048764,,0,0,22.416690714259012,114.04280330500491,100.04914093017578,0.0,0.0,0.0,0.0,0.0,0.0,0.0,0.0,0.0,0
1676528065743702946,558,1676528065743409948,,0,0,22.41669070329708,114.04280330145849,100.04960632324219,0.0,0.0,0.0,0.0,0.0,0.0,0.0,0.0,0.0,0
1676528065943076505,559,1676528065942745309,,0,0,22.416690709737903,114.04280329838467,100.04537200927734,0.0,0.0,0.0,0.0,0.0,0.0,0.0,0.0,0.0,0
1676528066144349776,560,1676528066143703113,,0,0,22.41669071133014,114.04280330185536,100.05137634277344,0.0,0.0,0.0,0.0,0.0,0.0,0.0,0.0,0.0,0
1676528066343947702,561,1676528066343272670,,0,0,22.416690726896935,114.04280330077016,100.04439544677734,0.0,0.0,0.0,0.0,0.0,0.0,0.0,0.0,0.0,0
1676528066543358257,562,1676528066543130148,,0,0,22.416690729500736,114.04280328203308,100.04812622070312,0.0,0.0,0.0,0.0,0.0,0.0,0.0,0.0,0.0,0
1676528066743594233,563,1676528066743405642,,0,0,22.41669069746268,114.04280337508958,100.06216430664062,0.0,0.0,0.0,0.0,0.0,0.0,0.0,0.0,0.0,0
1676528066943640387,564,1676528066943333339,,0,0,22.416690569936986,114.04280362034659,100.11746978759766,0.0,0.0,0.0,0.0,0.0,0.0,0.0,0.0,0.0,0
1676528067143954814,565,1676528067143196098,,0,0,22.416690444550607,114.04280388144285,100.26869201660156,0.0,0.0,0.0,0.0,0.0,0.0,0.0,0.0,0.0,0
1676528067343950170,566,1676528067343361706,,0,0,22.416690321314,114.0428040607366,100.5223617553711,0.0,0.0,0.0,0.0,0.0,0.0,0.0,0.0,0.0,0
1676528067544361307,567,1676528067543617542,,0,0,22.416690226913065,114.04280415889777,100.83452606201172,0.0,0.0,0.0,0.0,0.0,0.0,0.0,0.0,0.0,0
1676528067743800954,568,1676528067743556082,,0,0,22.416690195442488,114.0428042051866,101.28874969482422,0.0,0.0,0.0,0.0,0.0,0.0,0.0,0.0,0.0,0
1676528067943149090,569,1676528067942799341,,0,0,22.416690219309913,114.04280416998718,101.72588348388672,0.0,0.0,0.0,0.0,0.0,0.0,0.0,0.0,0.0,0
1676528068143694535,570,1676528068143020977,,0,0,22.416690311968228,114.0428041457168,102.18170928955078,0.0,0.0,0.0,0.0,0.0,0.0,0.0,0.0,0.0,0
1676528068343079494,571,1676528068342817480,,0,0,22.416690428320734,114.04280405350451,102.6886215209961,0.0,0.0,0.0,0.0,0.0,0.0,0.0,0.0,0.0,0
1676528068542886504,572,1676528068542620176,,0,0,22.416690497399546,114.04280397277846,103.18998718261719,0.0,0.0,0.0,0.0,0.0,0.0,0.0,0.0,0.0,0
1676528068743407496,573,1676528068743186254,,0,0,22.41669055194462,114.0428038935503,103.7046127319336,0.0,0.0,0.0,0.0,0.0,0.0,0.0,0.0,0.0,0
1676528068943315369,574,1676528068943130538,,0,0,22.41669063387136,114.04280386906318,104.1987533569336,0.0,0.0,0.0,0.0,0.0,0.0,0.0,0.0,0.0,0
1676528069144617115,575,1676528069143843761,,0,0,22.416690689090117,114.04280382751,104.66817474365234,0.0,0.0,0.0,0.0,0.0,0.0,0.0,0.0,0.0,0
1676528069343702044,576,1676528069343050358,,0,0,22.41669076407008,114.04280377470623,105.08198547363281,0.0,0.0,0.0,0.0,0.0,0.0,0.0,0.0,0.0,0
1676528069543145289,577,1676528069542899520,,0,0,22.416690778159232,114.04280379989105,105.39810180664062,0.0,0.0,0.0,0.0,0.0,0.0,0.0,0.0,0.0,0
1676528069742317418,578,1676528069741994902,,0,0,22.416690841757795,114.04280382498206,105.59161376953125,0.0,0.0,0.0,0.0,0.0,0.0,0.0,0.0,0.0,0
1676528069943008972,579,1676528069942781882,,0,0,22.41669089664279,114.04280381283935,105.67881774902344,0.0,0.0,0.0,0.0,0.0,0.0,0.0,0.0,0.0,0
1676528070142010485,580,1676528070141830968,,0,0,22.416690889152367,114.04280385059411,105.71575927734375,0.0,0.0,0.0,0.0,0.0,0.0,0.0,0.0,0.0,0
1676528070344435107,581,1676528070343653431,,0,0,22.4166908966934,114.04280393943847,105.70064544677734,0.0,0.0,0.0,0.0,0.0,0.0,0.0,0.0,0.0,0
1676528070542915768,582,1676528070542740149,,0,0,22.416690933176646,114.04280395923593,105.67884063720703,0.0,0.0,0.0,0.0,0.0,0.0,0.0,0.0,0.0,0
1676528070742691313,583,1676528070742489071,,0,0,22.416690933100693,114.04280400632021,105.65237426757812,0.0,0.0,0.0,0.0,0.0,0.0,0.0,0.0,0.0,0
1676528070942950488,584,1676528070942770570,,0,0,22.416690895157082,114.04280407419934,105.62935638427734,0.0,0.0,0.0,0.0,0.0,0.0,0.0,0.0,0.0,0
1676528071142097011,585,1676528071141762988,,0,0,22.41669085633803,114.04280413899058,105.62750244140625,0.0,0.0,0.0,0.0,0.0,0.0,0.0,0.0,0.0,0
1676528071342058944,586,1676528071341888554,,0,0,22.416690823379792,114.04280420292842,105.61692810058594,0.0,0.0,0.0,0.0,0.0,0.0,0.0,0.0,0.0,0
1676528071542426276,587,1676528071542196269,,0,0,22.41669077080963,114.04280423346862,105.62071228027344,0.0,0.0,0.0,0.0,0.0,0.0,0.0,0.0,0.0,0
1676528071743064696,588,1676528071742820948,,0,0,22.416690733634205,114.04280431341101,105.62443542480469,0.0,0.0,0.0,0.0,0.0,0.0,0.0,0.0,0.0,0
1676528071942557543,589,1676528071942300550,,0,0,22.41669071529004,114.04280435822655,105.6270523071289,0.0,0.0,0.0,0.0,0.0,0.0,0.0,0.0,0.0,0
1676528072143292693,590,1676528072142802644,,0,0,22.416690680428523,114.04280440383576,105.63359832763672,0.0,0.0,0.0,0.0,0.0,0.0,0.0,0.0,0.0,0
1676528072341979065,591,1676528072341779048,,0,0,22.416690651145142,114.0428044077169,105.63166046142578,0.0,0.0,0.0,0.0,0.0,0.0,0.0,0.0,0.0,0
1676528072542715064,592,1676528072542508893,,0,0,22.416690673808137,114.04280436971169,105.64143371582031,0.0,0.0,0.0,0.0,0.0,0.0,0.0,0.0,0.0,0
1676528072742396572,593,1676528072742118260,,0,0,22.416690707093032,114.0428043142185,105.64117431640625,0.0,0.0,0.0,0.0,0.0,0.0,0.0,0.0,0.0,0
1676528072943045791,594,1676528072942835772,,0,0,22.41669072310036,114.04280424580551,105.65312194824219,0.0,0.0,0.0,0.0,0.0,0.0,0.0,0.0,0.0,0
1676528073142532709,595,1676528073142296046,,0,0,22.416690750600768,114.0428041473052,105.66146087646484,0.0,0.0,0.0,0.0,0.0,0.0,0.0,0.0,0.0,0
1676528073342036282,596,1676528073341878178,,0,0,22.416690757499776,114.04280407576421,105.66302490234375,0.0,0.0,0.0,0.0,0.0,0.0,0.0,0.0,0.0,0
1676528073542933272,597,1676528073542684530,,0,0,22.41669075607653,114.04280398203811,105.67469024658203,0.0,0.0,0.0,0.0,0.0,0.0,0.0,0.0,0.0,0
1676528073742971223,598,1676528073742687669,,0,0,22.416690763306075,114.0428039160057,105.68106079101562,0.0,0.0,0.0,0.0,0.0,0.0,0.0,0.0,0.0,0
1676528073942908947,599,1676528073942698701,,0,0,22.41669077590921,114.04280383541752,105.68766784667969,0.0,0.0,0.0,0.0,0.0,0.0,0.0,0.0,0.0,0
1676528074142261169,600,1676528074141976454,,0,0,22.416690781732935,114.04280373648007,105.69097137451172,0.0,0.0,0.0,0.0,0.0,0.0,0.0,0.0,0.0,0
1676528074342734022,601,1676528074342492208,,0,0,22.416690783952014,114.04280364736807,105.69578552246094,0.0,0.0,0.0,0.0,0.0,0.0,0.0,0.0,0.0,0
1676528074542670828,602,1676528074542467422,,0,0,22.416690820136584,114.04280356869127,105.70166015625,0.0,0.0,0.0,0.0,0.0,0.0,0.0,0.0,0.0,0
1676528074743053500,603,1676528074742843381,,0,0,22.416690799475795,114.04280352998678,105.70686340332031,0.0,0.0,0.0,0.0,0.0,0.0,0.0,0.0,0.0,0
1676528074942767325,604,1676528074942524983,,0,0,22.416690794072768,114.04280345845525,105.71422576904297,0.0,0.0,0.0,0.0,0.0,0.0,0.0,0.0,0.0,0
1676528075143470484,605,1676528075142823055,,0,0,22.416690824276966,114.04280344916748,105.71310424804688,0.0,0.0,0.0,0.0,0.0,0.0,0.0,0.0,0.0,0
1676528075342054021,606,1676528075341849057,,0,0,22.416690808243136,114.0428034112775,105.7189712524414,0.0,0.0,0.0,0.0,0.0,0.0,0.0,0.0,0.0,0
1676528075542873297,607,1676528075542596518,,0,0,22.416690806964482,114.04280343892692,105.75008392333984,0.0,0.0,0.0,0.0,0.0,0.0,0.0,0.0,0.0,0
1676528075742573520,608,1676528075742322808,,0,0,22.416690783346148,114.04280348177444,105.74574279785156,0.0,0.0,0.0,0.0,0.0,0.0,0.0,0.0,0.0,0
1676528075942618737,609,1676528075942285249,,0,0,22.4166907463084,114.04280353090147,105.73839569091797,0.0,0.0,0.0,0.0,0.0,0.0,0.0,0.0,0.0,0
1676528076142810726,610,1676528076142246958,,0,0,22.416690697762956,114.0428036072051,105.74412536621094,0.0,0.0,0.0,0.0,0.0,0.0,0.0,0.0,0.0,0
1676528076342510766,611,1676528076342286662,,0,0,22.416690651838806,114.04280369367044,105.73706817626953,0.0,0.0,0.0,0.0,0.0,0.0,0.0,0.0,0.0,0
1676528076542164480,612,1676528076541940263,,0,0,22.41669065477348,114.0428037411908,105.74642181396484,0.0,0.0,0.0,0.0,0.0,0.0,0.0,0.0,0.0,0
1676528076742667603,613,1676528076742411951,,0,0,22.416690674456774,114.04280378983684,105.74880981445312,0.0,0.0,0.0,0.0,0.0,0.0,0.0,0.0,0.0,0
1676528076943039636,614,1676528076942815963,,0,0,22.416690687960546,114.04280383178536,105.74182891845703,0.0,0.0,0.0,0.0,0.0,0.0,0.0,0.0,0.0,0
1676528077143337887,615,1676528077142906143,,0,0,22.416690745277087,114.04280385379012,105.7376708984375,0.0,0.0,0.0,0.0,0.0,0.0,0.0,0.0,0.0,0
1676528077343426544,616,1676528077342814050,,0,0,22.416690777855447,114.04280386898749,105.74176025390625,0.0,0.0,0.0,0.0,0.0,0.0,0.0,0.0,0.0,0
1676528077542044510,617,1676528077541810285,,0,0,22.416690840159156,114.04280386628285,105.73371124267578,0.0,0.0,0.0,0.0,0.0,0.0,0.0,0.0,0.0,0
1676528077742936285,618,1676528077742669863,,0,0,22.41669090443398,114.0428038405991,105.73992919921875,0.0,0.0,0.0,0.0,0.0,0.0,0.0,0.0,0.0,0
1676528077942673561,619,1676528077942378102,,0,0,22.416690937644088,114.04280379632964,105.73968505859375,0.0,0.0,0.0,0.0,0.0,0.0,0.0,0.0,0.0,0
1676528078142580201,620,1676528078141919675,,0,0,22.416690995503576,114.04280378781593,105.73294830322266,0.0,0.0,0.0,0.0,0.0,0.0,0.0,0.0,0.0,0
1676528078342939625,621,1676528078342666648,,0,0,22.416691029943316,114.0428037721251,105.7253646850586,0.0,0.0,0.0,0.0,0.0,0.0,0.0,0.0,0.0,0
1676528078542212420,622,1676528078542026154,,0,0,22.41669102504232,114.04280376014341,105.7254409790039,0.0,0.0,0.0,0.0,0.0,0.0,0.0,0.0,0.0,0
1676528078742964002,623,1676528078742777237,,0,0,22.416690996952326,114.04280377911338,105.72563171386719,0.0,0.0,0.0,0.0,0.0,0.0,0.0,0.0,0.0,0
1676528078942011759,624,1676528078941816048,,0,0,22.416690901424335,114.0428038205042,105.71195983886719,0.0,0.0,0.0,0.0,0.0,0.0,0.0,0.0,0.0,0
1676528079143088128,625,1676528079142243466,,0,0,22.416690818680767,114.0428038383526,105.71439361572266,0.0,0.0,0.0,0.0,0.0,0.0,0.0,0.0,0.0,0
1676528079342580128,626,1676528079342345661,,0,0,22.416690718859435,114.0428038537089,105.71327209472656,0.0,0.0,0.0,0.0,0.0,0.0,0.0,0.0,0.0,0
1676528079542641648,627,1676528079542452550,,0,0,22.41669063101664,114.04280385917922,105.71566009521484,0.0,0.0,0.0,0.0,0.0,0.0,0.0,0.0,0.0,0
1676528079742642759,628,1676528079742445428,,0,0,22.416690605548066,114.04280383056118,105.71904754638672,0.0,0.0,0.0,0.0,0.0,0.0,0.0,0.0,0.0,0
1676528079942393160,629,1676528079942004443,,0,0,22.41669065704074,114.04280373396185,105.7200698852539,0.0,0.0,0.0,0.0,0.0,0.0,0.0,0.0,0.0,0
1676528080142997953,630,1676528080142501083,,0,0,22.416690660843173,114.04280368926499,105.71858215332031,0.0,0.0,0.0,0.0,0.0,0.0,0.0,0.0,0.0,0
1676528080342266885,631,1676528080342012962,,0,0,22.416690613539263,114.04280369859632,105.72126770019531,0.0,0.0,0.0,0.0,0.0,0.0,0.0,0.0,0.0,0
1676528080542740649,632,1676528080542428224,,0,0,22.41669054782501,114.0428037129384,105.72374725341797,0.0,0.0,0.0,0.0,0.0,0.0,0.0,0.0,0.0,0
1676528080742665305,633,1676528080742436481,,0,0,22.416690469496352,114.04280371594426,105.71983337402344,0.0,0.0,0.0,0.0,0.0,0.0,0.0,0.0,0.0,0
1676528080942550384,634,1676528080942359592,,0,0,22.416690379138227,114.04280372077395,105.7637939453125,0.0,0.0,0.0,0.0,0.0,0.0,0.0,0.0,0.0,0
1676528081142244129,635,1676528081141793441,,0,0,22.416690328188185,114.04280376681146,105.76162719726562,0.0,0.0,0.0,0.0,0.0,0.0,0.0,0.0,0.0,0
1676528081342052879,636,1676528081341830884,,0,0,22.41669027281766,114.04280382022317,105.75703430175781,0.0,0.0,0.0,0.0,0.0,0.0,0.0,0.0,0.0,0
1676528081542127892,637,1676528081541892057,,0,0,22.41669027447107,114.04280378574202,105.76570892333984,0.0,0.0,0.0,0.0,0.0,0.0,0.0,0.0,0.0,0
1676528081742332560,638,1676528081742032155,,0,0,22.41669025703936,114.04280376912534,105.77245330810547,0.0,0.0,0.0,0.0,0.0,0.0,0.0,0.0,0.0,0
1676528081942015569,639,1676528081941790223,,0,0,22.416690245076694,114.04280369457074,105.78736114501953,0.0,0.0,0.0,0.0,0.0,0.0,0.0,0.0,0.0,0
1676528082142389846,640,1676528082141731315,,0,0,22.416690253722148,114.04280365628142,105.78268432617188,0.0,0.0,0.0,0.0,0.0,0.0,0.0,0.0,0.0,0
1676528082343333770,641,1676528082342758022,,0,0,22.416690271349342,114.04280363430681,105.78489685058594,0.0,0.0,0.0,0.0,0.0,0.0,0.0,0.0,0.0,0
1676528082542179693,642,1676528082541934314,,0,0,22.41669022439189,114.04280364405226,105.78302001953125,0.0,0.0,0.0,0.0,0.0,0.0,0.0,0.0,0.0,0
1676528082742192673,643,1676528082741983203,,0,0,22.416690254523875,114.04280366175975,105.77359008789062,0.0,0.0,0.0,0.0,0.0,0.0,0.0,0.0,0.0,0
1676528082942717752,644,1676528082942515979,,0,0,22.416690238416564,114.04280370287317,105.76805877685547,0.0,0.0,0.0,0.0,0.0,0.0,0.0,0.0,0.0,0
1676528083142637626,645,1676528083141805647,,0,0,22.416690246688884,114.0428037287121,105.77674102783203,0.0,0.0,0.0,0.0,0.0,0.0,0.0,0.0,0.0,0
1676528083342234022,646,1676528083342020562,,0,0,22.416690222665743,114.042803774334,105.77290344238281,0.0,0.0,0.0,0.0,0.0,0.0,0.0,0.0,0.0,0
1676528083542514425,647,1676528083542290495,,0,0,22.41669019005289,114.04280380322432,105.77079772949219,0.0,0.0,0.0,0.0,0.0,0.0,0.0,0.0,0.0,0
1676528083742456349,648,1676528083742222653,,0,0,22.416690151374464,114.04280386482559,105.76986694335938,0.0,0.0,0.0,0.0,0.0,0.0,0.0,0.0,0.0,0
1676528083941821383,649,1676528083941631563,,0,0,22.416690100669978,114.04280391576788,105.77030944824219,0.0,0.0,0.0,0.0,0.0,0.0,0.0,0.0,0.0,0
1676528084143211227,650,1676528084142440027,,0,0,22.416690058743143,114.04280395452253,105.76506042480469,0.0,0.0,0.0,0.0,0.0,0.0,0.0,0.0,0.0,0
1676528084342563681,651,1676528084342306538,,0,0,22.416690013597286,114.04280396369215,105.75830078125,0.0,0.0,0.0,0.0,0.0,0.0,0.0,0.0,0.0,0
1676528084542782886,652,1676528084542516746,,0,0,22.416689989217975,114.04280393563754,105.75847625732422,0.0,0.0,0.0,0.0,0.0,0.0,0.0,0.0,0.0,0
1676528084742822748,653,1676528084742631255,,0,0,22.41668998492343,114.04280394013138,105.75496673583984,0.0,0.0,0.0,0.0,0.0,0.0,0.0,0.0,0.0,0
1676528084942239466,654,1676528084942006109,,0,0,22.416689961812782,114.04280394441638,105.74625396728516,0.0,0.0,0.0,0.0,0.0,0.0,0.0,0.0,0.0,0
1676528085142941057,655,1676528085142427088,,0,0,22.416689947925242,114.0428039392852,105.7397232055664,0.0,0.0,0.0,0.0,0.0,0.0,0.0,0.0,0.0,0
