% program   : RTKPOST ver.2.4.2
% inp file  : D:\ligo\urbannav\UrbanNav-HK-Harsh-Urban-1-mongkok-0518.ublox.f9p.obs
% inp file  : D:\ligo\urbannav\dataHashTu.rnx
% inp file  : D:\ligo\urbannav\igr0519.sp3
% obs start : 2021/05/18 03:07:15.0 GPST (week2158 184035.0s)
% obs end   : 2021/05/18 04:03:04.0 GPST (week2158 187384.0s)
% pos mode  : ppp-kinematic
% solution  : forward
% elev mask : 15.0 deg
% dynamics  : off
% tidecorr  : on
% tropo opt : est ztd+grad
% ephemeris : precise
% navi sys  : gps glonass galileo
% antenna1  :                       ( 0.0000  0.0000  0.0000)
%
% (x/y/z-ecef=WGS84,Q=1:fix,2:float,3:sbas,4:dgps,5:single,6:ppp,ns=# of satellites)
%  GPST              x-ecef(m)      y-ecef(m)      z-ecef(m)   Q  ns   sdx(m)   sdy(m)   sdz(m)  sdxy(m)  sdyz(m)  sdzx(m) age(s)  ratio
2158 184041.000  -2417133.1659   5386004.0668   2406210.0839   5   5   2.6226  10.2093   4.9886   2.4727   6.7032   1.5443   0.00    0.0
2158 184042.000  -2417132.9637   5386007.0124   2406212.1049   5   5   2.6227  10.2035   4.9864   2.4705   6.6993   1.5429   0.00    0.0
2158 184043.000  -2417133.5163   5386007.4886   2406212.1558   5   5   2.6228  10.1977   4.9843   2.4684   6.6954   1.5415   0.00    0.0
2158 184044.000  -2417131.8322   5386013.9463   2406216.2021   5   5   2.6230  10.1919   4.9821   2.4663   6.6915   1.5401   0.00    0.0
2158 184048.000  -2417133.0638   5386073.5913   2406252.4861   5   5   3.9198   7.2076   6.0518  -4.1632   5.9961  -4.1850   0.00    0.0
2158 184051.000  -2417128.7571   5386018.9965   2406216.9725   5   5   2.6235  10.1504   4.9667   2.4513   6.6635   1.5304   0.00    0.0
2158 184052.000  -2417114.2249   5386056.0786   2406239.4436   5   5   3.3057   5.3928   3.0218  -2.2651   3.0083  -0.4353   0.00    0.0
2158 184053.000  -2417116.2271   5386059.2389   2406241.2465   5   5   3.3059   5.3914   3.0220  -2.2648   3.0077  -0.4329   0.00    0.0
2158 184054.000  -2417117.2118   5386061.3290   2406242.4044   5   5   3.3061   5.3899   3.0221  -2.2644   3.0070  -0.4304   0.00    0.0
2158 184055.000  -2417118.3350   5386063.5655   2406243.4390   5   5   3.3063   5.3884   3.0222  -2.2640   3.0064  -0.4280   0.00    0.0
2158 184056.000  -2417136.2474   5386027.4239   2406221.0550   5   5   2.6224  10.1156   4.9537   2.4396   6.6406   1.5227   0.00    0.0
2158 184057.000  -2417137.7865   5386024.2464   2406218.3902   5   5   2.6222  10.1086   4.9511   2.4373   6.6360   1.5212   0.00    0.0
2158 184058.000  -2417137.6453   5386023.9937   2406217.7073   5   5   2.6220  10.1017   4.9485   2.4350   6.6315   1.5196   0.00    0.0
2158 184059.000  -2417136.4676   5386028.4363   2406219.7926   5   5   2.6218  10.0948   4.9459   2.4327   6.6269   1.5181   0.00    0.0
2158 184060.000  -2417128.8754   5386104.2149   2406242.6364   5   5   2.4840   7.7402   2.9779   0.4397   2.9705  -1.2032   0.00    0.0
2158 184061.000  -2417127.9518   5386101.9657   2406243.2135   5   5   2.4839   7.7385   2.9779   0.4359   2.9699  -1.2031   0.00    0.0
2158 184062.000  -2417129.1933   5386079.8111   2406245.8390   5   6   2.4501   5.2096   2.9735  -1.4651   3.1211  -1.1752   0.00    0.0
2158 184063.000  -2417128.8199   5386082.3734   2406248.8183   5   6   2.4500   5.2084   2.9735  -1.4652   3.1206  -1.1751   0.00    0.0
2158 184064.000  -2417127.8897   5386083.8803   2406252.3248   5   6   2.4500   5.2071   2.9735  -1.4653   3.1201  -1.1750   0.00    0.0
2158 184065.000  -2417126.0130   5386081.9697   2406252.6307   5   6   2.4499   5.2059   2.9735  -1.4654   3.1195  -1.1749   0.00    0.0
2158 184066.000  -2417128.1021   5386084.2328   2406253.1363   5   5   3.3085   5.3723   3.0237  -2.2602   2.9996  -0.3998   0.00    0.0
2158 184067.000  -2417115.5949   5386070.9981   2406261.8817   5   5   2.6609   5.2290   3.2913  -1.6383   2.9995   0.2921   0.00    0.0
2158 184068.000  -2417131.7658   5386059.6116   2406259.1413   5   5   3.0111   5.2039   2.9830  -1.3859   3.1130  -1.3401   0.00    0.0
2158 184069.000  -2417117.8362   5386061.7629   2406266.8109   5   5   2.6610   5.2267   3.2912  -1.6389   2.9982   0.2939   0.00    0.0
2158 184071.000  -2417137.0659   5386062.6368   2406260.9667   5   5   3.0107   5.2003   2.9831  -1.3857   3.1114  -1.3402   0.00    0.0
2158 184072.000  -2417135.1797   5386059.7214   2406262.8364   5   5   3.0105   5.1991   2.9831  -1.3857   3.1109  -1.3403   0.00    0.0
2158 184073.000  -2417134.3876   5386056.6749   2406264.5199   5   5   3.0104   5.1979   2.9831  -1.3856   3.1103  -1.3403   0.00    0.0
2158 184074.000  -2417135.6066   5386052.0166   2406266.0556   5   5   3.0102   5.1967   2.9832  -1.3855   3.1098  -1.3403   0.00    0.0
2158 184076.000  -2417104.9451   5386016.7415   2406240.4376   5   6   3.3474   4.2355   3.3752  -2.3532   2.5882  -2.7008   0.00    0.0
2158 184077.000  -2417130.6792   5386039.8136   2406267.3583   5   5   3.0098   5.1931   2.9832  -1.3854   3.1082  -1.3404   0.00    0.0
2158 184080.000  -2417112.1553   5386056.1247   2406274.8267   5   5   2.6619   5.2140   3.2907  -1.6422   2.9913   0.3037   0.00    0.0
2158 184081.000  -2417083.3833   5386007.3212   2406225.6891   5   5   5.5867   5.1758   3.6471  -4.3437   3.2875  -3.6684   0.00    0.0
2158 184082.000  -2417141.1943   5386011.5259   2406268.2844   5   5   3.3344   5.5719   2.9447   1.4964  -1.6451  -2.3135   0.00    0.0
2158 184087.000  -2417135.1619   5386061.7428   2406286.9831   5   5   4.0056   4.4468   2.3954  -2.8970   1.8550  -1.4390   0.00    0.0
2158 184088.000  -2417136.2453   5386065.5294   2406287.4850   5   7   2.4452   4.0274   2.2945  -1.6123   1.8710  -1.2778   0.00    0.0
2158 184089.000  -2417135.5641   5386058.5848   2406291.1489   5   7   2.4451   4.0267   2.2946  -1.6124   1.8708  -1.2778   0.00    0.0
2158 184090.000  -2417134.7541   5386053.1895   2406293.6978   5   7   2.4451   4.0261   2.2947  -1.6126   1.8706  -1.2777   0.00    0.0
2158 184091.000  -2417128.6237   5386044.9904   2406297.2310   5   7   2.4450   4.0255   2.2948  -1.6127   1.8704  -1.2776   0.00    0.0
2158 184092.000  -2417119.3353   5386040.3179   2406292.5973   5   6   3.3454   4.2297   3.3816  -2.3602   2.5937  -2.7025   0.00    0.0
2158 184093.000  -2417112.8761   5386035.7284   2406293.1427   5   6   3.3453   4.2294   3.3820  -2.3607   2.5941  -2.7026   0.00    0.0
2158 184094.000  -2417110.1174   5386034.2577   2406291.8625   5   6   3.3452   4.2290   3.3824  -2.3611   2.5944  -2.7027   0.00    0.0
2158 184095.000  -2417103.6112   5386044.6671   2406283.6801   5   5   3.6800   5.3058   4.2113  -0.8133  -1.1425  -3.3395   0.00    0.0
2158 184096.000  -2417106.1777   5386028.8088   2406293.9351   5   6   3.3450   4.2283   3.3833  -2.3620   2.5951  -2.7029   0.00    0.0
2158 184097.000  -2417105.8054   5386024.6351   2406299.0237   5   6   3.3448   4.2280   3.3837  -2.3624   2.5955  -2.7031   0.00    0.0
2158 184098.000  -2417105.9003   5386025.6572   2406305.1569   5   5   3.9393   7.2420   6.1594  -4.2214   6.0827  -4.2447   0.00    0.0
2158 184099.000  -2417101.9239   5386020.2291   2406308.2316   5   5   3.9397   7.2427   6.1616  -4.2225   6.0845  -4.2459   0.00    0.0
2158 184100.000  -2417094.3910   5386022.1623   2406308.6727   5   4   4.0836   8.6336   6.3085  -3.5776   5.5435  -4.4135   0.00    0.0
2158 184101.000  -2417096.2895   5386012.1021   2406315.5951   5   5   3.9405   7.2442   6.1660  -4.2249   6.0880  -4.2483   0.00    0.0
2158 184102.000  -2417087.1607   5385999.8710   2406306.8165   5   5   3.9409   7.2449   6.1682  -4.2260   6.0898  -4.2495   0.00    0.0
2158 184103.000  -2417088.2874   5385999.7692   2406310.9291   5   5   3.9413   7.2456   6.1704  -4.2272   6.0916  -4.2508   0.00    0.0
2158 184104.000  -2417090.0840   5385995.9938   2406313.1021   5   5   3.9417   7.2464   6.1726  -4.2284   6.0933  -4.2520   0.00    0.0
2158 184105.000  -2417091.2472   5385994.1372   2406314.1403   5   5   3.9421   7.2471   6.1748  -4.2296   6.0951  -4.2532   0.00    0.0
2158 184106.000  -2417089.2380   5385993.0352   2406312.4398   5   5   3.9425   7.2479   6.1770  -4.2307   6.0969  -4.2544   0.00    0.0
2158 184107.000  -2417088.8175   5385991.5552   2406312.1362   5   5   3.9429   7.2486   6.1792  -4.2319   6.0987  -4.2556   0.00    0.0
2158 184108.000  -2417088.7461   5385992.1788   2406311.9843   5   5   3.9433   7.2494   6.1814  -4.2331   6.1005  -4.2569   0.00    0.0
2158 184109.000  -2417088.8863   5385992.0048   2406311.9095   5   5   3.9437   7.2501   6.1836  -4.2343   6.1023  -4.2581   0.00    0.0
2158 184110.000  -2417088.6283   5385991.4828   2406311.5531   5   5   3.9441   7.2509   6.1858  -4.2355   6.1041  -4.2593   0.00    0.0
2158 184111.000  -2417088.3362   5385991.4812   2406311.3863   5   5   3.9445   7.2516   6.1880  -4.2367   6.1059  -4.2605   0.00    0.0
2158 184112.000  -2417088.1465   5385990.5151   2406311.0673   5   5   3.9449   7.2524   6.1903  -4.2378   6.1077  -4.2618   0.00    0.0
2158 184113.000  -2417088.1664   5385990.6208   2406311.3167   5   5   3.9453   7.2532   6.1925  -4.2390   6.1095  -4.2630   0.00    0.0
2158 184114.000  -2417088.2197   5385990.2690   2406311.2587   5   5   3.9458   7.2540   6.1947  -4.2402   6.1113  -4.2642   0.00    0.0
2158 184115.000  -2417088.1950   5385990.3212   2406311.2118   5   5   3.9462   7.2547   6.1970  -4.2414   6.1131  -4.2655   0.00    0.0
2158 184116.000  -2417088.1650   5385990.0862   2406311.2820   5   5   3.9466   7.2555   6.1992  -4.2426   6.1149  -4.2667   0.00    0.0
2158 184117.000  -2417088.0009   5385989.9359   2406311.0701   5   5   3.9470   7.2563   6.2015  -4.2438   6.1168  -4.2680   0.00    0.0
2158 184118.000  -2417087.8860   5385989.9969   2406310.9939   5   5   3.9474   7.2571   6.2037  -4.2450   6.1186  -4.2692   0.00    0.0
2158 184119.000  -2417087.8522   5385989.7155   2406310.8343   5   5   3.9478   7.2579   6.2060  -4.2462   6.1204  -4.2704   0.00    0.0
2158 184120.000  -2417087.6760   5385989.3806   2406310.4916   5   5   3.9482   7.2587   6.2082  -4.2474   6.1222  -4.2717   0.00    0.0
2158 184121.000  -2417087.5958   5385989.4088   2406310.5455   5   5   3.9487   7.2595   6.2105  -4.2486   6.1241  -4.2729   0.00    0.0
2158 184122.000  -2417087.5887   5385989.3807   2406310.4180   5   5   3.9491   7.2603   6.2127  -4.2498   6.1259  -4.2742   0.00    0.0
2158 184123.000  -2417087.4120   5385989.2638   2406310.3980   5   5   3.9495   7.2611   6.2150  -4.2510   6.1278  -4.2754   0.00    0.0
2158 184124.000  -2417087.3779   5385989.6671   2406310.6031   5   5   3.9499   7.2619   6.2173  -4.2522   6.1296  -4.2767   0.00    0.0
2158 184125.000  -2417087.3398   5385989.8925   2406310.7787   5   5   3.9503   7.2627   6.2195  -4.2534   6.1315  -4.2779   0.00    0.0
2158 184126.000  -2417087.3133   5385990.0941   2406310.6353   5   5   3.9508   7.2635   6.2218  -4.2546   6.1333  -4.2792   0.00    0.0
2158 184127.000  -2417087.2713   5385990.1379   2406310.6394   5   5   3.9512   7.2644   6.2241  -4.2558   6.1352  -4.2805   0.00    0.0
2158 184128.000  -2417087.3897   5385990.4378   2406310.5949   5   5   3.9516   7.2652   6.2264  -4.2571   6.1370  -4.2817   0.00    0.0
2158 184129.000  -2417087.4776   5385990.3801   2406310.3920   5   5   3.9521   7.2660   6.2287  -4.2583   6.1389  -4.2830   0.00    0.0
2158 184130.000  -2417087.4107   5385990.2998   2406310.1895   5   5   3.9525   7.2669   6.2310  -4.2595   6.1408  -4.2843   0.00    0.0
2158 184131.000  -2417087.5258   5385990.5445   2406310.1681   5   5   3.9529   7.2677   6.2332  -4.2607   6.1426  -4.2855   0.00    0.0
2158 184132.000  -2417087.6588   5385991.0015   2406310.4640   5   5   3.9533   7.2685   6.2355  -4.2619   6.1445  -4.2868   0.00    0.0
2158 184133.000  -2417087.9069   5385991.4066   2406310.8886   5   5   3.9538   7.2694   6.2378  -4.2631   6.1464  -4.2881   0.00    0.0
2158 184134.000  -2417087.7389   5385991.8416   2406311.2555   5   5   3.9542   7.2702   6.2402  -4.2644   6.1483  -4.2893   0.00    0.0
2158 184135.000  -2417086.8460   5385992.1925   2406313.0685   5   5   3.9547   7.2711   6.2425  -4.2656   6.1501  -4.2906   0.00    0.0
2158 184136.000  -2417087.8799   5385995.8426   2406317.9049   5   5   3.9551   7.2719   6.2448  -4.2668   6.1520  -4.2919   0.00    0.0
2158 184137.000  -2417085.2931   5386001.3866   2406320.4878   5   5   3.9555   7.2728   6.2471  -4.2680   6.1539  -4.2932   0.00    0.0
2158 184138.000  -2417085.3775   5386009.5575   2406326.4004   5   5   3.9560   7.2737   6.2494  -4.2692   6.1558  -4.2944   0.00    0.0
2158 184140.000  -2417089.6137   5386003.1721   2406345.5182   5   4   4.0850   8.6533   6.3855  -3.6732   5.6482  -4.4466   0.00    0.0
2158 184141.000  -2417086.0140   5385991.5992   2406351.9324   5   4   4.0850   8.6539   6.3875  -3.6756   5.6509  -4.4475   0.00    0.0
2158 184142.000  -2417078.2722   5385982.4922   2406354.5943   5   4   4.0851   8.6545   6.3895  -3.6780   5.6536  -4.4484   0.00    0.0
2158 184143.000  -2417069.1719   5385978.1157   2406356.6174   5   4   4.0852   8.6551   6.3915  -3.6803   5.6563  -4.4493   0.00    0.0
2158 184150.000  -2417064.6430   5385977.2439   2406430.6623   5   6   2.2172   5.4095   3.6295  -1.5295   3.6320  -1.3274   0.00    0.0
2158 184151.000  -2417060.4095   5385966.3201   2406437.1001   5   6   2.2171   5.4090   3.6303  -1.5299   3.6323  -1.3276   0.00    0.0
2158 184152.000  -2417059.3347   5385966.8544   2406446.4985   5   6   2.2170   5.4085   3.6311  -1.5304   3.6327  -1.3277   0.00    0.0
2158 184153.000  -2417056.6131   5385965.9924   2406452.7373   5   6   2.2169   5.4079   3.6318  -1.5308   3.6330  -1.3279   0.00    0.0
2158 184154.000  -2417046.3948   5385953.0416   2406447.8391   5   5   3.9631   7.2880   6.2870  -4.2891   6.1866  -4.3152   0.00    0.0
2158 184155.000  -2417044.2466   5385950.4393   2406452.9826   5   5   3.9636   7.2890   6.2894  -4.2904   6.1886  -4.3165   0.00    0.0
2158 184156.000  -2417043.3044   5385949.1260   2406457.3679   5   5   3.9641   7.2899   6.2918  -4.2916   6.1905  -4.3178   0.00    0.0
2158 184157.000  -2417041.9561   5385947.5341   2406460.0917   5   5   3.9645   7.2909   6.2942  -4.2929   6.1925  -4.3191   0.00    0.0
2158 184158.000  -2417052.5343   5385965.9105   2406482.4539   5   6   2.4474   5.1002   2.9769  -1.4775   3.0752  -1.1653   0.00    0.0
2158 184159.000  -2417050.1343   5385962.2275   2406480.5002   5   7   2.0574   4.9505   2.7305  -0.7503   2.8292   0.4629   0.00    0.0
2158 184160.000  -2417050.3863   5385963.3168   2406482.7997   5   6   2.4474   5.0981   2.9771  -1.4777   3.0743  -1.1651   0.00    0.0
2158 184161.000  -2417046.6638   5385957.5618   2406476.8559   5   6   2.4474   5.0971   2.9771  -1.4779   3.0739  -1.1650   0.00    0.0
2158 184162.000  -2417039.8286   5385946.3956   2406464.8518   5   5   3.9669   7.2956   6.3062  -4.2992   6.2024  -4.3258   0.00    0.0
2158 184163.000  -2417039.7626   5385946.2937   2406464.7480   5   5   3.9673   7.2966   6.3086  -4.3005   6.2044  -4.3271   0.00    0.0
2158 184164.000  -2417039.5586   5385945.8554   2406464.4145   5   5   3.9678   7.2975   6.3110  -4.3018   6.2064  -4.3284   0.00    0.0
2158 184165.000  -2417039.4825   5385945.9654   2406464.3553   5   5   3.9683   7.2985   6.3134  -4.3030   6.2083  -4.3297   0.00    0.0
2158 184166.000  -2417039.3101   5385945.6962   2406464.1217   5   5   3.9687   7.2995   6.3159  -4.3043   6.2103  -4.3311   0.00    0.0
2158 184167.000  -2417039.0889   5385945.4177   2406463.8151   5   5   3.9692   7.3005   6.3183  -4.3056   6.2123  -4.3324   0.00    0.0
2158 184169.000  -2417038.9202   5385945.3907   2406463.6304   5   5   3.9702   7.3024   6.3232  -4.3081   6.2164  -4.3351   0.00    0.0
2158 184170.000  -2417038.7233   5385944.9400   2406463.1378   5   5   3.9706   7.3034   6.3256  -4.3094   6.2184  -4.3364   0.00    0.0
2158 184171.000  -2417038.7225   5385944.7762   2406462.9087   5   5   3.9711   7.3044   6.3281  -4.3107   6.2204  -4.3378   0.00    0.0
2158 184173.000  -2417061.7248   5385994.0875   2406534.5634   5   6   2.3741   4.9813   3.0207  -1.1676   2.6678   1.3202   0.00    0.0
2158 184174.000  -2417060.0164   5385993.7310   2406534.8759   5   6   2.3742   4.9804   3.0208  -1.1681   2.6673   1.3203   0.00    0.0
2158 184178.000  -2417038.6568   5385944.5902   2406462.9138   5   5   3.9745   7.3115   6.3453  -4.3197   6.2346  -4.3473   0.00    0.0
2158 184179.000  -2417038.7020   5385944.6286   2406463.0373   5   5   3.9750   7.3125   6.3477  -4.3210   6.2366  -4.3486   0.00    0.0
2158 184180.000  -2417038.7061   5385944.5542   2406463.0183   5   5   3.9755   7.3136   6.3502  -4.3223   6.2387  -4.3500   0.00    0.0
2158 184181.000  -2417038.6147   5385944.3699   2406462.7007   5   5   3.9760   7.3146   6.3527  -4.3236   6.2407  -4.3514   0.00    0.0
2158 184182.000  -2417038.6410   5385944.5131   2406462.7391   5   5   3.9765   7.3156   6.3552  -4.3249   6.2428  -4.3527   0.00    0.0
2158 184183.000  -2417038.6170   5385944.6615   2406462.7765   5   5   3.9770   7.3167   6.3577  -4.3262   6.2449  -4.3541   0.00    0.0
2158 184184.000  -2417038.7029   5385944.5384   2406462.7047   5   5   3.9775   7.3177   6.3602  -4.3275   6.2469  -4.3555   0.00    0.0
2158 184190.000  -2417039.1476   5385945.2723   2406463.0046   5   5   3.9805   7.3241   6.3752  -4.3354   6.2594  -4.3638   0.00    0.0
2158 184191.000  -2417039.3017   5385945.2315   2406462.9558   5   5   3.9810   7.3252   6.3777  -4.3367   6.2615  -4.3652   0.00    0.0
2158 184193.000  -2417039.3003   5385944.8094   2406462.4455   5   5   3.9820   7.3273   6.3828  -4.3394   6.2657  -4.3679   0.00    0.0
2158 184194.000  -2417039.2829   5385944.8681   2406462.4158   5   5   3.9825   7.3284   6.3853  -4.3407   6.2678  -4.3693   0.00    0.0
2158 184195.000  -2417039.3421   5385944.7997   2406462.3006   5   5   3.9830   7.3295   6.3879  -4.3420   6.2699  -4.3707   0.00    0.0
2158 184196.000  -2417039.3314   5385944.9053   2406462.2982   5   5   3.9836   7.3306   6.3904  -4.3433   6.2720  -4.3721   0.00    0.0
2158 184197.000  -2417039.2913   5385944.8419   2406462.3113   5   5   3.9841   7.3317   6.3929  -4.3447   6.2741  -4.3735   0.00    0.0
2158 184198.000  -2417039.0600   5385944.4247   2406461.9316   5   5   3.9846   7.3328   6.3955  -4.3460   6.2762  -4.3749   0.00    0.0
2158 184199.000  -2417038.9648   5385944.2587   2406461.7805   5   5   3.9851   7.3339   6.3981  -4.3473   6.2783  -4.3763   0.00    0.0
2158 184200.000  -2417038.4990   5385943.9391   2406462.1141   5   5   3.9856   7.3351   6.4006  -4.3487   6.2805  -4.3777   0.00    0.0
2158 184201.000  -2417045.7909   5385955.0908   2406475.6138   5   6   2.2135   5.3848   3.6701  -1.5511   3.6509  -1.3353   0.00    0.0
2158 184203.000  -2417052.9791   5385976.7803   2406489.2848   5   5   5.5923   5.1400   3.6867  -4.3727   3.3089  -3.6672   0.00    0.0
2158 184204.000  -2417042.4708   5385963.5724   2406479.6904   5   5   2.7146   5.4315   3.7888  -1.8823   3.5590  -0.5663   0.00    0.0
2158 184205.000  -2417035.5901   5385961.7863   2406483.7840   5   6   2.2133   5.3830   3.6734  -1.5527   3.6525  -1.3359   0.00    0.0
2158 184206.000  -2417039.9707   5385970.9384   2406490.4726   5   6   2.5531   4.9377   2.9485  -1.2070   2.6996   1.3713   0.00    0.0
2158 184207.000  -2417036.6661   5385968.0881   2406490.9992   5   6   2.5533   4.9367   2.9490  -1.2068   2.6994   1.3719   0.00    0.0
2158 184208.000  -2417034.2667   5385963.6794   2406493.7089   5   6   2.5534   4.9357   2.9494  -1.2067   2.6991   1.3725   0.00    0.0
2158 184209.000  -2417032.5125   5385960.5935   2406499.7078   5   6   2.5536   4.9347   2.9498  -1.2065   2.6989   1.3731   0.00    0.0
2158 184210.000  -2417028.8129   5385953.6846   2406503.7274   5   7   2.4663   4.0560   2.2758  -1.8210   1.4174   0.8019   0.00    0.0
2158 184211.000  -2417035.0529   5385947.9270   2406502.0820   5   7   2.4434   3.9571   2.3088  -1.6300   1.8483  -1.2715   0.00    0.0
2158 184212.000  -2417031.3523   5385943.6288   2406506.2757   5   5   3.3497   5.1821   3.0550  -2.2145   2.9218   0.4229   0.00    0.0
2158 184213.000  -2417045.6197   5385919.1422   2406487.6828   5   6   2.1913   9.1321   4.5068   2.2890   5.9569   1.7136   0.00    0.0
2158 184214.000  -2417035.0524   5385974.8058   2406499.8158   5   7   2.0207   5.2168   2.3396  -1.2132  -0.6245  -0.7167   0.00    0.0
2158 184215.000  -2417046.7519   5385966.2046   2406513.9328   5   7   2.4434   3.9551   2.3093  -1.6307   1.8476  -1.2714   0.00    0.0
2158 184221.000  -2417054.1255   5385966.6709   2406518.1876   5   6   2.9483   3.9843   2.4065  -1.8700   1.9368  -1.6516   0.00    0.0
2158 184222.000  -2417042.0326   5385957.0631   2406506.5566   5   7   2.3525   3.9082   2.1851  -1.4575   1.7238  -0.9671   0.00    0.0
2158 184223.000  -2417042.0983   5385957.7384   2406504.5191   5   7   2.3524   3.9076   2.1853  -1.4575   1.7236  -0.9672   0.00    0.0
2158 184224.000  -2417041.9429   5385956.5495   2406503.2150   5   7   2.3522   3.9071   2.1855  -1.4574   1.7234  -0.9672   0.00    0.0
2158 184225.000  -2417041.0944   5385954.2780   2406503.2328   5   7   2.3521   3.9065   2.1857  -1.4574   1.7232  -0.9672   0.00    0.0
2158 184226.000  -2417042.0212   5385954.9036   2406504.6222   5   7   2.3520   3.9060   2.1859  -1.4573   1.7230  -0.9673   0.00    0.0
2158 184227.000  -2417036.8168   5385952.8812   2406507.4976   5   6   2.7937   4.0634   2.3087  -1.9533   1.4612   0.4287   0.00    0.0
2158 184228.000  -2417035.8044   5385951.2165   2406508.9856   5   6   2.7936   4.0627   2.3090  -1.9530   1.4609   0.4293   0.00    0.0
2158 184229.000  -2417034.9767   5385997.8347   2406502.9752   5   6   2.0776   7.3931   2.7446   1.0246   2.6672   0.4309   0.00    0.0
2158 184231.000  -2417050.3700   5385891.1937   2406482.5427   5   5   2.5943   9.0557   4.5604   2.0627   5.9376   1.2739   0.00    0.0
2158 184232.000  -2417047.6821   5385897.0035   2406489.8171   5   5   2.5942   9.0504   4.5584   2.0607   5.9341   1.2726   0.00    0.0
2158 184233.000  -2417047.4139   5385903.7175   2406492.7372   5   5   2.5941   9.0452   4.5565   2.0587   5.9306   1.2713   0.00    0.0
2158 184234.000  -2417045.9235   5385920.4504   2406503.0431   5   5   2.5940   9.0399   4.5546   2.0567   5.9271   1.2699   0.00    0.0
2158 184235.000  -2417045.1201   5385928.0815   2406504.7867   5   5   2.5938   9.0347   4.5527   2.0547   5.9236   1.2686   0.00    0.0
2158 184236.000  -2417042.4976   5385966.5503   2406522.0702   5   6   2.4482   5.0232   2.9843  -1.4877   3.0445  -1.1561   0.00    0.0
2158 184237.000  -2417041.2012   5385963.6482   2406524.0630   5   6   2.4483   5.0223   2.9844  -1.4878   3.0442  -1.1560   0.00    0.0
2158 184238.000  -2417037.1778   5385986.7352   2406523.7835   5   5   2.4713   7.4521   2.9895  -0.6000   2.8838  -1.1807   0.00    0.0
2158 184239.000  -2417040.2765   5385989.0817   2406525.5146   5   5   2.4713   7.4506   2.9896  -0.6024   2.8834  -1.1805   0.00    0.0
2158 184240.000  -2417041.6946   5385967.4177   2406528.2092   5   6   2.4484   5.0195   2.9848  -1.4882   3.0431  -1.1556   0.00    0.0
2158 184241.000  -2417042.1609   5385968.0655   2406529.6289   5   6   2.4484   5.0186   2.9849  -1.4884   3.0427  -1.1555   0.00    0.0
2158 184242.000  -2417046.9298   5385976.1423   2406534.6512   5   6   2.4484   5.0177   2.9850  -1.4885   3.0424  -1.1553   0.00    0.0
2158 184243.000  -2417045.9881   5385976.0434   2406535.6897   5   6   2.4484   5.0168   2.9851  -1.4886   3.0420  -1.1552   0.00    0.0
2158 184244.000  -2417044.4222   5385975.8594   2406533.4356   5   6   2.4485   5.0159   2.9853  -1.4888   3.0417  -1.1551   0.00    0.0
2158 184245.000  -2417038.8621   5385965.7882   2406533.9188   5   6   2.4485   5.0150   2.9854  -1.4889   3.0413  -1.1550   0.00    0.0
2158 184246.000  -2417032.1348   5385962.5337   2406536.5198   5   6   2.4485   5.0141   2.9855  -1.4890   3.0410  -1.1548   0.00    0.0
2158 184247.000  -2417030.4595   5385960.1490   2406539.9068   5   7   2.4441   3.9393   2.3139  -1.6360   1.8426  -1.2699   0.00    0.0
2158 184248.000  -2417040.7207   5385974.0038   2406540.7773   5   5   3.3633   5.1415   3.0659  -2.2044   2.9061   0.5221   0.00    0.0
2158 184249.000  -2417041.5061   5385975.7307   2406542.9407   5   5   3.3637   5.1405   3.0662  -2.2042   2.9057   0.5246   0.00    0.0
2158 184250.000  -2417031.6588   5385967.5470   2406545.1098   5   6   2.4487   5.0105   2.9860  -1.4896   3.0396  -1.1543   0.00    0.0
2158 184251.000  -2417032.1563   5385965.5318   2406544.0234   5   6   2.4487   5.0096   2.9862  -1.4897   3.0393  -1.1542   0.00    0.0
2158 184252.000  -2417032.5890   5385967.0555   2406545.5477   5   6   2.4488   5.0087   2.9863  -1.4898   3.0389  -1.1541   0.00    0.0
2158 184253.000  -2417032.7528   5385969.8908   2406547.1165   5   6   2.4488   5.0078   2.9864  -1.4900   3.0386  -1.1540   0.00    0.0
2158 184254.000  -2417034.0698   5385969.8170   2406547.6263   5   6   2.4488   5.0069   2.9866  -1.4901   3.0382  -1.1538   0.00    0.0
2158 184255.000  -2417032.8357   5385972.7957   2406549.8574   5   6   2.4489   5.0060   2.9867  -1.4902   3.0379  -1.1537   0.00    0.0
2158 184256.000  -2417035.6845   5385978.1820   2406549.7980   5   6   2.4489   5.0051   2.9868  -1.4904   3.0376  -1.1536   0.00    0.0
2158 184257.000  -2417034.2374   5385981.1050   2406550.5730   5   6   2.4489   5.0042   2.9870  -1.4905   3.0372  -1.1534   0.00    0.0
2158 184258.000  -2417032.7312   5385978.7919   2406550.4501   5   6   2.4490   5.0033   2.9871  -1.4906   3.0369  -1.1533   0.00    0.0
2158 184259.000  -2417029.3182   5385976.5198   2406549.2182   5   6   2.4490   5.0024   2.9872  -1.4908   3.0365  -1.1532   0.00    0.0
2158 184260.000  -2417030.8603   5385979.9399   2406547.5439   5   6   2.4491   5.0015   2.9874  -1.4909   3.0362  -1.1530   0.00    0.0
2158 184261.000  -2417031.9168   5385975.6426   2406546.9431   5   6   2.4491   5.0007   2.9875  -1.4910   3.0359  -1.1529   0.00    0.0
2158 184262.000  -2417028.4042   5385980.8383   2406547.9884   5   6   2.4491   4.9998   2.9876  -1.4912   3.0355  -1.1528   0.00    0.0
2158 184263.000  -2417029.6762   5385979.2615   2406549.1256   5   6   2.4492   4.9989   2.9878  -1.4913   3.0352  -1.1527   0.00    0.0
2158 184264.000  -2417031.3952   5385977.2565   2406550.8037   5   6   2.4492   4.9980   2.9879  -1.4914   3.0349  -1.1525   0.00    0.0
2158 184265.000  -2417028.6617   5385975.9897   2406551.7657   5   6   2.4493   4.9972   2.9880  -1.4916   3.0345  -1.1524   0.00    0.0
2158 184266.000  -2417024.3091   5386032.8776   2406572.6478   5   5   2.5909   8.8763   4.4947   1.9930   5.8172   1.2282   0.00    0.0
2158 184267.000  -2417030.1333   5385962.7218   2406555.2053   5   5   2.4709   7.4113   2.9933  -0.6650   2.8734  -1.1764   0.00    0.0
2158 184268.000  -2417021.7766   5386026.8914   2406571.9452   5   5   2.5907   8.8664   4.4911   1.9891   5.8105   1.2256   0.00    0.0
2158 184269.000  -2417038.7936   5385930.3108   2406559.0819   5   4   4.1366  10.6878   3.0757   5.0108   1.6782  -1.9299   0.00    0.0
2158 184272.000  -2417015.4066   5386041.9119   2406583.4480   5   5   2.5904   8.8466   4.4839   1.9813   5.7972   1.2205   0.00    0.0
2158 184275.000  -2417014.4166   5386067.5412   2406596.5815   5   5   2.5901   8.8318   4.4785   1.9754   5.7872   1.2166   0.00    0.0
2158 184277.000  -2417035.7909   5386013.2488   2406557.4903   5   5   3.3752   5.1105   3.0757  -2.1966   2.8944   0.5930   0.00    0.0
2158 184278.000  -2417034.4345   5386016.9006   2406560.7789   5   5   3.3756   5.1095   3.0760  -2.1964   2.8940   0.5953   0.00    0.0
2158 184279.000  -2417035.4083   5386019.6011   2406560.7613   5   5   3.3761   5.1085   3.0764  -2.1961   2.8936   0.5976   0.00    0.0
2158 184281.000  -2417036.9255   5386019.2050   2406563.2656   5   5   3.3769   5.1064   3.0771  -2.1956   2.8929   0.6023   0.00    0.0
2158 184282.000  -2417038.5030   5386020.9346   2406564.0486   5   5   3.3774   5.1054   3.0774  -2.1953   2.8925   0.6046   0.00    0.0
2158 184283.000  -2417040.4100   5386023.1013   2406565.5658   5   5   3.3778   5.1043   3.0778  -2.1950   2.8921   0.6069   0.00    0.0
2158 184284.000  -2417043.6474   5386028.1592   2406567.7061   5   5   3.3782   5.1033   3.0781  -2.1948   2.8917   0.6092   0.00    0.0
2158 184285.000  -2417042.8785   5386027.6927   2406566.5139   5   5   3.3787   5.1023   3.0785  -2.1945   2.8913   0.6115   0.00    0.0
2158 184286.000  -2417042.3456   5386024.4995   2406566.7204   5   5   3.3791   5.1012   3.0788  -2.1943   2.8910   0.6138   0.00    0.0
2158 184287.000  -2417042.7055   5386023.9978   2406567.2566   5   5   3.3795   5.1002   3.0792  -2.1940   2.8906   0.6161   0.00    0.0
2158 184288.000  -2417041.8751   5386022.5155   2406565.9032   5   5   3.3800   5.0992   3.0796  -2.1937   2.8902   0.6184   0.00    0.0
2158 184289.000  -2417043.0043   5386024.5709   2406566.3131   5   5   3.3804   5.0982   3.0799  -2.1935   2.8898   0.6207   0.00    0.0
2158 184297.000  -2417050.0489   5386059.5942   2406570.0069   5   5   4.0401   8.0063   3.1483  -4.6463  -3.3883   2.0352   0.00    0.0
2158 184298.000  -2417049.6546   5386048.6480   2406569.0212   5   5   4.0409   8.0054   3.1487  -4.6470  -3.3886   2.0362   0.00    0.0
2158 184299.000  -2417050.8345   5386043.5888   2406569.4733   5   5   4.0418   8.0046   3.1492  -4.6476  -3.3889   2.0373   0.00    0.0
2158 184300.000  -2417040.2547   5386022.1067   2406575.2188   5   6   2.4549   5.1801   2.5416  -1.4175  -0.3708  -1.3491   0.00    0.0
2158 184301.000  -2417040.5993   5386020.7091   2406573.3474   5   6   2.4549   5.1796   2.5418  -1.4181  -0.3710  -1.3489   0.00    0.0
2158 184302.000  -2417036.3046   5386023.7206   2406565.0051   5   5   3.5826   5.1791   4.2165  -1.4143  -0.3925  -3.2553   0.00    0.0
2158 184303.000  -2417037.4523   5386024.5613   2406563.6253   5   5   3.5823   5.1786   4.2166  -1.4164  -0.3858  -3.2550   0.00    0.0
2158 184304.000  -2417036.7609   5386024.9695   2406564.7318   5   5   3.5819   5.1782   4.2167  -1.4186  -0.3789  -3.2547   0.00    0.0
2158 184305.000  -2417034.3845   5386015.8943   2406558.1963   5   4   4.1219   8.8222   6.7729  -4.0733   6.1416  -4.6265   0.00    0.0
2158 184307.000  -2417025.3005   5385997.4030   2406552.3470   5   4   4.1227   8.8252   6.7784  -4.0783   6.1483  -4.6291   0.00    0.0
2158 184308.000  -2417017.5958   5385988.4755   2406546.3395   5   4   4.1231   8.8267   6.7811  -4.0808   6.1517  -4.6304   0.00    0.0
2158 184309.000  -2417007.4465   5385960.8663   2406538.1665   5   4   4.1235   8.8282   6.7839  -4.0833   6.1550  -4.6318   0.00    0.0
2158 184310.000  -2417005.3969   5385968.5257   2406540.3312   5   5   2.4711   7.3542   3.0000  -0.7484   2.8597  -1.1696   0.00    0.0
2158 184311.000  -2417008.1318   5385959.2243   2406548.5734   5   5   2.4712   7.3529   3.0001  -0.7502   2.8594  -1.1694   0.00    0.0
2158 184312.000  -2417011.1784   5385937.9984   2406553.9630   5   6   2.4518   4.9578   2.9953  -1.4979   3.0200  -1.1460   0.00    0.0
2158 184313.000  -2417013.9429   5385944.1677   2406556.5968   5   6   2.4518   4.9570   2.9954  -1.4980   3.0197  -1.1459   0.00    0.0
2158 184314.000  -2417017.1783   5385948.6493   2406559.1567   5   6   2.4519   4.9562   2.9956  -1.4982   3.0194  -1.1457   0.00    0.0
2158 184315.000  -2417014.7426   5385958.5837   2406562.4684   5   6   2.4520   4.9554   2.9958  -1.4983   3.0191  -1.1456   0.00    0.0
2158 184316.000  -2417017.2396   5385961.1548   2406565.0838   5   6   2.4520   4.9546   2.9959  -1.4985   3.0188  -1.1455   0.00    0.0
2158 184317.000  -2417018.3191   5385966.0218   2406566.4277   5   6   2.4521   4.9538   2.9961  -1.4986   3.0185  -1.1453   0.00    0.0
2158 184318.000  -2417016.7382   5385969.8720   2406569.2827   5   6   2.4522   4.9530   2.9963  -1.4987   3.0182  -1.1452   0.00    0.0
2158 184319.000  -2417016.5064   5385976.1958   2406571.6594   5   6   2.4522   4.9522   2.9964  -1.4989   3.0179  -1.1450   0.00    0.0
2158 184320.000  -2417014.3860   5386004.6930   2406587.8445   5   6   2.4976   4.9908   2.5637  -1.0827   2.5902  -1.0329   0.00    0.0
2158 184321.000  -2417019.1222   5386005.8955   2406591.0521   5   6   2.4977   4.9900   2.5637  -1.0833   2.5896  -1.0331   0.00    0.0
2158 184322.000  -2417017.2538   5386005.2433   2406592.4237   5   6   2.4977   4.9893   2.5636  -1.0839   2.5891  -1.0332   0.00    0.0
2158 184323.000  -2417019.1876   5386006.0911   2406595.8150   5   6   2.4977   4.9886   2.5635  -1.0845   2.5885  -1.0333   0.00    0.0
2158 184324.000  -2417022.2319   5386010.3727   2406597.1613   5   6   2.4978   4.9878   2.5634  -1.0851   2.5879  -1.0335   0.00    0.0
2158 184325.000  -2417029.4333   5385960.7382   2406588.8354   5   5   2.4715   7.3352   3.0026  -0.7748   2.8554  -1.1672   0.00    0.0
2158 184326.000  -2417022.1387   5386017.1828   2406606.9582   5   5   2.5868   8.5905   4.3910   1.8770   5.6242   1.1525   0.00    0.0
2158 184327.000  -2417038.5732   5385991.7433   2406592.5856   5   6   2.5765   4.8262   3.0084  -1.1816   2.6776   1.4497   0.00    0.0
2158 184328.000  -2417040.5652   5385992.0607   2406594.3492   5   6   2.5768   4.8254   3.0090  -1.1813   2.6775   1.4504   0.00    0.0
2158 184329.000  -2417039.8815   5385989.9428   2406597.2362   5   6   2.5770   4.8246   3.0095  -1.1811   2.6774   1.4511   0.00    0.0
2158 184330.000  -2417023.0078   5386038.1521   2406623.4546   5   5   2.5866   8.5724   4.3845   1.8694   5.6118   1.1476   0.00    0.0
2158 184332.000  -2417019.6667   5386049.9314   2406632.5062   5   5   2.5865   8.5634   4.3812   1.8656   5.6057   1.1451   0.00    0.0
2158 184333.000  -2417023.5733   5386055.7331   2406633.3246   5   5   2.5864   8.5588   4.3796   1.8637   5.6026   1.1439   0.00    0.0
2158 184334.000  -2417037.7902   5386045.9070   2406622.5653   5   5   2.5864   8.5544   4.3780   1.8618   5.5996   1.1427   0.00    0.0
2158 184335.000  -2417034.5447   5386041.6338   2406627.2970   5   5   2.5863   8.5499   4.3763   1.8599   5.5965   1.1415   0.00    0.0
2158 184336.000  -2417034.1547   5386047.8829   2406630.7039   5   5   2.5863   8.5454   4.3747   1.8580   5.5935   1.1402   0.00    0.0
2158 184337.000  -2417053.3859   5386017.8485   2406611.9613   5   5   3.4030   5.0511   3.0985  -2.1812   2.8729   0.7252   0.00    0.0
2158 184338.000  -2417055.6364   5386022.0127   2406614.9837   5   5   3.4035   5.0502   3.0990  -2.1809   2.8726   0.7273   0.00    0.0
2158 184339.000  -2417056.7870   5386025.7008   2406615.5670   5   5   3.4040   5.0492   3.0994  -2.1807   2.8722   0.7294   0.00    0.0
2158 184343.000  -2417009.5700   5385956.6935   2406581.9319   5   5   4.0738   7.5385   6.8107  -4.5597   6.6269  -4.6026   0.00    0.0
2158 184344.000  -2417002.6135   5385950.9470   2406576.0445   5   5   4.0745   7.5402   6.8139  -4.5613   6.6297  -4.6044   0.00    0.0
2158 184345.000  -2417001.2959   5385953.5799   2406575.1773   5   5   4.0753   7.5420   6.8171  -4.5629   6.6324  -4.6061   0.00    0.0
2158 184346.000  -2417004.6946   5385951.4493   2406579.2749   5   5   4.0760   7.5437   6.8203  -4.5646   6.6352  -4.6079   0.00    0.0
2158 184347.000  -2417003.5107   5385945.9192   2406578.0829   5   5   4.0767   7.5455   6.8235  -4.5662   6.6379  -4.6096   0.00    0.0
2158 184348.000  -2417028.3505   5385987.6939   2406642.4701   5   5   2.7057   4.9711   3.3002  -1.7277   2.8611   0.5102   0.00    0.0
2158 184349.000  -2417020.2594   5385951.1619   2406594.4549   5   4   5.5248   8.0846   7.7705  -5.6271   7.4066  -5.9240   0.00    0.0
2158 184350.000  -2417020.6682   5385950.7255   2406594.8353   5   4   5.5265   8.0874   7.7753  -5.6300   7.4107  -5.9272   0.00    0.0
2158 184352.000  -2417029.9239   5385991.3670   2406648.0147   5   6   2.3967   4.8394   3.0531  -1.2549   2.6014   1.3567   0.00    0.0
2158 184357.000  -2416990.8190   5385930.0178   2406575.9698   5   5   4.0841   7.5634   6.8559  -4.5827   6.6657  -4.6274   0.00    0.0
2158 184360.000  -2417015.7585   5385960.3017   2406603.2051   5   5   4.0863   7.5688   6.8657  -4.5877   6.6742  -4.6328   0.00    0.0
2158 184370.000  -2416985.4089   5385931.0514   2406595.7465   5   4   8.0557  10.7594   8.7627  -8.6098   9.2812  -7.6886   0.00    0.0
2158 184371.000  -2416980.7473   5385921.6661   2406594.4611   5   4   8.0561  10.7603   8.7655  -8.6105   9.2833  -7.6899   0.00    0.0
2158 184372.000  -2416967.2081   5385896.5827   2406586.2788   5   4   8.0565  10.7613   8.7684  -8.6112   9.2853  -7.6912   0.00    0.0
2158 184373.000  -2416960.5245   5385887.0853   2406583.1855   5   4   8.0570  10.7622   8.7712  -8.6119   9.2874  -7.6924   0.00    0.0
2158 184374.000  -2416966.8164   5385897.3638   2406589.5157   5   4   8.0574  10.7631   8.7740  -8.6126   9.2894  -7.6937   0.00    0.0
2158 184375.000  -2416990.0732   5385914.0988   2406610.6001   5   4   8.0578  10.7641   8.7768  -8.6133   9.2915  -7.6949   0.00    0.0
2158 184376.000  -2416987.7849   5385894.9880   2406611.1959   5   4   8.0582  10.7650   8.7796  -8.6140   9.2935  -7.6962   0.00    0.0
2158 184377.000  -2416994.7018   5385901.7092   2406616.6953   5   4   8.0586  10.7660   8.7825  -8.6147   9.2956  -7.6974   0.00    0.0
2158 184378.000  -2417038.3932   5385944.4441   2406654.6578   5   4   8.0590  10.7669   8.7853  -8.6154   9.2976  -7.6986   0.00    0.0
2158 184391.000  -2417001.0029   5385943.3439   2406619.0769   5   4   8.0648  10.7798   8.8226  -8.6248   9.3248  -7.7153   0.00    0.0
2158 184392.000  -2416977.1412   5385914.3020   2406600.8580   5   4   8.0652  10.7808   8.8255  -8.6256   9.3269  -7.7166   0.00    0.0
2158 184401.000  -2417068.5065   5386099.0624   2406670.2842   5   4   6.2166   8.5944   4.2508  -6.1417  -1.5437  -2.8977   0.00    0.0
2158 184402.000  -2416967.7033   5385893.4955   2406600.0280   5   4   8.0698  10.7913   8.8548  -8.6332   9.3483  -7.7297   0.00    0.0
2158 184403.000  -2416983.6589   5385913.5428   2406614.6602   5   4   8.0703  10.7923   8.8577  -8.6339   9.3505  -7.7310   0.00    0.0
2158 184404.000  -2416991.7646   5385928.4079   2406622.3143   5   4   8.0707  10.7934   8.8607  -8.6347   9.3526  -7.7323   0.00    0.0
2158 184405.000  -2416985.7495   5385922.0033   2406618.3135   5   4   8.0712  10.7945   8.8637  -8.6354   9.3548  -7.7336   0.00    0.0
2158 184406.000  -2416977.3886   5385914.0058   2406612.8107   5   4   8.0717  10.7955   8.8666  -8.6362   9.3570  -7.7349   0.00    0.0
2158 184407.000  -2416961.2500   5385898.5934   2406599.8785   5   4   8.0722  10.7966   8.8696  -8.6370   9.3592  -7.7363   0.00    0.0
2158 184408.000  -2416948.0044   5385887.0105   2406589.7788   5   4   8.0726  10.7977   8.8726  -8.6378   9.3614  -7.7376   0.00    0.0
2158 184412.000  -2417032.6886   5385980.7408   2406679.9735   5   5   2.7244   5.3514   4.0644  -1.8281   3.6970   0.3135   0.00    0.0
2158 184413.000  -2417042.7718   5386015.4933   2406686.4661   5   4   2.9637   9.4228   4.3545  -3.5197   1.2587   1.3854   0.00    0.0
2158 184414.000  -2417046.2565   5386035.9241   2406692.6248   5   4   2.9639   9.4196   4.3561  -3.5192   1.2621   1.3866   0.00    0.0
2158 184415.000  -2417046.6761   5386044.9905   2406694.3480   5   4   2.9641   9.4163   4.3578  -3.5186   1.2655   1.3878   0.00    0.0
2158 184416.000  -2417050.8825   5385975.2722   2406714.6556   5   5   2.6018   5.3443   3.8848  -1.4908   3.7602  -1.4733   0.00    0.0
2158 184417.000  -2417050.0630   5385972.4842   2406720.3299   5   5   2.6018   5.3442   3.8859  -1.4912   3.7609  -1.4736   0.00    0.0
2158 184418.000  -2417029.1511   5386020.8247   2406708.2936   5   4   4.1781   9.0306   7.1142  -4.3653   6.5499  -4.7956   0.00    0.0
2158 184419.000  -2416980.9475   5385913.8668   2406681.2891   5   4   8.0779  10.8099   8.9056  -8.6464   9.3857  -7.7523   0.00    0.0
2158 184420.000  -2416974.7119   5385905.3045   2406677.7769   5   4   8.0784  10.8111   8.9086  -8.6472   9.3879  -7.7537   0.00    0.0
2158 184423.000  -2416955.8665   5385884.7632   2406677.1469   5   4   8.0799  10.8145   8.9177  -8.6497   9.3947  -7.7577   0.00    0.0
2158 184425.000  -2416952.5933   5385915.7869   2406695.6533   5   5   4.1383   7.6981   7.0902  -4.7013   6.8679  -4.7554   0.00    0.0
2158 184426.000  -2416938.1355   5385898.4294   2406683.0376   5   5   4.1392   7.7002   7.0939  -4.7032   6.8710  -4.7574   0.00    0.0
2158 184427.000  -2416936.8430   5385896.6117   2406687.7806   5   5   4.1400   7.7024   7.0975  -4.7050   6.8742  -4.7594   0.00    0.0
2158 184428.000  -2416934.2368   5385884.4954   2406685.5187   5   5   4.1409   7.7046   7.1012  -4.7069   6.8773  -4.7614   0.00    0.0
2158 184429.000  -2416939.8566   5385886.8078   2406690.7950   5   5   4.1418   7.7067   7.1048  -4.7087   6.8805  -4.7634   0.00    0.0
2158 184430.000  -2416940.7236   5385885.6855   2406691.5201   5   5   4.1426   7.7089   7.1085  -4.7105   6.8837  -4.7654   0.00    0.0
2158 184431.000  -2416935.7495   5385879.7243   2406686.2098   5   5   4.1435   7.7111   7.1121  -4.7124   6.8869  -4.7674   0.00    0.0
2158 184432.000  -2416926.7127   5385871.6711   2406676.7287   5   5   4.1443   7.7133   7.1158  -4.7142   6.8900  -4.7694   0.00    0.0
2158 184433.000  -2416926.4947   5385869.4709   2406676.6806   5   5   4.1452   7.7155   7.1195  -4.7161   6.8932  -4.7714   0.00    0.0
2158 184434.000  -2416930.1246   5385870.7715   2406680.5687   5   5   4.1461   7.7177   7.1231  -4.7179   6.8964  -4.7734   0.00    0.0
2158 184435.000  -2416930.7539   5385870.8356   2406681.0256   5   5   4.1470   7.7199   7.1268  -4.7198   6.8996  -4.7754   0.00    0.0
2158 184436.000  -2416929.0473   5385870.2072   2406678.9834   5   5   4.1478   7.7221   7.1305  -4.7217   6.9028  -4.7774   0.00    0.0
2158 184437.000  -2416928.8115   5385868.9445   2406678.4970   5   5   4.1487   7.7243   7.1342  -4.7235   6.9060  -4.7794   0.00    0.0
2158 184438.000  -2416929.5739   5385868.8786   2406678.9873   5   5   4.1496   7.7265   7.1379  -4.7254   6.9092  -4.7814   0.00    0.0
2158 184439.000  -2416930.9037   5385869.5617   2406680.3827   5   5   4.1505   7.7287   7.1416  -4.7272   6.9125  -4.7835   0.00    0.0
2158 184440.000  -2416930.9106   5385869.3065   2406680.3843   5   5   4.1513   7.7310   7.1453  -4.7291   6.9157  -4.7855   0.00    0.0
2158 184441.000  -2416930.8049   5385868.6689   2406679.8308   5   5   4.1522   7.7332   7.1490  -4.7310   6.9189  -4.7875   0.00    0.0
2158 184442.000  -2416931.0920   5385868.5766   2406679.9415   5   5   4.1531   7.7354   7.1528  -4.7329   6.9221  -4.7895   0.00    0.0
2158 184443.000  -2416931.2217   5385868.7405   2406680.0573   5   5   4.1540   7.7377   7.1565  -4.7347   6.9254  -4.7916   0.00    0.0
2158 184444.000  -2416931.2666   5385868.6306   2406680.0586   5   5   4.1549   7.7399   7.1602  -4.7366   6.9286  -4.7936   0.00    0.0
2158 184445.000  -2416931.4857   5385868.8841   2406680.2546   5   5   4.1558   7.7422   7.1640  -4.7385   6.9319  -4.7957   0.00    0.0
2158 184446.000  -2416931.5954   5385869.1385   2406680.2947   5   5   4.1566   7.7445   7.1677  -4.7404   6.9351  -4.7977   0.00    0.0
2158 184447.000  -2416931.5789   5385869.4756   2406680.3429   5   5   4.1575   7.7467   7.1715  -4.7423   6.9384  -4.7997   0.00    0.0
2158 184448.000  -2416931.4466   5385869.9601   2406680.4049   5   5   4.1584   7.7490   7.1752  -4.7442   6.9416  -4.8018   0.00    0.0
2158 184449.000  -2416931.4899   5385870.3004   2406680.4605   5   5   4.1593   7.7513   7.1790  -4.7461   6.9449  -4.8038   0.00    0.0
2158 184450.000  -2416931.6003   5385870.7898   2406680.6880   5   5   4.1602   7.7535   7.1827  -4.7480   6.9482  -4.8059   0.00    0.0
2158 184451.000  -2416931.7108   5385870.9676   2406680.9138   5   5   4.1611   7.7558   7.1865  -4.7499   6.9515  -4.8080   0.00    0.0
2158 184452.000  -2416931.8144   5385871.4328   2406681.0651   5   5   4.1620   7.7581   7.1903  -4.7518   6.9548  -4.8100   0.00    0.0
2158 184453.000  -2416931.8122   5385871.7002   2406681.1377   5   5   4.1629   7.7604   7.1941  -4.7537   6.9581  -4.8121   0.00    0.0
2158 184454.000  -2416932.1781   5385872.3306   2406681.6272   5   5   4.1638   7.7627   7.1979  -4.7556   6.9613  -4.8142   0.00    0.0
2158 184455.000  -2416932.1533   5385872.2499   2406681.3729   5   5   4.1647   7.7650   7.2017  -4.7575   6.9647  -4.8162   0.00    0.0
2158 184456.000  -2416932.0060   5385874.4753   2406681.2429   5   5   4.1656   7.7673   7.2055  -4.7594   6.9680  -4.8183   0.00    0.0
2158 184457.000  -2416931.6834   5385878.2099   2406680.7568   5   5   4.1665   7.7697   7.2093  -4.7613   6.9713  -4.8204   0.00    0.0
2158 184461.000  -2416933.0196   5385876.8255   2406682.4776   5   4   4.2067   9.1328   7.2632  -4.4831   6.7236  -4.8713   0.00    0.0
2158 184462.000  -2416933.2643   5385877.3783   2406683.0252   5   4   4.2074   9.1353   7.2668  -4.4859   6.7277  -4.8732   0.00    0.0
2158 184463.000  -2416933.5332   5385877.4604   2406683.2828   5   4   4.2081   9.1378   7.2704  -4.4887   6.7319  -4.8750   0.00    0.0
2158 184464.000  -2416933.9246   5385877.4570   2406683.7227   5   4   4.2088   9.1404   7.2740  -4.4915   6.7361  -4.8769   0.00    0.0
2158 184467.000  -2416935.0621   5385871.5242   2406685.8274   5   5   4.1757   7.7932   7.2477  -4.7806   7.0047  -4.8413   0.00    0.0
2158 184468.000  -2416934.6978   5385876.2330   2406685.5081   5   5   4.1767   7.7955   7.2516  -4.7826   7.0081  -4.8434   0.00    0.0
2158 184469.000  -2416934.9262   5385879.4659   2406686.0747   5   5   4.1776   7.7979   7.2554  -4.7845   7.0115  -4.8456   0.00    0.0
2158 184470.000  -2416935.1742   5385880.2533   2406686.5710   5   5   4.1785   7.8003   7.2593  -4.7865   7.0149  -4.8477   0.00    0.0
2158 184471.000  -2416935.2437   5385880.8039   2406686.7285   5   5   4.1795   7.8027   7.2632  -4.7884   7.0182  -4.8498   0.00    0.0
2158 184472.000  -2416935.6718   5385880.6325   2406687.2562   5   5   4.1804   7.8051   7.2671  -4.7904   7.0216  -4.8519   0.00    0.0
2158 184473.000  -2416935.8714   5385881.2770   2406687.4395   5   5   4.1813   7.8075   7.2710  -4.7923   7.0250  -4.8540   0.00    0.0
2158 184474.000  -2416936.1078   5385881.7065   2406687.7955   5   5   4.1823   7.8099   7.2749  -4.7943   7.0285  -4.8562   0.00    0.0
2158 184475.000  -2416936.2338   5385881.7548   2406687.7776   5   5   4.1832   7.8123   7.2788  -4.7963   7.0319  -4.8583   0.00    0.0
2158 184476.000  -2416936.5959   5385882.5599   2406688.4692   5   5   4.1842   7.8147   7.2828  -4.7982   7.0353  -4.8605   0.00    0.0
2158 184477.000  -2416936.8119   5385883.4456   2406689.2903   5   5   4.1851   7.8172   7.2867  -4.8002   7.0387  -4.8626   0.00    0.0
2158 184478.000  -2416936.9426   5385883.7124   2406689.5661   5   5   4.1860   7.8196   7.2906  -4.8022   7.0421  -4.8647   0.00    0.0
2158 184479.000  -2416937.0603   5385884.2466   2406690.0116   5   5   4.1870   7.8220   7.2945  -4.8042   7.0456  -4.8669   0.00    0.0
2158 184480.000  -2416937.1707   5385884.5678   2406690.2058   5   5   4.1879   7.8245   7.2985  -4.8061   7.0490  -4.8690   0.00    0.0
2158 184481.000  -2416937.2619   5385884.7194   2406690.2274   5   5   4.1889   7.8269   7.3024  -4.8081   7.0525  -4.8712   0.00    0.0
2158 184482.000  -2416937.4085   5385885.2256   2406690.7055   5   5   4.1898   7.8294   7.3064  -4.8101   7.0559  -4.8733   0.00    0.0
2158 184483.000  -2416937.2673   5385886.5045   2406691.4557   5   5   4.1908   7.8318   7.3104  -4.8121   7.0594  -4.8755   0.00    0.0
2158 184484.000  -2416937.4702   5385887.8554   2406694.0307   5   5   4.1918   7.8343   7.3143  -4.8141   7.0628  -4.8777   0.00    0.0
2158 184485.000  -2416953.3347   5385905.0861   2406709.1034   5   4   8.1131  10.8938   9.1155  -8.7037   9.5424  -7.8461   0.00    0.0
2158 184486.000  -2416952.3923   5385901.0903   2406715.6672   5   4   8.1137  10.8952   9.1189  -8.7046   9.5449  -7.8476   0.00    0.0
2158 184487.000  -2416986.0321   5385941.6905   2406749.0624   5   4   4.2259   9.2011   7.3588  -4.5565   6.8340  -4.9204   0.00    0.0
2158 184491.000  -2416957.1764   5385901.1137   2406755.4092   5   4   8.1166  10.9023   9.1356  -8.7093   9.5575  -7.8550   0.00    0.0
2158 184492.000  -2416961.3103   5385913.7385   2406770.1773   5   5   4.1995   7.8542   7.3463  -4.8301   7.0907  -4.8951   0.00    0.0
2158 184493.000  -2416938.6030   5385876.2552   2406753.7751   5   4   4.2306   9.2176   7.3815  -4.5737   6.8601  -4.9321   0.00    0.0
2158 184494.000  -2416934.3697   5385879.7614   2406759.2882   5   4   4.2314   9.2204   7.3853  -4.5766   6.8645  -4.9340   0.00    0.0
2158 184495.000  -2416928.8786   5385862.1365   2406756.9304   5   5   4.2024   7.8618   7.3584  -4.8362   7.1013  -4.9017   0.00    0.0
2158 184496.000  -2416900.0338   5385823.6390   2406739.8545   5   4   8.1196  10.9096   9.1526  -8.7141   9.5704  -7.8626   0.00    0.0
2158 184499.000  -2416960.5445   5385907.0706   2406810.4453   5   5   4.2063   7.8719   7.3746  -4.8443   7.1155  -4.9105   0.00    0.0
2158 184500.000  -2416944.7517   5385887.0963   2406803.5377   5   4   4.2362   9.2372   7.4083  -4.5939   6.8909  -4.9459   0.00    0.0
2158 184503.000  -2416934.3232   5385906.3170   2406809.0650   5   4   4.2386   9.2457   7.4199  -4.6026   6.9041  -4.9518   0.00    0.0
2158 184506.000  -2416925.7118   5385859.8468   2406826.6634   5   4   4.2410   9.2543   7.4315  -4.6113   6.9175  -4.9579   0.00    0.0
2158 184507.000  -2416922.0128   5385863.9806   2406826.9408   5   5   4.2143   7.8926   7.4073  -4.8607   7.1441  -4.9283   0.00    0.0
2158 184508.000  -2416925.1191   5385859.8329   2406834.9477   5   4   5.8354   8.6342   8.6668  -6.1441   8.1726  -6.5145   0.00    0.0
2158 184509.000  -2416916.1927   5385848.5082   2406831.5420   5   4   5.8377   8.6384   8.6733  -6.1478   8.1782  -6.5188   0.00    0.0
2158 184510.000  -2416909.4428   5385842.1213   2406829.3381   5   4   5.8400   8.6426   8.6798  -6.1516   8.1839  -6.5231   0.00    0.0
2158 184511.000  -2416905.5518   5385838.8831   2406829.5789   5   4   5.8423   8.6468   8.6863  -6.1553   8.1895  -6.5274   0.00    0.0
2158 184512.000  -2416903.9422   5385837.8205   2406832.4429   5   4   5.8446   8.6510   8.6929  -6.1591   8.1951  -6.5317   0.00    0.0
2158 184513.000  -2416902.4345   5385842.5558   2406836.4210   5   5   4.2203   7.9082   7.4321  -4.8731   7.1658  -4.9418   0.00    0.0
2158 184514.000  -2416903.1881   5385846.8612   2406842.7724   5   5   4.2213   7.9109   7.4363  -4.8752   7.1694  -4.9441   0.00    0.0
2158 184515.000  -2416900.1294   5385838.0701   2406844.2254   5   4   4.2485   9.2805   7.4668  -4.6376   6.9578  -4.9761   0.00    0.0
2158 184516.000  -2416900.6019   5385836.6147   2406849.0379   5   4   4.2493   9.2835   7.4708  -4.6405   6.9624  -4.9782   0.00    0.0
2158 184518.000  -2416900.1920   5385834.8157   2406854.2744   5   4   4.2510   9.2894   7.4787  -4.6464   6.9714  -4.9823   0.00    0.0
2158 184519.000  -2416960.2075   5385955.3738   2406896.7709   5   5   2.7394   5.3463   4.2466  -1.7873   3.8036   0.6322   0.00    0.0
2158 184520.000  -2416975.4301   5385971.5471   2406915.3104   5   5   2.7396   5.3463   4.2485  -1.7868   3.8047   0.6347   0.00    0.0
2158 184523.000  -2416984.2707   5385979.7218   2406928.2008   5   5   2.7402   5.3466   4.2541  -1.7855   3.8081   0.6421   0.00    0.0
2158 184524.000  -2416899.6415   5385833.1709   2406858.5561   5   4   4.2561   9.3074   7.5027  -4.6642   6.9988  -4.9947   0.00    0.0
2158 184525.000  -2416899.1184   5385832.4603   2406858.4634   5   4   4.2569   9.3104   7.5067  -4.6671   7.0034  -4.9968   0.00    0.0
2158 184527.000  -2416898.5135   5385832.5849   2406860.4020   5   4   4.2587   9.3165   7.5147  -4.6731   7.0125  -5.0010   0.00    0.0
2158 184528.000  -2416897.8524   5385832.2026   2406860.9077   5   4   4.2595   9.3196   7.5188  -4.6761   7.0171  -5.0030   0.00    0.0
2158 184529.000  -2416897.2974   5385831.4893   2406861.6561   5   4   4.2604   9.3226   7.5228  -4.6790   7.0218  -5.0051   0.00    0.0
2158 184530.000  -2416896.9630   5385831.2900   2406862.7778   5   4   4.2613   9.3257   7.5269  -4.6820   7.0264  -5.0073   0.00    0.0
2158 184531.000  -2416896.3438   5385830.8441   2406863.5487   5   4   4.2622   9.3288   7.5309  -4.6850   7.0310  -5.0094   0.00    0.0
2158 184536.000  -2416908.2211   5386030.0045   2406955.0078   5   5   3.4554   4.9950   3.6534  -2.0677   3.0320  -2.7059   0.00    0.0
2158 184541.000  -2416894.7949   5385827.8688   2406870.4850   5   4   4.2710   9.3600   7.5719  -4.7150   7.0776  -5.0307   0.00    0.0
2158 184542.000  -2416896.1835   5385835.8106   2406873.9163   5   4   4.2719   9.3631   7.5761  -4.7180   7.0823  -5.0328   0.00    0.0
2158 184543.000  -2416894.3556   5385835.3960   2406876.0936   5   4   4.2728   9.3663   7.5802  -4.7210   7.0870  -5.0350   0.00    0.0
2158 184545.000  -2416966.1051   5385968.7528   2406941.8088   5   4   8.1499  10.9857   9.3246  -8.7630   9.7011  -7.9390   0.00    0.0
2158 184546.000  -2416948.3463   5385951.1114   2406931.4625   5   4   8.1506  10.9874   9.3283  -8.7641   9.7039  -7.9406   0.00    0.0
2158 184548.000  -2416889.3540   5385880.3548   2406890.6869   5   5   4.2569   8.0038   7.5813  -4.9477   7.2966  -5.0231   0.00    0.0
2158 184556.000  -2416961.3375   5385999.5045   2406969.9885   5   5   4.3108   7.8312   3.2800  -4.8492  -3.4875   2.3271   0.00    0.0
2158 184557.000  -2416962.6641   5386003.6822   2406969.7414   5   5   4.3120   7.8307   3.2806  -4.8501  -3.4879   2.3283   0.00    0.0
2158 184558.000  -2416959.0905   5385860.3750   2406992.2539   5   4   4.0890  10.6410   3.1733   4.9521   1.1142  -1.9990   0.00    0.0
2158 184560.000  -2416883.1162   5385869.8689   2406908.7587   5   4   4.2886   9.4215   7.6518  -4.7729   7.1681  -5.0723   0.00    0.0
2158 184563.000  -2416983.1441   5386100.0354   2406978.8223   5   4   4.3470  10.0867   3.5076  -5.1668  -2.0856   2.2025   0.00    0.0
2158 184574.000  -2416852.7655   5385825.7225   2406887.0744   5   4   4.3021   9.4689   7.7123  -4.8164   7.2366  -5.1040   0.00    0.0
2158 184575.000  -2416914.9909   5385827.8188   2406967.6827   5   5   2.9363   5.5686   3.7994   1.5399  -2.3672  -2.5235   0.00    0.0
2158 184576.000  -2416909.3827   5385838.2308   2406964.8355   5   5   2.9362   5.5686   3.8003   1.5393  -2.3676  -2.5237   0.00    0.0
2158 184577.000  -2416908.7934   5385912.9806   2406921.7130   5   5   3.0011   6.8796   3.8902  -3.3765  -3.3986   1.6492   0.00    0.0
2158 184578.000  -2416908.7969   5385916.1056   2406922.7961   5   5   3.0014   6.8785   3.8909  -3.3767  -3.3984   1.6499   0.00    0.0
2158 184579.000  -2416908.8981   5385919.2149   2406923.8920   5   5   3.0017   6.8775   3.8916  -3.3769  -3.3981   1.6507   0.00    0.0
2158 184580.000  -2416909.4444   5385919.3113   2406923.5311   5   5   3.0020   6.8764   3.8924  -3.3771  -3.3978   1.6514   0.00    0.0
2158 184581.000  -2416909.3245   5385920.1891   2406923.1118   5   5   3.0023   6.8753   3.8931  -3.3773  -3.3976   1.6521   0.00    0.0
2158 184586.000  -2416853.2343   5385831.6424   2406886.3822   5   4   4.3141   9.5109   7.7654  -4.8542   7.2964  -5.1318   0.00    0.0
2158 184587.000  -2416853.3614   5385832.6424   2406886.4749   5   4   4.3151   9.5145   7.7699  -4.8573   7.3015  -5.1342   0.00    0.0
2158 184588.000  -2416853.5705   5385832.8784   2406886.5243   5   4   4.3161   9.5180   7.7744  -4.8605   7.3065  -5.1365   0.00    0.0
2158 184599.000  -2416850.6790   5385836.6905   2406882.5458   5   4   4.3275   9.5579   7.8242  -4.8957   7.3625  -5.1627   0.00    0.0
2158 184600.000  -2416854.1767   5385835.8104   2406886.4590   5   4   4.3285   9.5616   7.8288  -4.8989   7.3677  -5.1651   0.00    0.0
2158 184601.000  -2416855.0108   5385835.7203   2406887.1689   5   4   4.3296   9.5652   7.8334  -4.9021   7.3728  -5.1675   0.00    0.0
2158 184602.000  -2416853.9835   5385835.8128   2406885.8613   5   4   4.3307   9.5689   7.8380  -4.9054   7.3780  -5.1700   0.00    0.0
2158 184603.000  -2416856.4946   5385835.0229   2406888.8657   5   4   4.3317   9.5726   7.8426  -4.9086   7.3832  -5.1724   0.00    0.0
2158 184604.000  -2416858.2235   5385834.6635   2406891.1174   5   4   4.3328   9.5764   7.8472  -4.9118   7.3883  -5.1748   0.00    0.0
2158 184605.000  -2416863.7199   5385833.4520   2406897.6566   5   4   4.3338   9.5801   7.8518  -4.9151   7.3935  -5.1772   0.00    0.0
2158 184606.000  -2416865.6858   5385833.6224   2406899.9672   5   4   4.3349   9.5838   7.8564  -4.9183   7.3987  -5.1797   0.00    0.0
2158 184607.000  -2416865.5438   5385833.7643   2406899.6572   5   4   4.3360   9.5876   7.8610  -4.9216   7.4039  -5.1821   0.00    0.0
2158 184621.000  -2416838.2584   5385841.2554   2406866.8406   5   4   6.1286   9.1775   9.4869  -6.6157   8.8837  -7.0506   0.00    0.0
2158 184622.000  -2416835.1203   5385841.4179   2406863.8989   5   4   6.1316   9.1830   9.4950  -6.6204   8.8907  -7.0559   0.00    0.0
2158 184623.000  -2416827.8523   5385835.0185   2406858.4778   5   4   6.1345   9.1885   9.5031  -6.6250   8.8978  -7.0612   0.00    0.0
2158 184626.000  -2416854.3303   5385907.9169   2406932.5411   5   5   3.4693   4.9697   3.7021  -2.1425   3.0368  -2.7437   0.00    0.0
2158 184627.000  -2416855.3954   5385838.4976   2406906.7212   5   4   4.3579   9.6644   7.9554  -4.9873   7.5095  -5.2319   0.00    0.0
2158 184629.000  -2416884.8237   5385844.2772   2406950.4565   5   4   4.3602   9.6723   7.9650  -4.9940   7.5203  -5.2370   0.00    0.0
2158 184630.000  -2416884.2965   5385842.8472   2406955.7815   5   4   4.3613   9.6762   7.9698  -4.9973   7.5257  -5.2395   0.00    0.0
2158 184631.000  -2416883.8264   5385845.2344   2406960.3746   5   4   4.3624   9.6802   7.9746  -5.0007   7.5311  -5.2421   0.00    0.0
2158 184636.000  -2416925.8384   5385925.7528   2407017.2615   5   4   8.2133  11.1540   9.6772  -8.8653   9.9728  -8.0934   0.00    0.0
2158 184638.000  -2416933.0923   5385944.1926   2407034.4807   5   5   3.6130   4.8374   3.2705  -2.1107   2.8141   1.3029   0.00    0.0
2158 184639.000  -2416894.4081   5386012.7606   2407082.6723   5   5   2.5992   7.4542   3.9930   1.3018   4.8316   0.7985   0.00    0.0
2158 184640.000  -2416891.4719   5386019.2431   2407088.9504   5   5   2.5994   7.4513   3.9921   1.3000   4.8295   0.7974   0.00    0.0
2158 184660.000  -2416916.8327   5385831.8094   2407053.1287   5   4   4.5657   4.8458   3.4350  -2.1910   2.7308   1.8017   0.00    0.0
2158 184661.000  -2416812.4196   5385812.9580   2407101.9189   5   4   4.3057   4.8277   3.2899  -2.0406   2.8103   1.2413   0.00    0.0
2158 184669.000  -2416816.3248   5385813.9477   2407128.8341   5   4   4.4076   9.8384   8.1645  -5.1307   7.7425  -5.3428   0.00    0.0
2158 184670.000  -2416922.1853   5385997.8625   2407234.0692   5   4   8.2389  11.2255   9.8202  -8.9069  10.0840  -8.1549   0.00    0.0
2158 184671.000  -2416864.5652   5385870.8387   2407191.4066   5   4   6.6832   8.7437   4.3387  -6.6633  -1.2795  -2.7543   0.00    0.0
2158 184673.000  -2416854.9301   5385861.6076   2407194.3838   5   6   3.3825   4.1838   3.7031  -2.6309   2.8403  -2.8287   0.00    0.0
2158 184675.000  -2416823.4912   5385844.4721   2407203.2624   5   5   3.4791   4.9594   3.7304  -2.1830   3.0402  -2.7656   0.00    0.0
2158 184677.000  -2416809.3868   5385756.1510   2407167.4312   5   4   4.4176   9.8736   8.2061  -5.1589   7.7887  -5.3649   0.00    0.0
2158 184678.000  -2416826.6980   5385807.4197   2407189.2196   5   5   4.4145   8.4248   8.2095  -5.2598   7.8513  -5.3645   0.00    0.0
