% program   : RTKPOST ver.2.4.2
% inp file  : D:\ligo\m2dgr\parking2.obs
% inp file  : D:\ligo\m2dgr\m2dgr-park.rnx
% inp file  : D:\ligo\m2dgr\park2.sp3
% obs start : 2022/11/18 03:29:48.0 GPST (week2236 444588.0s)
% obs end   : 2022/11/18 03:32:12.0 GPST (week2236 444732.0s)
% pos mode  : ppp-kinematic
% solution  : forward
% elev mask : 15.0 deg
% dynamics  : off
% tidecorr  : on
% tropo opt : est ztd+grad
% ephemeris : precise
% navi sys  : gps glonass galileo
% antenna1  :                       ( 0.0000  0.0000  0.0000)
%
% (x/y/z-ecef=WGS84,Q=1:fix,2:float,3:sbas,4:dgps,5:single,6:ppp,ns=# of satellites)
%  GPST              x-ecef(m)      y-ecef(m)      z-ecef(m)   Q  ns   sdx(m)   sdy(m)   sdz(m)  sdxy(m)  sdyz(m)  sdzx(m) age(s)  ratio
2236 444588.000  -2853480.5863   4667436.7029   3268274.6396   6   8   2.0456   3.0135   1.6014  -2.0620   1.5521  -1.3252   0.00    0.0
2236 444589.000  -2853480.3457   4667436.6622   3268274.5453   6   7   1.6640   2.2192   1.1672  -1.6222   1.1737  -1.0498   0.00    0.0
2236 444590.000  -2853480.0767   4667436.4799   3268274.4748   6   7   1.4456   1.8506   0.9695  -1.3921   0.9920  -0.9038   0.00    0.0
2236 444591.000  -2853479.9539   4667436.4682   3268274.4491   6   7   1.2971   1.6240   0.8494  -1.2412   0.8780  -0.8076   0.00    0.0
2236 444592.000  -2853479.7929   4667436.5014   3268274.4427   6   7   1.1870   1.4658   0.7664  -1.1316   0.7974  -0.7376   0.00    0.0
2236 444593.000  -2853479.6445   4667436.5458   3268274.3959   6   7   1.1011   1.3470   0.7045  -1.0471   0.7365  -0.6836   0.00    0.0
2236 444594.000  -2853479.4494   4667436.4755   3268274.3444   6   7   1.0316   1.2535   0.6561  -0.9793   0.6882  -0.6402   0.00    0.0
2236 444595.000  -2853479.2859   4667436.3727   3268274.2667   6   7   0.9737   1.1774   0.6169  -0.9232   0.6487  -0.6044   0.00    0.0
2236 444596.000  -2853479.0847   4667436.1871   3268274.1968   6   7   0.9246   1.1137   0.5843  -0.8758   0.6156  -0.5740   0.00    0.0
2236 444597.000  -2853478.8815   4667436.0060   3268274.1324   6   7   0.8821   1.0594   0.5566  -0.8349   0.5873  -0.5479   0.00    0.0
2236 444598.000  -2853478.7269   4667435.8373   3268274.0752   6   7   0.8449   1.0123   0.5328  -0.7992   0.5628  -0.5252   0.00    0.0
2236 444599.000  -2853478.6144   4667435.6616   3268274.0117   6   7   0.8120   0.9710   0.5119  -0.7676   0.5412  -0.5050   0.00    0.0
2236 444600.000  -2853478.4923   4667435.4637   3268273.9437   6   7   0.7825   0.9344   0.4935  -0.7394   0.5221  -0.4871   0.00    0.0
2236 444601.000  -2853478.4200   4667435.2965   3268273.8935   6   7   0.7560   0.9015   0.4770  -0.7141   0.5049  -0.4710   0.00    0.0
2236 444602.000  -2853478.3850   4667435.1598   3268273.8592   6   7   0.7319   0.8719   0.4623  -0.6911   0.4894  -0.4564   0.00    0.0
2236 444603.000  -2853478.3526   4667435.0389   3268273.8555   6   7   0.7099   0.8450   0.4489  -0.6700   0.4754  -0.4430   0.00    0.0
2236 444604.000  -2853478.3262   4667434.8934   3268273.8155   6   7   0.6897   0.8204   0.4367  -0.6508   0.4625  -0.4308   0.00    0.0
2236 444605.000  -2853478.3012   4667434.7622   3268273.7984   6   7   0.6710   0.7978   0.4256  -0.6330   0.4507  -0.4196   0.00    0.0
2236 444606.000  -2853478.2469   4667434.5827   3268273.7833   6   7   0.6537   0.7769   0.4154  -0.6166   0.4398  -0.4092   0.00    0.0
2236 444607.000  -2853478.1611   4667434.3553   3268273.7331   6   7   0.6377   0.7576   0.4059  -0.6013   0.4298  -0.3996   0.00    0.0
2236 444608.000  -2853478.0918   4667434.1391   3268273.6921   6   7   0.6228   0.7396   0.3972  -0.5871   0.4204  -0.3906   0.00    0.0
2236 444609.000  -2853477.9766   4667433.8828   3268273.6426   6   7   0.6088   0.7229   0.3890  -0.5738   0.4117  -0.3822   0.00    0.0
2236 444610.000  -2853477.9419   4667433.5545   3268273.6557   6   7   0.5956   0.7072   0.3814  -0.5613   0.4036  -0.3744   0.00    0.0
2236 444611.000  -2853477.9009   4667433.2651   3268273.6956   6   7   0.5833   0.6926   0.3743  -0.5496   0.3959  -0.3670   0.00    0.0
2236 444612.000  -2853477.8497   4667432.8992   3268273.7866   6   7   0.5718   0.6788   0.3677  -0.5386   0.3888  -0.3601   0.00    0.0
2236 444613.000  -2853477.8621   4667432.5145   3268273.9804   6   7   0.5608   0.6658   0.3614  -0.5282   0.3821  -0.3536   0.00    0.0
2236 444614.000  -2853477.9180   4667432.0636   3268274.2214   6   7   0.5505   0.6536   0.3555  -0.5184   0.3758  -0.3475   0.00    0.0
2236 444615.000  -2853477.9638   4667431.5827   3268274.4893   6   8   0.5309   0.6381   0.3486  -0.5019   0.3669  -0.3371   0.00    0.0
2236 444616.000  -2853477.9904   4667431.0556   3268274.8249   6   8   0.5131   0.6238   0.3423  -0.4869   0.3585  -0.3274   0.00    0.0
2236 444617.000  -2853478.0013   4667430.5315   3268275.0920   6   8   0.4974   0.6108   0.3364  -0.4737   0.3513  -0.3190   0.00    0.0
2236 444618.000  -2853478.0351   4667430.0728   3268275.3118   6   8   0.4832   0.5989   0.3310  -0.4617   0.3448  -0.3116   0.00    0.0
2236 444619.000  -2853477.9552   4667430.0472   3268275.3265   6   7   0.4706   0.5920   0.3264  -0.4518   0.3404  -0.3051   0.00    0.0
2236 444620.000  -2853478.0695   4667430.0537   3268275.3150   6   8   0.4588   0.5816   0.3217  -0.4417   0.3348  -0.2989   0.00    0.0
2236 444621.000  -2853478.3067   4667430.0233   3268275.2566   6   8   0.4479   0.5708   0.3173  -0.4322   0.3292  -0.2931   0.00    0.0
2236 444622.000  -2853478.5863   4667430.1413   3268275.2330   6   7   0.4380   0.5651   0.3134  -0.4244   0.3254  -0.2880   0.00    0.0
2236 444623.000  -2853478.7504   4667429.9718   3268275.1116   6   8   0.4287   0.5565   0.3095  -0.4164   0.3209  -0.2830   0.00    0.0
2236 444624.000  -2853478.9754   4667429.8415   3268274.9621   6   8   0.4200   0.5469   0.3057  -0.4086   0.3162  -0.2783   0.00    0.0
2236 444625.000  -2853479.1313   4667429.6686   3268274.7981   6   8   0.4119   0.5387   0.3023  -0.4014   0.3120  -0.2740   0.00    0.0
2236 444626.000  -2853479.1978   4667429.5311   3268274.6062   6   8   0.4043   0.5312   0.2989  -0.3948   0.3082  -0.2700   0.00    0.0
2236 444627.000  -2853479.2416   4667429.2940   3268274.4341   6   8   0.3972   0.5240   0.2958  -0.3886   0.3046  -0.2662   0.00    0.0
2236 444628.000  -2853479.3821   4667429.2174   3268274.2845   6   8   0.3905   0.5173   0.2928  -0.3828   0.3012  -0.2626   0.00    0.0
2236 444629.000  -2853479.2855   4667429.1657   3268274.1692   6   8   0.3842   0.5110   0.2899  -0.3773   0.2980  -0.2593   0.00    0.0
2236 444630.000  -2853479.1691   4667429.3194   3268274.0279   6   8   0.3783   0.5049   0.2872  -0.3721   0.2950  -0.2562   0.00    0.0
2236 444631.000  -2853479.0491   4667429.5556   3268273.8263   6   8   0.3729   0.5032   0.2849  -0.3683   0.2935  -0.2535   0.00    0.0
2236 444632.000  -2853478.8833   4667429.8306   3268273.5972   6   7   0.3676   0.4994   0.2825  -0.3641   0.2913  -0.2508   0.00    0.0
2236 444633.000  -2853478.7317   4667430.0629   3268273.3569   6   7   0.3626   0.4957   0.2802  -0.3600   0.2891  -0.2482   0.00    0.0
2236 444634.000  -2853478.5696   4667430.2942   3268273.0802   6   7   0.3579   0.4921   0.2780  -0.3561   0.2871  -0.2458   0.00    0.0
2236 444635.000  -2853478.4517   4667430.5703   3268272.8189   6   7   0.3534   0.4887   0.2759  -0.3524   0.2851  -0.2435   0.00    0.0
2236 444636.000  -2853478.2933   4667430.8107   3268272.5454   6   7   0.3490   0.4855   0.2738  -0.3489   0.2833  -0.2413   0.00    0.0
2236 444637.000  -2853478.1707   4667431.0433   3268272.2981   6   7   0.3450   0.4823   0.2719  -0.3455   0.2815  -0.2391   0.00    0.0
2236 444638.000  -2853478.0388   4667431.3168   3268272.0042   6   7   0.3410   0.4793   0.2700  -0.3423   0.2798  -0.2371   0.00    0.0
2236 444639.000  -2853477.8761   4667431.3812   3268271.9672   6   7   0.3373   0.4764   0.2682  -0.3393   0.2782  -0.2352   0.00    0.0
2236 444640.000  -2853477.5847   4667431.4382   3268272.1095   6   7   0.3337   0.4737   0.2665  -0.3363   0.2766  -0.2334   0.00    0.0
2236 444641.000  -2853477.2949   4667431.5409   3268272.2590   6   7   0.3303   0.4710   0.2649  -0.3336   0.2752  -0.2316   0.00    0.0
2236 444642.000  -2853476.9757   4667431.5396   3268272.4286   6   7   0.3270   0.4685   0.2633  -0.3309   0.2737  -0.2300   0.00    0.0
2236 444643.000  -2853476.6653   4667431.5727   3268272.5820   6   7   0.3239   0.4660   0.2617  -0.3283   0.2724  -0.2284   0.00    0.0
2236 444644.000  -2853476.3968   4667431.7924   3268272.7561   6   8   0.3208   0.4624   0.2602  -0.3256   0.2708  -0.2268   0.00    0.0
2236 444645.000  -2853476.1125   4667431.7690   3268272.9228   6   8   0.3179   0.4593   0.2587  -0.3231   0.2693  -0.2253   0.00    0.0
2236 444646.000  -2853475.7745   4667431.7290   3268273.0626   6   8   0.3148   0.4514   0.2570  -0.3193   0.2664  -0.2235   0.00    0.0
2236 444647.000  -2853475.4618   4667431.6650   3268273.2155   6   8   0.3120   0.4467   0.2556  -0.3164   0.2645  -0.2220   0.00    0.0
2236 444648.000  -2853475.1886   4667431.7895   3268273.3869   6   8   0.3094   0.4427   0.2542  -0.3139   0.2628  -0.2206   0.00    0.0
2236 444649.000  -2853475.1226   4667431.6982   3268273.4055   6   8   0.3074   0.4479   0.2534  -0.3141   0.2641  -0.2200   0.00    0.0
2236 444650.000  -2853475.1685   4667431.2878   3268273.6794   6   7   0.3173   0.4468   0.2535  -0.3215   0.2654  -0.2240   0.00    0.0
2236 444651.000  -2853475.3418   4667430.9758   3268274.0592   6   6   0.3183   0.4549   0.2533  -0.3255   0.2682  -0.2249   0.00    0.0
2236 444652.000  -2853475.4717   4667430.6519   3268274.3674   6   7   0.3176   0.4529   0.2523  -0.3247   0.2674  -0.2244   0.00    0.0
2236 444653.000  -2853475.6592   4667430.3364   3268274.6836   6   7   0.3152   0.4422   0.2506  -0.3194   0.2635  -0.2225   0.00    0.0
2236 444654.000  -2853475.7946   4667429.9498   3268274.9885   6   7   0.3139   0.4372   0.2494  -0.3170   0.2616  -0.2215   0.00    0.0
2236 444655.000  -2853475.8951   4667429.5696   3268275.2839   6   8   0.3116   0.4333   0.2483  -0.3144   0.2600  -0.2203   0.00    0.0
2236 444656.000  -2853476.0467   4667429.3256   3268275.6210   6   8   0.3033   0.4273   0.2465  -0.3075   0.2570  -0.2165   0.00    0.0
2236 444657.000  -2853476.1714   4667429.0070   3268275.9283   6   8   0.2991   0.4235   0.2453  -0.3039   0.2552  -0.2145   0.00    0.0
2236 444658.000  -2853476.2862   4667428.8184   3268276.1386   6   8   0.2961   0.4204   0.2442  -0.3012   0.2538  -0.2131   0.00    0.0
2236 444659.000  -2853476.3725   4667428.7569   3268276.0257   6   8   0.2936   0.4176   0.2432  -0.2990   0.2526  -0.2119   0.00    0.0
2236 444660.000  -2853476.5939   4667428.7677   3268275.9354   6   8   0.3040   0.4206   0.2437  -0.3067   0.2550  -0.2161   0.00    0.0
2236 444661.000  -2853476.7043   4667428.6833   3268275.8161   6   8   0.2950   0.4152   0.2420  -0.2996   0.2520  -0.2122   0.00    0.0
2236 444662.000  -2853476.8047   4667428.6054   3268275.7213   6   8   0.2908   0.4120   0.2409  -0.2962   0.2505  -0.2103   0.00    0.0
2236 444663.000  -2853476.9514   4667428.5492   3268275.6107   6   8   0.2880   0.4095   0.2400  -0.2938   0.2493  -0.2090   0.00    0.0
2236 444664.000  -2853477.1928   4667428.5059   3268275.4383   6   8   0.2871   0.4253   0.2403  -0.2979   0.2541  -0.2096   0.00    0.0
2236 444665.000  -2853477.4720   4667428.4121   3268275.2590   6   8   0.2845   0.4142   0.2389  -0.2933   0.2503  -0.2079   0.00    0.0
2236 444666.000  -2853477.7115   4667428.2970   3268275.0460   6   8   0.2825   0.4092   0.2380  -0.2908   0.2486  -0.2068   0.00    0.0
2236 444667.000  -2853478.0080   4667428.2375   3268274.8707   6   8   0.2807   0.4058   0.2372  -0.2889   0.2473  -0.2059   0.00    0.0
2236 444668.000  -2853478.1452   4667428.2543   3268274.8209   6   8   0.2791   0.4031   0.2365  -0.2873   0.2463  -0.2051   0.00    0.0
2236 444669.000  -2853478.1208   4667428.4848   3268274.6997   6   8   0.2775   0.4009   0.2358  -0.2858   0.2454  -0.2043   0.00    0.0
2236 444670.000  -2853478.0273   4667428.6712   3268274.4933   6   8   0.2761   0.3989   0.2352  -0.2845   0.2447  -0.2036   0.00    0.0
2236 444671.000  -2853477.9563   4667428.9291   3268274.3169   6   8   0.2748   0.3971   0.2346  -0.2833   0.2439  -0.2030   0.00    0.0
2236 444672.000  -2853477.8157   4667429.1414   3268274.1049   6   8   0.2749   0.4164   0.2352  -0.2885   0.2498  -0.2041   0.00    0.0
2236 444673.000  -2853477.7215   4667429.3413   3268273.9025   6   7   0.2738   0.4165   0.2348  -0.2878   0.2496  -0.2036   0.00    0.0
2236 444674.000  -2853477.6215   4667429.5967   3268273.6521   6   7   0.2727   0.4163   0.2343  -0.2871   0.2494  -0.2032   0.00    0.0
2236 444675.000  -2853477.5142   4667429.8253   3268273.4061   6   7   0.2717   0.4161   0.2339  -0.2865   0.2492  -0.2027   0.00    0.0
2236 444676.000  -2853477.3998   4667430.0962   3268273.1423   6   7   0.2707   0.4159   0.2335  -0.2859   0.2490  -0.2024   0.00    0.0
2236 444677.000  -2853477.3502   4667430.4406   3268272.9130   6   7   0.2698   0.4158   0.2330  -0.2853   0.2489  -0.2020   0.00    0.0
2236 444678.000  -2853477.2136   4667430.6868   3268272.6187   6   7   0.2689   0.4158   0.2327  -0.2848   0.2487  -0.2016   0.00    0.0
2236 444679.000  -2853477.1090   4667430.9487   3268272.3527   6   7   0.2680   0.4158   0.2323  -0.2844   0.2486  -0.2013   0.00    0.0
2236 444680.000  -2853477.0080   4667431.0457   3268272.2870   6   7   0.2672   0.4158   0.2320  -0.2839   0.2485  -0.2010   0.00    0.0
2236 444681.000  -2853476.6891   4667431.1561   3268272.4697   6   7   0.2665   0.4158   0.2316  -0.2835   0.2485  -0.2007   0.00    0.0
2236 444682.000  -2853476.3509   4667431.2242   3268272.6567   6   7   0.2657   0.4159   0.2313  -0.2831   0.2484  -0.2004   0.00    0.0
2236 444683.000  -2853476.0527   4667431.3163   3268272.8435   6   8   0.3001   0.4409   0.2360  -0.3175   0.2621  -0.2164   0.00    0.0
2236 444684.000  -2853475.7438   4667431.3405   3268273.0268   6   8   0.2810   0.4125   0.2322  -0.2953   0.2503  -0.2068   0.00    0.0
2236 444685.000  -2853475.4474   4667431.3119   3268273.2111   6   8   0.2740   0.4021   0.2308  -0.2872   0.2460  -0.2033   0.00    0.0
2236 444686.000  -2853475.1505   4667431.3311   3268273.3980   6   8   0.2718   0.4211   0.2314  -0.2903   0.2514  -0.2034   0.00    0.0
2236 444687.000  -2853474.8319   4667431.4177   3268273.5645   6   8   0.2682   0.4030   0.2299  -0.2831   0.2455  -0.2010   0.00    0.0
2236 444688.000  -2853474.8454   4667431.3845   3268273.6577   6   8   0.2660   0.3959   0.2291  -0.2798   0.2431  -0.1998   0.00    0.0
2236 444689.000  -2853474.9783   4667430.9867   3268273.9979   6   7   0.2952   0.4059   0.2321  -0.3016   0.2502  -0.2117   0.00    0.0
2236 444690.000  -2853475.1605   4667430.7531   3268274.3266   6   6   0.3041   0.4470   0.2355  -0.3232   0.2651  -0.2186   0.00    0.0
2236 444691.000  -2853475.2804   4667430.3255   3268274.6420   6   7   0.3048   0.4471   0.2354  -0.3238   0.2654  -0.2190   0.00    0.0
2236 444692.000  -2853475.3754   4667429.9281   3268274.9290   6   8   0.2989   0.4206   0.2330  -0.3100   0.2558  -0.2144   0.00    0.0
2236 444693.000  -2853475.5157   4667429.5342   3268275.2613   6   8   0.2797   0.4039   0.2301  -0.2924   0.2479  -0.2059   0.00    0.0
2236 444694.000  -2853475.6744   4667429.1196   3268275.5487   6   8   0.2724   0.3963   0.2289  -0.2853   0.2446  -0.2026   0.00    0.0
2236 444695.000  -2853475.7465   4667428.7081   3268275.8199   6   8   0.2684   0.3917   0.2282  -0.2813   0.2427  -0.2008   0.00    0.0
2236 444696.000  -2853475.8997   4667428.2594   3268276.1341   6   8   0.2658   0.3886   0.2277  -0.2786   0.2414  -0.1996   0.00    0.0
2236 444697.000  -2853475.9892   4667428.0424   3268276.3066   6   8   0.2665   0.4226   0.2297  -0.2881   0.2518  -0.2018   0.00    0.0
2236 444698.000  -2853476.1046   4667428.0312   3268276.2202   6   8   0.2637   0.4013   0.2281  -0.2806   0.2450  -0.1996   0.00    0.0
2236 444699.000  -2853476.3674   4667427.9124   3268276.0367   6   8   0.2621   0.3934   0.2275  -0.2775   0.2425  -0.1986   0.00    0.0
2236 444700.000  -2853476.6974   4667427.8801   3268275.8084   6   8   0.2609   0.3890   0.2271  -0.2756   0.2411  -0.1980   0.00    0.0
2236 444701.000  -2853476.9762   4667427.8431   3268275.6211   6   8   0.2600   0.3862   0.2268  -0.2743   0.2402  -0.1975   0.00    0.0
2236 444702.000  -2853477.3035   4667427.7075   3268275.4265   6   8   0.2592   0.3842   0.2266  -0.2733   0.2396  -0.1971   0.00    0.0
2236 444703.000  -2853477.5787   4667427.6346   3268275.1980   6   8   0.2585   0.3827   0.2264  -0.2725   0.2391  -0.1969   0.00    0.0
2236 444704.000  -2853477.9358   4667427.6053   3268274.9748   6   8   0.2579   0.3815   0.2263  -0.2719   0.2388  -0.1966   0.00    0.0
2236 444705.000  -2853478.2036   4667427.5698   3268274.8263   6   8   0.2575   0.3805   0.2262  -0.2714   0.2385  -0.1965   0.00    0.0
2236 444706.000  -2853478.1866   4667427.6413   3268274.7675   6   8   0.2570   0.3796   0.2261  -0.2710   0.2383  -0.1963   0.00    0.0
2236 444707.000  -2853478.1234   4667427.8294   3268274.5806   6   8   0.2566   0.3790   0.2260  -0.2706   0.2381  -0.1962   0.00    0.0
2236 444708.000  -2853477.9711   4667428.0397   3268274.2841   6   7   0.2597   0.4266   0.2290  -0.2851   0.2529  -0.2000   0.00    0.0
2236 444709.000  -2853477.8283   4667428.4245   3268274.0181   6   8   0.2595   0.4265   0.2290  -0.2851   0.2530  -0.2000   0.00    0.0
2236 444710.000  -2853477.6920   4667428.7081   3268273.7050   6   8   0.2593   0.4272   0.2291  -0.2852   0.2533  -0.2001   0.00    0.0
2236 444711.000  -2853477.5784   4667428.9813   3268273.4520   6   7   0.2592   0.4289   0.2292  -0.2856   0.2538  -0.2002   0.00    0.0
2236 444712.000  -2853477.4699   4667429.2397   3268273.2109   6   7   0.2591   0.4298   0.2293  -0.2859   0.2542  -0.2003   0.00    0.0
2236 444713.000  -2853477.3804   4667429.5091   3268272.9584   6   7   0.2590   0.4308   0.2294  -0.2861   0.2545  -0.2004   0.00    0.0
2236 444714.000  -2853477.3013   4667429.6190   3268272.9457   6   7   0.2589   0.4318   0.2295  -0.2864   0.2549  -0.2005   0.00    0.0
2236 444715.000  -2853476.9702   4667429.7116   3268273.1344   6   7   0.2589   0.4328   0.2296  -0.2867   0.2553  -0.2006   0.00    0.0
2236 444716.000  -2853476.6529   4667429.8020   3268273.3551   6   7   0.2589   0.4338   0.2298  -0.2870   0.2557  -0.2007   0.00    0.0
2236 444717.000  -2853476.2871   4667429.8716   3268273.5598   6   8   0.2589   0.4338   0.2299  -0.2871   0.2558  -0.2008   0.00    0.0
2236 444718.000  -2853475.9251   4667429.9994   3268273.7737   6   8   0.2567   0.4054   0.2281  -0.2781   0.2469  -0.1985   0.00    0.0
2236 444719.000  -2853475.5587   4667430.1020   3268274.0377   6   8   0.2560   0.3955   0.2275  -0.2751   0.2439  -0.1977   0.00    0.0
2236 444720.000  -2853475.2435   4667430.2038   3268274.2266   6   7   0.3160   0.4203   0.2343  -0.3221   0.2601  -0.2225   0.00    0.0
2236 444721.000  -2853475.0576   4667430.1476   3268274.4000   6   7   0.3163   0.4170   0.2342  -0.3211   0.2591  -0.2224   0.00    0.0
2236 444722.000  -2853475.2138   4667429.9234   3268274.7140   6   7   0.3169   0.4149   0.2342  -0.3207   0.2586  -0.2226   0.00    0.0
2236 444723.000  -2853475.2886   4667429.4900   3268274.9979   6   8   0.3162   0.4130   0.2341  -0.3195   0.2580  -0.2222   0.00    0.0
2236 444724.000  -2853475.4433   4667429.1603   3268275.2778   6   8   0.2877   0.3991   0.2309  -0.2976   0.2500  -0.2105   0.00    0.0
2236 444725.000  -2853475.5939   4667428.8356   3268275.6128   6   8   0.2775   0.3939   0.2299  -0.2898   0.2471  -0.2064   0.00    0.0
2236 444726.000  -2853475.7209   4667428.4437   3268275.9245   6   8   0.2723   0.3910   0.2294  -0.2856   0.2457  -0.2043   0.00    0.0
2236 444727.000  -2853475.7582   4667428.1930   3268276.0624   6   8   0.3191   0.4110   0.2348  -0.3208   0.2581  -0.2235   0.00    0.0
2236 444728.000  -2853475.6188   4667428.0864   3268276.0028   6   7   0.2981   0.3980   0.2442  -0.2951   0.2462  -0.2241   0.00    0.0
2236 444729.000  -2853475.5413   4667428.0071   3268275.9848   6   8   0.2865   0.3946   0.2417  -0.2882   0.2427  -0.2174   0.00    0.0
2236 444730.000  -2853475.4414   4667427.8924   3268275.9987   6   8   0.2798   0.3907   0.2368  -0.2854   0.2444  -0.2126   0.00    0.0
2236 444731.000  -2853475.3907   4667427.8029   3268276.0284   6   8   0.2757   0.3888   0.2348  -0.2834   0.2445  -0.2100   0.00    0.0
2236 444732.000  -2853475.2720   4667427.7169   3268276.0230   6   8   0.2730   0.3877   0.2338  -0.2821   0.2444  -0.2083   0.00    0.0
