% program   : RTKPOST ver.2.4.2
% inp file  : D:\ligo\m2dgr\switch2.obs
% inp file  : D:\ligo\m2dgr\switch2.rnx
% inp file  : D:\ligo\m2dgr\switch.sp3
% obs start : 2023/08/10 10:55:48.0 GPST (week2274 384948.0s)
% obs end   : 2023/08/10 11:00:40.0 GPST (week2274 385240.0s)
% pos mode  : ppp-kinematic
% solution  : forward
% elev mask : 15.0 deg
% dynamics  : off
% tidecorr  : on
% tropo opt : est ztd+grad
% ephemeris : precise
% navi sys  : gps glonass galileo
% antenna1  :                       ( 0.0000  0.0000  0.0000)
%
% (x/y/z-ecef=WGS84,Q=1:fix,2:float,3:sbas,4:dgps,5:single,6:ppp,ns=# of satellites)
%  GPST              x-ecef(m)      y-ecef(m)      z-ecef(m)   Q  ns   sdx(m)   sdy(m)   sdz(m)  sdxy(m)  sdyz(m)  sdzx(m) age(s)  ratio
2274 384948.000  -2853487.7551   4667430.5843   3268264.5417   6  11   2.5398   3.8194   3.2615  -2.7963   3.2212  -2.5871   0.00    0.0
2274 384949.000  -2853487.8081   4667430.6352   3268264.6921   6  11   1.7990   2.7050   2.3096  -1.9810   2.2817  -1.8328   0.00    0.0
2274 384950.000  -2853487.7744   4667430.5603   3268264.7472   6  11   1.4712   2.2118   1.8883  -1.6202   1.8659  -1.4990   0.00    0.0
2274 384951.000  -2853487.7086   4667430.4647   3268264.7553   6  11   1.2760   1.9181   1.6373  -1.4054   1.6183  -1.3002   0.00    0.0
2274 384952.000  -2853487.5228   4667430.2923   3268264.7839   6  11   1.1430   1.7178   1.4662  -1.2590   1.4495  -1.1648   0.00    0.0
2274 384953.000  -2853487.2306   4667430.1613   3268264.9811   6  11   1.0449   1.5702   1.3401  -1.1511   1.3251  -1.0650   0.00    0.0
2274 384954.000  -2853486.8325   4667430.0752   3268265.2094   6  11   0.9688   1.4556   1.2422  -1.0673   1.2285  -0.9875   0.00    0.0
2274 384955.000  -2853486.4727   4667430.0123   3268265.5150   6  11   0.9075   1.3632   1.1633  -0.9999   1.1508  -0.9252   0.00    0.0
2274 384956.000  -2853486.1097   4667430.0307   3268265.8820   6  11   0.8568   1.2868   1.0981  -0.9441   1.0864  -0.8736   0.00    0.0
2274 384957.000  -2853485.7204   4667429.8950   3268266.1095   6  11   0.8140   1.2223   1.0429  -0.8970   1.0321  -0.8300   0.00    0.0
2274 384958.000  -2853484.8928   4667429.3334   3268265.7726   6  12   0.7635   1.1528   0.9725  -0.8411   0.9657  -0.7728   0.00    0.0
2274 384959.000  -2853484.6053   4667429.3754   3268266.1279   6  11   0.7333   1.1062   0.9343  -0.8078   0.9276  -0.7428   0.00    0.0
2274 384960.000  -2853484.2486   4667429.3185   3268266.3909   6  11   0.7064   1.0650   0.9001  -0.7782   0.8937  -0.7160   0.00    0.0
2274 384961.000  -2853484.1924   4667429.6624   3268267.1341   6  12   0.6734   1.0192   0.8547  -0.7418   0.8507  -0.6792   0.00    0.0
2274 384962.000  -2853483.8582   4667429.5600   3268267.2985   6  11   0.6528   0.9871   0.8288  -0.7191   0.8247  -0.6590   0.00    0.0
2274 384963.000  -2853483.4841   4667429.5506   3268267.5642   6  11   0.6339   0.9578   0.8051  -0.6983   0.8010  -0.6405   0.00    0.0
2274 384964.000  -2853483.0949   4667429.5333   3268267.7783   6  11   0.6166   0.9311   0.7834  -0.6793   0.7793  -0.6235   0.00    0.0
2274 384965.000  -2853482.6785   4667429.5075   3268268.0009   6  11   0.6007   0.9066   0.7634  -0.6619   0.7594  -0.6078   0.00    0.0
2274 384966.000  -2853482.3200   4667429.5497   3268268.2759   6  11   0.5861   0.8840   0.7450  -0.6458   0.7410  -0.5935   0.00    0.0
2274 384967.000  -2853481.9679   4667429.5600   3268268.5753   6  11   0.5725   0.8632   0.7279  -0.6309   0.7240  -0.5800   0.00    0.0
2274 384968.000  -2853481.6142   4667429.5062   3268268.8629   6  10   0.5600   0.8467   0.7121  -0.6172   0.7086  -0.5676   0.00    0.0
2274 384969.000  -2853481.2008   4667429.4505   3268269.0923   6  11   0.5482   0.8283   0.6972  -0.6043   0.6938  -0.5560   0.00    0.0
2274 384970.000  -2853480.8899   4667429.4949   3268269.4258   6  10   0.5372   0.8138   0.6834  -0.5923   0.6803  -0.5451   0.00    0.0
2274 384971.000  -2853480.4523   4667429.4060   3268269.5993   6  11   0.5230   0.7964   0.6639  -0.5768   0.6623  -0.5293   0.00    0.0
2274 384972.000  -2853480.0662   4667429.3614   3268269.8260   6  10   0.5680   0.9053   0.8504  -0.6563   0.8190  -0.6347   0.00    0.0
2274 384973.000  -2853479.6668   4667429.3632   3268270.1225   6  10   0.5320   0.8333   0.7438  -0.6023   0.7266  -0.5701   0.00    0.0
2274 384974.000  -2853479.3270   4667429.1783   3268270.4146   6  11   0.5142   0.7986   0.6987  -0.5776   0.6868  -0.5419   0.00    0.0
2274 384975.000  -2853479.1872   4667429.3285   3268270.9877   6  11   0.4978   0.7733   0.6643  -0.5567   0.6565  -0.5184   0.00    0.0
2274 384976.000  -2853478.8092   4667429.0007   3268271.2647   6  11   0.4877   0.7548   0.6446  -0.5441   0.6383  -0.5054   0.00    0.0
2274 384977.000  -2853478.4876   4667429.0488   3268271.6005   6  11   0.4788   0.7390   0.6286  -0.5331   0.6234  -0.4945   0.00    0.0
2274 384978.000  -2853478.1854   4667428.7765   3268271.9526   6  11   0.4707   0.7249   0.6151  -0.5235   0.6106  -0.4850   0.00    0.0
2274 384979.000  -2853477.8766   4667428.6310   3268272.3404   6  11   0.4633   0.7121   0.6032  -0.5146   0.5992  -0.4766   0.00    0.0
2274 384980.000  -2853477.5094   4667428.5646   3268272.6084   6  11   0.4563   0.7002   0.5924  -0.5065   0.5889  -0.4688   0.00    0.0
2274 384981.000  -2853477.1527   4667428.5204   3268272.9589   6  12   0.4980   0.7994   0.7613  -0.5794   0.7308  -0.5641   0.00    0.0
2274 384982.000  -2853476.8041   4667428.4845   3268273.2495   6  12   0.4609   0.7268   0.6531  -0.5249   0.6378  -0.4972   0.00    0.0
2274 384983.000  -2853476.3656   4667428.3051   3268273.4582   6  12   0.4845   0.7797   0.7445  -0.5648   0.7143  -0.5503   0.00    0.0
2274 384984.000  -2853476.0799   4667428.4212   3268273.9145   6  12   0.4478   0.7076   0.6366  -0.5108   0.6216  -0.4837   0.00    0.0
2274 384985.000  -2853475.8319   4667428.5576   3268274.4323   6  12   0.4310   0.6764   0.5918  -0.4873   0.5830  -0.4555   0.00    0.0
2274 384986.000  -2853475.5288   4667428.4910   3268274.8020   6  12   0.4198   0.6564   0.5649  -0.4723   0.5596  -0.4381   0.00    0.0
2274 384987.000  -2853475.2971   4667428.6313   3268275.2863   6  12   0.4109   0.6412   0.5457  -0.4610   0.5427  -0.4253   0.00    0.0
2274 384988.000  -2853474.9807   4667428.5718   3268275.6480   6  12   0.4033   0.6306   0.5321  -0.4512   0.5311  -0.4147   0.00    0.0
2274 384989.000  -2853474.5588   4667428.3790   3268275.8001   6  11   0.3974   0.6219   0.5219  -0.4445   0.5224  -0.4074   0.00    0.0
2274 384990.000  -2853474.1887   4667428.3406   3268276.1286   6  12   0.3912   0.6119   0.5110  -0.4370   0.5124  -0.3996   0.00    0.0
2274 384991.000  -2853473.8663   4667428.2384   3268276.4422   6  12   0.3855   0.6028   0.5014  -0.4303   0.5035  -0.3926   0.00    0.0
2274 384992.000  -2853473.5029   4667428.1234   3268276.7137   6  11   0.3808   0.5963   0.4945  -0.4252   0.4976  -0.3874   0.00    0.0
2274 384993.000  -2853473.1133   4667427.9160   3268276.9264   6  11   0.3763   0.5901   0.4882  -0.4205   0.4919  -0.3826   0.00    0.0
2274 384994.000  -2853472.8015   4667427.8498   3268277.2192   6  11   0.3721   0.5841   0.4823  -0.4159   0.4867  -0.3781   0.00    0.0
2274 384995.000  -2853472.5101   4667427.8596   3268277.6895   6  12   0.3675   0.5768   0.4752  -0.4106   0.4799  -0.3728   0.00    0.0
2274 384996.000  -2853472.2636   4667428.0613   3268278.2026   6  12   0.3631   0.5685   0.4676  -0.4058   0.4724  -0.3680   0.00    0.0
2274 384997.000  -2853471.9370   4667427.9823   3268278.5591   6  12   0.3590   0.5633   0.4624  -0.4007   0.4677  -0.3631   0.00    0.0
2274 384998.000  -2853471.6217   4667427.8803   3268278.8344   6  11   0.3555   0.5585   0.4579  -0.3970   0.4637  -0.3595   0.00    0.0
2274 384999.000  -2853471.3528   4667427.8956   3268279.2539   6  12   0.3516   0.5523   0.4522  -0.3926   0.4582  -0.3553   0.00    0.0
2274 385000.000  -2853471.0501   4667427.8247   3268279.6236   6  12   0.3480   0.5451   0.4459  -0.3886   0.4518  -0.3514   0.00    0.0
2274 385001.000  -2853470.7831   4667427.7734   3268279.9539   6  12   0.3444   0.5409   0.4418  -0.3843   0.4482  -0.3473   0.00    0.0
2274 385002.000  -2853470.3281   4667427.6411   3268280.2970   6  10   0.3458   0.5375   0.4403  -0.3794   0.4461  -0.3409   0.00    0.0
2274 385003.000  -2853470.0139   4667427.6316   3268280.6421   6  11   0.3429   0.5326   0.4356  -0.3760   0.4417  -0.3374   0.00    0.0
2274 385004.000  -2853469.7949   4667427.7345   3268281.0626   6  11   0.3400   0.5279   0.4312  -0.3726   0.4375  -0.3340   0.00    0.0
2274 385005.000  -2853469.4846   4667427.8189   3268281.5620   6  11   0.3372   0.5234   0.4270  -0.3695   0.4334  -0.3308   0.00    0.0
2274 385006.000  -2853469.1284   4667427.6669   3268281.8429   6  10   0.3347   0.5201   0.4240  -0.3670   0.4307  -0.3283   0.00    0.0
2274 385007.000  -2853468.7896   4667427.6454   3268282.1026   6  10   0.3324   0.5169   0.4209  -0.3646   0.4279  -0.3259   0.00    0.0
2274 385008.000  -2853468.4595   4667427.7021   3268282.4561   6  11   0.3299   0.5126   0.4170  -0.3617   0.4242  -0.3230   0.00    0.0
2274 385009.000  -2853468.0202   4667427.5159   3268282.6701   6  10   0.3277   0.5096   0.4143  -0.3595   0.4217  -0.3207   0.00    0.0
2274 385010.000  -2853467.6520   4667427.5041   3268282.9874   6  10   0.3260   0.5061   0.4119  -0.3561   0.4190  -0.3169   0.00    0.0
2274 385011.000  -2853467.2462   4667427.5063   3268283.3854   6  10   0.3237   0.5025   0.4088  -0.3536   0.4159  -0.3143   0.00    0.0
2274 385012.000  -2853466.8887   4667427.4865   3268283.7304   6  10   0.3216   0.4990   0.4058  -0.3510   0.4129  -0.3118   0.00    0.0
2274 385013.000  -2853466.6252   4667427.3526   3268284.0276   6  10   0.3194   0.4955   0.4029  -0.3486   0.4100  -0.3093   0.00    0.0
2274 385014.000  -2853466.3442   4667427.2745   3268284.3995   6  10   0.3157   0.4908   0.3978  -0.3480   0.4052  -0.3092   0.00    0.0
2274 385015.000  -2853466.0339   4667427.0838   3268284.7342   6   9   0.3155   0.4898   0.3981  -0.3444   0.4053  -0.3050   0.00    0.0
2274 385016.000  -2853466.3400   4667426.3363   3268284.3064   6  10   0.3114   0.4847   0.3923  -0.3444   0.3999  -0.3058   0.00    0.0
2274 385017.000  -2853465.4044   4667426.8682   3268285.4901   6   9   0.3118   0.4842   0.3934  -0.3404   0.4007  -0.3010   0.00    0.0
2274 385018.000  -2853465.0597   4667426.6672   3268285.7739   6   9   0.3101   0.4818   0.3915  -0.3386   0.3989  -0.2993   0.00    0.0
2274 385019.000  -2853464.7017   4667426.4785   3268286.1458   6   9   0.3085   0.4795   0.3896  -0.3369   0.3971  -0.2976   0.00    0.0
2274 385020.000  -2853464.4562   4667426.3584   3268286.5206   6  10   0.3067   0.4765   0.3870  -0.3349   0.3945  -0.2955   0.00    0.0
2274 385021.000  -2853464.2803   4667426.3091   3268286.9650   6  10   0.3050   0.4736   0.3846  -0.3329   0.3920  -0.2935   0.00    0.0
2274 385022.000  -2853464.0094   4667426.1780   3268287.3267   6  10   0.3032   0.4708   0.3823  -0.3309   0.3897  -0.2915   0.00    0.0
2274 385023.000  -2853463.8044   4667426.0198   3268287.5915   6   9   0.3017   0.4688   0.3806  -0.3293   0.3881  -0.2900   0.00    0.0
2274 385024.000  -2853463.3911   4667425.7893   3268288.0488   6   8   0.3527   0.4805   0.3894  -0.3586   0.3730  -0.2581   0.00    0.0
2274 385025.000  -2853463.1726   4667425.7336   3268288.4298   6   9   0.3509   0.4780   0.3869  -0.3569   0.3708  -0.2566   0.00    0.0
2274 385026.000  -2853462.9100   4667425.5694   3268288.8090   6   9   0.3846   0.5030   0.3950  -0.3948   0.3937  -0.3038   0.00    0.0
2274 385027.000  -2853462.6992   4667425.4155   3268289.1857   6   9   0.3591   0.4952   0.4171  -0.3718   0.3984  -0.2820   0.00    0.0
2274 385028.000  -2853462.4382   4667425.3263   3268289.5648   6   8   0.3880   0.5138   0.4187  -0.4027   0.4132  -0.3185   0.00    0.0
2274 385029.000  -2853462.0769   4667424.9936   3268289.6609   6   8   0.4714   0.6939   0.6941  -0.5362   0.6553  -0.5006   0.00    0.0
2274 385030.000  -2853461.9116   4667424.9122   3268290.1828   6   8   0.4674   0.6895   0.6887  -0.5320   0.6506  -0.4960   0.00    0.0
2274 385031.000  -2853461.6300   4667424.7177   3268290.4393   6   8   0.4649   0.6859   0.6847  -0.5292   0.6469  -0.4931   0.00    0.0
2274 385032.000  -2853461.5278   4667424.5193   3268290.8772   6   8   0.4640   0.6829   0.6819  -0.5278   0.6441  -0.4921   0.00    0.0
2274 385033.000  -2853461.4884   4667424.5188   3268291.1058   6   8   0.8782   0.9115   0.6655  -0.8618   0.7278  -0.6583   0.00    0.0
2274 385034.000  -2853461.1824   4667424.5430   3268291.5340   6   8   0.8294   0.8728   0.6425  -0.8185   0.7014  -0.6330   0.00    0.0
2274 385036.000  -2853478.2197   4667437.5106   3268291.3404   6   7   9.5744   6.7254   0.6583  -8.0176  -0.9864   1.2946   0.00    0.0
2274 385038.000  -2853434.6819   4667409.8103   3268295.9527   6   6  35.0384  23.5572   3.0715 -28.7251  -8.1360   9.9737   0.00    0.0
2274 385039.000  -2853467.9106   4667432.2878   3268292.3438   6   5  42.2535  28.3244   3.8004 -34.5909 -10.0877  12.3621   0.00    0.0
2274 385040.000  -2853431.2798   4667409.5049   3268298.3344   6   6  37.9419  26.1309   3.6830 -31.4613  -6.6466   8.4323   0.00    0.0
2274 385041.000  -2853453.0795   4667423.1080   3268293.0871   6   6  36.5698  24.9193   3.3710 -30.1716  -7.5055   9.3121   0.00    0.0
2274 385042.000  -2853463.2493   4667430.1550   3268291.5358   6   6  36.1505  24.5445   3.2587 -29.7756  -7.7813   9.5973   0.00    0.0
2274 385043.000  -2853449.6433   4667421.9636   3268294.2044   6   6  35.9771  24.3877   3.1999 -29.6112  -7.9229   9.7435   0.00    0.0
2274 385044.000  -2853419.2174   4667402.0461   3268296.8964   6   6  35.9038  24.3199   3.1631 -29.5413  -8.0124   9.8354   0.00    0.0
2274 385045.000  -2853424.1785   4667405.9442   3268296.6658   6   6  26.4701  18.0472   2.3224 -21.8474  -5.5587   6.8493   0.00    0.0
2274 385046.000  -2853416.8888   4667401.5493   3268297.2712   6   6  35.8879  24.3011   3.1186 -29.5250  -8.1248   9.9499   0.00    0.0
2274 385047.000  -2853417.1607   4667402.3542   3268297.2014   6   6  35.9129  24.3212   3.1037 -29.5482  -8.1644   9.9897   0.00    0.0
2274 385048.000  -2853399.5403   4667391.1611   3268298.8758   6   6  35.9504  24.3526   3.0915 -29.5831  -8.1978  10.0231   0.00    0.0
2274 385049.000  -2853421.3853   4667406.3532   3268296.8112   6   6  35.9966  24.3919   3.0813 -29.6263  -8.2269  10.0518   0.00    0.0
2274 385050.000  -2853399.4438   4667392.2358   3268298.9073   6   6  36.0491  24.4369   3.0726 -29.6757  -8.2528  10.0772   0.00    0.0
2274 385051.000  -2853408.6583   4667399.0814   3268298.2123   6   6  26.4413  18.0151   2.2316 -21.8194  -5.8014   7.0963   0.00    0.0
2274 385052.000  -2853429.9377   4667413.8982   3268296.2663   6   6  36.1676  24.5392   3.0579 -29.7871  -8.2977  10.1208   0.00    0.0
2274 385053.000  -2853434.6248   4667417.6886   3268295.7641   6   6  26.5007  18.0661   2.2164 -21.8754  -5.8461   7.1409   0.00    0.0
2274 385054.000  -2853439.8181   4667421.6016   3268295.0685   6   6  22.3540  15.2995   1.8487 -18.4875  -4.7649   5.8271   0.00    0.0
2274 385055.000  -2853456.7132   4667433.4995   3268293.3020   6   6  36.3663  24.7121   3.0405 -29.9744  -8.3542  10.1746   0.00    0.0
2274 385056.000  -2853483.0604   4667451.6242   3268290.6817   6   5  42.3957  28.7562   3.6175 -34.9130  -9.9402  12.1035   0.00    0.0
2274 385057.000  -2853488.1630   4667455.4836   3268289.6549   6   5  42.4040  28.7816   3.6042 -34.9318  -9.9314  12.0879   0.00    0.0
2274 385058.000  -2853457.1115   4667435.0683   3268292.1069   6   6  36.5876  24.9065   3.0286 -30.1838  -8.3981  10.2150   0.00    0.0
2274 385059.000  -2853482.7637   4667452.5436   3268289.2798   6   5  42.4206  28.8322   3.5756 -34.9696  -9.9142  12.0566   0.00    0.0
2274 385060.000  -2853471.8360   4667446.3988   3268283.4947   6   5  42.4322  29.3210   5.6842 -35.0278  -9.0348  11.9640   0.00    0.0
2274 385062.000  -2853417.6433   4667415.0529   3268289.3866   6   6  39.6735  28.4127   3.7019 -33.4260  -7.0319   8.8128   0.00    0.0
2274 385063.000  -2853428.0192   4667422.4380   3268291.1365   6   6  42.3272  30.2257   3.7956 -35.6285  -7.6256   9.4928   0.00    0.0
2274 385064.000  -2853463.1669   4667444.5889   3268286.6665   6   6  40.8563  28.8371   3.7527 -34.2397  -7.3748   9.1991   0.00    0.0
2274 385065.000  -2853426.0810   4667424.4004   3268290.8616   6   6   5.3175   3.4637   3.3422  -1.6940   2.7796   2.5921   0.00    0.0
2274 385070.000  -2853456.6585   4667439.3193   3268290.7108   6   7   5.2671   3.2777   3.1221  -2.7352   2.5158  -0.2225   0.00    0.0
2274 385071.000  -2853459.0377   4667436.1792   3268283.7380   6   6   3.7918   2.5536   2.6134  -1.8924   2.1486   0.6307   0.00    0.0
2274 385072.000  -2853462.9678   4667437.3079   3268283.6784   6   6   3.1388   2.1943   2.2940  -1.5515   1.9041   0.6010   0.00    0.0
2274 385073.000  -2853451.0572   4667434.6755   3268285.3361   6   7   2.5247   1.9608   2.0511  -1.2879   1.7523  -0.2523   0.00    0.0
2274 385074.000  -2853447.0733   4667437.4864   3268290.5612   6   8   2.3765   2.3621   3.0438  -1.7040   2.5146  -1.6132   0.00    0.0
2274 385078.000  -2853442.6520   4667436.9720   3268290.0633   6   8   2.0681   1.8369   2.1823  -1.3571   1.8262  -1.1623   0.00    0.0
2274 385079.000  -2853442.5602   4667437.4861   3268289.9409   6   8   1.8763   1.5996   1.8078  -1.1957   1.5290  -0.9734   0.00    0.0
2274 385080.000  -2853442.2449   4667436.5005   3268288.0727   6   8   1.7368   1.4523   1.5865  -1.0946   1.3536  -0.8661   0.00    0.0
2274 385081.000  -2853448.4385   4667440.0461   3268286.6195   6   7   3.0139   2.2585   1.5242  -2.3591   1.1692  -0.4307   0.00    0.0
2274 385082.000  -2853444.2651   4667435.9156   3268283.9098   6   8   2.3780   2.1469   2.1320  -1.9486   1.8135  -1.2422   0.00    0.0
2274 385083.000  -2853443.1854   4667433.3938   3268279.8790   6   9   1.9002   1.6562   1.6441  -1.4337   1.3456  -0.7203   0.00    0.0
2274 385084.000  -2853441.0702   4667431.8022   3268278.2156   6   9   1.6437   1.4230   1.3936  -1.1809   1.1404  -0.5187   0.00    0.0
2274 385085.000  -2853440.9758   4667432.7299   3268279.1944   6   9   1.4874   1.3028   1.2756  -1.0442   1.0547  -0.4594   0.00    0.0
2274 385086.000  -2853441.3645   4667433.3670   3268279.2925   6   9   1.3639   1.1867   1.1436  -0.9252   0.9481  -0.3544   0.00    0.0
2274 385087.000  -2853441.5787   4667433.7239   3268279.1120   6   9   1.2805   1.1316   1.0964  -0.8635   0.9190  -0.3625   0.00    0.0
2274 385088.000  -2853442.7894   4667434.5096   3268278.6259   6   8   1.2371   1.0657   1.0035  -0.8178   0.8362  -0.2520   0.00    0.0
2274 385089.000  -2853442.9100   4667434.9628   3268278.4626   6   9   1.1575   0.9987   0.9423  -0.7428   0.7891  -0.2076   0.00    0.0
2274 385090.000  -2853442.9608   4667435.5589   3268278.3912   6   9   1.1143   0.9853   0.9444  -0.7260   0.8012  -0.2856   0.00    0.0
2274 385091.000  -2853443.2382   4667435.9614   3268278.3500   6   9   1.0685   0.9494   0.9080  -0.6915   0.7742  -0.2772   0.00    0.0
2274 385092.000  -2853443.7919   4667436.8643   3268278.2046   6   8   1.0504   0.9102   0.8404  -0.6735   0.7133  -0.1886   0.00    0.0
2274 385093.000  -2853443.9075   4667437.1999   3268277.8049   6   8   1.0485   0.8874   0.8022  -0.6726   0.6825  -0.1659   0.00    0.0
2274 385094.000  -2853444.3418   4667437.6551   3268277.3755   6   8   1.0066   0.8512   0.7709  -0.6346   0.6528  -0.1005   0.00    0.0
2274 385095.000  -2853443.8210   4667437.7986   3268277.2545   6   9   0.9501   0.8094   0.7436  -0.5815   0.6319  -0.0864   0.00    0.0
2274 385096.000  -2853443.5557   4667438.1006   3268277.1880   6   9   0.9205   0.7866   0.7194  -0.5603   0.6139  -0.0776   0.00    0.0
2274 385097.000  -2853443.2116   4667438.3476   3268277.0938   6   9   0.8942   0.7663   0.6982  -0.5419   0.5982  -0.0753   0.00    0.0
2274 385098.000  -2853442.9106   4667438.5774   3268276.9746   6   9   0.8713   0.7500   0.6821  -0.5236   0.5870  -0.0583   0.00    0.0
2274 385099.000  -2853442.9000   4667438.8710   3268276.7572   6   8   0.8769   0.7407   0.6702  -0.5306   0.5663   0.1198   0.00    0.0
2274 385100.000  -2853442.8260   4667439.0541   3268276.5472   6   8   0.8630   0.7262   0.6553  -0.5208   0.5537   0.1285   0.00    0.0
2274 385101.000  -2853442.4780   4667439.3830   3268276.5261   6   6   0.9027   0.7951   0.7224  -0.6029   0.6407  -0.2744   0.00    0.0
2274 385102.000  -2853442.4222   4667439.7043   3268276.6382   6   7   0.8871   0.7820   0.7110  -0.5883   0.6304  -0.2551   0.00    0.0
2274 385103.000  -2853442.1277   4667439.5524   3268276.3295   6   7   0.8825   0.7715   0.6998  -0.5874   0.6217  -0.2662   0.00    0.0
2274 385104.000  -2853450.7787   4667446.0156   3268276.0066   6   5  42.8563  30.0190   3.0919 -35.8630  -9.4874  11.3576   0.00    0.0
2274 385105.000  -2853461.8725   4667453.6745   3268275.1367   6   6  40.1223  28.1539   2.8585 -33.6045  -8.8172  10.5481   0.00    0.0
2274 385106.000  -2853466.6550   4667458.0317   3268277.2580   6   4  46.3500  39.9433  31.1095 -41.8577  26.9171 -20.4350   0.00    0.0
2274 385107.000  -2853485.2039   4667452.4808   3268290.4735   6   4  42.9181  50.9641  16.3093 -35.6292  23.7290  11.4572   0.00    0.0
2274 385108.000  -2853445.4150   4667455.1803   3268265.9263   6   4  50.1959  37.0606   4.0788 -42.9498 -10.0159  11.9475   0.00    0.0
2274 385109.000  -2853441.7835   4667453.9970   3268286.7282   6   3  60.8560  80.9140  39.4751  25.0976  52.1913  38.6461   0.00    0.0
2274 385110.000  -2853432.1325   4667456.2778   3268291.8071   6   3  60.8559  80.9190  39.4216  25.1003  52.1890  38.6521   0.00    0.0
2274 385111.000  -2853445.4825   4667445.7932   3268283.4745   6   1  89.0808  85.7878  98.5176  48.3203  29.6898 -27.9189   0.00    0.0
2274 385114.000  -2853460.4399   4667472.3335   3268284.9942   6   1  73.0133  99.9701  98.3859  12.9255   6.6145 -34.9675   0.00    0.0
2274 385115.000  -2853457.4923   4667459.1041   3268284.0222   6   1  89.0828  85.7937  98.5106  48.3135  29.7217 -27.9503   0.00    0.0
2274 385116.000  -2853448.2919   4667447.7372   3268282.8802   5   9   6.0882   4.4512   3.5121  -3.7145   3.0715  -1.8918   0.00    0.0
2274 385117.000  -2853442.6162   4667441.9269   3268284.8366   6   1  89.0839  85.7966  98.5071  48.3101  29.7376 -27.9659   0.00    0.0
2274 385118.000  -2853420.4001   4667441.4982   3268284.6823   6   1  73.0239  99.9701  98.3782  12.9265   6.6234 -35.0063   0.00    0.0
2274 385119.000  -2853460.0390   4667463.0459   3268279.3099   6   1  73.0265  99.9701  98.3762  12.9265   6.6256 -35.0160   0.00    0.0
2274 385120.000  -2853447.4586   4667427.5036   3268272.5663   6   1  73.0292  99.9701  98.3743  12.9270   6.6279 -35.0256   0.00    0.0
2274 385121.000  -2853480.8464   4667452.7177   3268265.9087   6   1  89.0859  85.8025  98.5001  48.3033  29.7693 -27.9972   0.00    0.0
2274 385127.000  -2853471.4221   4667448.4120   3268275.0144   6   1  73.0477  99.9700  98.3606  12.9281   6.6432 -35.0933   0.00    0.0
2274 385128.000  -2853497.2248   4667459.6323   3268270.1421   6   1  89.0895  85.8129  98.4878  48.2914  29.8248 -28.0519   0.00    0.0
2274 385131.000  -2853460.0578   4667469.9527   3268280.2764   6   2  69.4381  84.1534  97.6527  37.3209  26.0073 -38.7337   0.00    0.0
2274 385132.000  -2853459.5873   4667446.3332   3268282.2628   5   9   6.0601   4.4356   3.5039  -3.6920   3.0609  -1.8825   0.00    0.0
2274 385133.000  -2853458.3471   4667443.4064   3268283.3137   5   9   6.0583   4.4346   3.5034  -3.6906   3.0603  -1.8820   0.00    0.0
2274 385134.000  -2853475.5595   4667447.3006   3268283.6807   5  10   3.7116   4.3883   3.4960  -3.2531   3.0822  -2.1421   0.00    0.0
2274 385135.000  -2853478.2312   4667450.3957   3268287.1211   5  10   3.7111   4.3875   3.4955  -3.2525   3.0815  -2.1418   0.00    0.0
2274 385136.000  -2853475.2841   4667445.6663   3268286.0822   5  10   3.7105   4.3867   3.4950  -3.2519   3.0809  -2.1415   0.00    0.0
2274 385137.000  -2853478.7834   4667446.5148   3268287.1768   5  10   3.7100   4.3858   3.4944  -3.2513   3.0802  -2.1412   0.00    0.0
2274 385138.000  -2853462.1095   4667448.4811   3268292.2938   6   1  73.0770  99.9700  98.3390  12.9299   6.6672 -35.1992   0.00    0.0
2274 385139.000  -2853479.8992   4667451.0069   3268289.5886   5  10   3.7089   4.3842   3.4934  -3.2501   3.0789  -2.1405   0.00    0.0
2274 385140.000  -2853470.4828   4667455.8050   3268291.6161   6   1  73.0823  99.9700  98.3351  12.9302   6.6716 -35.2183   0.00    0.0
2274 385141.000  -2853476.7393   4667450.9957   3268284.7452   5  10   3.7078   4.3825   3.4923  -3.2489   3.0775  -2.1399   0.00    0.0
2274 385142.000  -2853481.5364   4667456.9987   3268284.6449   5  10   3.7073   4.3817   3.4918  -3.2482   3.0769  -2.1396   0.00    0.0
2274 385143.000  -2853480.2456   4667448.8676   3268277.2457   5  10   3.7068   4.3809   3.4913  -3.2476   3.0762  -2.1393   0.00    0.0
2274 385145.000  -2853476.5160   4667448.3142   3268276.0154   6   1  73.0957  99.9700  98.3253  12.9310   6.6825 -35.2662   0.00    0.0
2274 385147.000  -2853484.1062   4667452.5450   3268281.0250   5  10   3.7046   4.3776   3.4892  -3.2452   3.0736  -2.1380   0.00    0.0
2274 385148.000  -2853482.1238   4667451.5573   3268285.0382   5   9   3.7568   4.3834   3.8006  -3.2677   3.0136  -1.9036   0.00    0.0
2274 385149.000  -2853481.4851   4667450.2191   3268283.7893   5  10   3.7036   4.3760   3.4881  -3.2440   3.0722  -2.1374   0.00    0.0
2274 385150.000  -2853462.9453   4667445.2139   3268288.8930   6   1  73.1091  99.9700  98.3154  12.9317   6.6933 -35.3140   0.00    0.0
2274 385157.000  -2853434.5621   4667431.9421   3268284.3170   6   1  73.1279  99.9699  98.3015  12.9328   6.7085 -35.3806   0.00    0.0
2274 385158.000  -2853442.9577   4667435.2840   3268295.0303   6   2  63.9074  99.7733  82.3121  -7.4515  19.5387  25.6504   0.00    0.0
2274 385159.000  -2853430.8311   4667431.3949   3268304.2424   6   2  63.9093  99.7730  82.3067  -7.4655  19.5479  25.6427   0.00    0.0
2274 385160.000  -2853453.4029   4667435.1327   3268280.6849   6   1  89.1062  85.8609  98.4309  48.2363  30.0756 -28.2998   0.00    0.0
2274 385162.000  -2853450.7859   4667448.0765   3268286.6875   6   2  64.5606  91.6035  94.8051  39.2866 -31.5218 -19.0591   0.00    0.0
2274 385163.000  -2853464.7967   4667459.2039   3268280.0196   6   2  69.5398  84.2028  97.5642  37.2736  26.2195 -39.0656   0.00    0.0
2274 385164.000  -2853497.5700   4667481.8324   3268270.4930   6   3  69.5263  76.1245  37.6384  36.5357 -50.5121 -40.7810   0.00    0.0
2274 385165.000  -2853506.4802   4667476.5119   3268253.9505   6   2  80.1060  82.5190  44.5977  37.4028  54.6857  51.2000   0.00    0.0
2274 385166.000  -2853480.1247   4667468.7414   3268279.9980   6   1  73.1522  99.9699  98.2836  12.9336   6.7276 -35.4660   0.00    0.0
2274 385169.000  -2853489.5368   4667443.4197   3268282.0219   6   3  61.0427  81.2770  38.5084  25.5663  51.6215  38.1848   0.00    0.0
2274 385171.000  -2853499.7273   4667442.3190   3268302.8722   6   4  46.1483  62.7931  20.9686 -37.5254  31.5881  12.9568   0.00    0.0
2274 385172.000  -2853516.7648   4667473.2548   3268288.1536   6   4  45.9072  51.8287  18.1476 -33.6678  24.9447  16.2785   0.00    0.0
2274 385173.000  -2853501.8417   4667476.1144   3268287.9453   6   6  44.5234  32.9173   3.6094 -38.1582  -8.4935  10.1815   0.00    0.0
2274 385176.000  -2853466.5801   4667449.1994   3268289.6627   6   8   4.2089   2.8222   1.9844  -2.6299   1.5661   0.6993   0.00    0.0
2274 385187.000  -2853460.3211   4667442.8380   3268289.8942   6   8   3.7384   2.5196   1.6787  -2.4475   1.4976  -0.7707   0.00    0.0
2274 385188.000  -2853453.5663   4667439.8735   3268287.7674   6   9   2.8251   1.9221   1.4452  -1.6830   1.2900  -0.5469   0.00    0.0
2274 385189.000  -2853457.3205   4667440.2832   3268286.0051   6  10   2.0448   1.6170   1.2771  -1.2106   1.1814  -0.6501   0.00    0.0
2274 385190.000  -2853454.4676   4667439.0173   3268285.5692   6   9   1.8705   1.4562   1.1661  -1.0750   1.0768  -0.5515   0.00    0.0
2274 385191.000  -2853452.3541   4667438.4358   3268285.8074   6   8   1.7453   1.3612   1.1136  -0.9529   1.0306  -0.4278   0.00    0.0
2274 385192.000  -2853451.7769   4667438.1533   3268286.2227   6   9   1.6359   1.2644   1.0393  -0.8818   0.9610  -0.3831   0.00    0.0
2274 385193.000  -2853451.0033   4667438.1083   3268286.2249   6   7   1.5829   1.2019   0.9928  -0.8630   0.9158  -0.4034   0.00    0.0
2274 385194.000  -2853450.4078   4667438.2795   3268286.3080   6   7   1.5354   1.1487   0.9524  -0.8447   0.8770  -0.4154   0.00    0.0
2274 385195.000  -2853449.6267   4667439.0871   3268287.1315   6   7   1.4933   1.1030   0.9170  -0.8278   0.8435  -0.4228   0.00    0.0
2274 385196.000  -2853448.8666   4667439.4032   3268287.7019   6   7   1.4555   1.0631   0.8856  -0.8122   0.8141  -0.4270   0.00    0.0
2274 385197.000  -2853448.4474   4667439.8231   3268288.3095   6   7   1.4212   1.0278   0.8575  -0.7976   0.7879  -0.4291   0.00    0.0
2274 385198.000  -2853447.6410   4667439.8836   3268288.3950   6   8   1.3657   0.9880   0.8223  -0.7639   0.7538  -0.3929   0.00    0.0
2274 385199.000  -2853447.3206   4667439.7762   3268288.4838   6   7   1.3379   0.9599   0.7996  -0.7523   0.7330  -0.3959   0.00    0.0
2274 385200.000  -2853447.4213   4667439.8006   3268288.6150   6   7   1.3118   0.9344   0.7789  -0.7410   0.7141  -0.3973   0.00    0.0
2274 385201.000  -2853447.1387   4667439.2890   3268288.4696   6   8   1.2812   0.9090   0.7606  -0.7228   0.6994  -0.4001   0.00    0.0
2274 385202.000  -2853446.8197   4667439.4704   3268288.8652   6   7   1.2586   0.8872   0.7421  -0.7135   0.6825  -0.4006   0.00    0.0
2274 385203.000  -2853446.6416   4667439.5794   3268289.2251   6   7   1.2376   0.8683   0.7268  -0.7034   0.6688  -0.3984   0.00    0.0
2274 385204.000  -2853446.0496   4667439.3250   3268289.3097   6   7   1.2177   0.8503   0.7117  -0.6943   0.6551  -0.3971   0.00    0.0
2274 385205.000  -2853445.7757   4667439.3001   3268289.6153   6   7   1.1988   0.8335   0.6976  -0.6856   0.6425  -0.3955   0.00    0.0
2274 385206.000  -2853445.2850   4667439.2747   3268290.0452   6   6   1.1823   0.8220   0.6906  -0.6737   0.6367  -0.3868   0.00    0.0
2274 385207.000  -2853444.3996   4667438.9041   3268290.2542   6   7   1.1613   0.8088   0.6836  -0.6574   0.6318  -0.3811   0.00    0.0
2274 385208.000  -2853444.2180   4667438.4198   3268290.0598   6   7   1.1451   0.7945   0.6710  -0.6506   0.6204  -0.3802   0.00    0.0
2274 385209.000  -2853443.8767   4667438.2597   3268290.4113   6   8   1.1241   0.7789   0.6592  -0.6387   0.6106  -0.3807   0.00    0.0
2274 385210.000  -2853440.6697   4667432.9015   3268282.8340   6   7   1.4784   1.9563   2.9202  -1.4689   2.3421  -1.7098   0.00    0.0
2274 385211.000  -2853441.4967   4667434.7457   3268286.0768   6   7   1.2989   1.4617   2.0802  -1.1248   1.6817  -1.2338   0.00    0.0
2274 385212.000  -2853440.1827   4667433.4510   3268284.7112   6   7   1.2253   1.2509   1.7102  -0.9809   1.3926  -1.0263   0.00    0.0
2274 385213.000  -2853440.0466   4667434.0306   3268285.9559   6   5   1.1852   1.1730   1.5643  -0.9160   1.2826  -0.9302   0.00    0.0
2274 385226.000  -2853440.5670   4667433.7662   3268286.1251   6   7   1.1494   1.0700   1.3829  -0.8528   1.1396  -0.8373   0.00    0.0
2274 385227.000  -2853440.7781   4667433.5439   3268286.1019   6   6   1.1388   1.0025   1.2616  -0.8103   1.0451  -0.7728   0.00    0.0
