% program   : RTKPOST ver.2.4.2
% inp file  : D:\ligo\m2dgr\tree3.obs
% inp file  : D:\ligo\m2dgr\m2dgr-tree3.rnx
% inp file  : D:\ligo\m2dgr\tree3.sp3
% obs start : 2023/08/11 10:40:44.0 GPST (week2274 470444.0s)
% obs end   : 2023/08/11 10:43:23.0 GPST (week2274 470603.0s)
% pos mode  : ppp-kinematic
% solution  : forward
% elev mask : 15.0 deg
% dynamics  : off
% tidecorr  : on
% tropo opt : est ztd+grad
% ephemeris : precise
% navi sys  : gps glonass galileo
% antenna1  :                       ( 0.0000  0.0000  0.0000)
%
% (x/y/z-ecef=WGS84,Q=1:fix,2:float,3:sbas,4:dgps,5:single,6:ppp,ns=# of satellites)
%  GPST              x-ecef(m)      y-ecef(m)      z-ecef(m)   Q  ns   sdx(m)   sdy(m)   sdz(m)  sdxy(m)  sdyz(m)  sdzx(m) age(s)  ratio
2274 470444.000  -2853535.1324   4667402.7358   3268265.3729   6  11   2.4634   3.4819   3.3697  -2.6271   3.1403  -2.5374   0.00    0.0
2274 470445.000  -2853535.2756   4667402.7823   3268265.5887   6  11   1.7498   2.4720   2.3885  -1.8661   2.2284  -1.8006   0.00    0.0
2274 470446.000  -2853535.4348   4667402.5754   3268265.5033   6  11   1.4348   2.0261   1.9545  -1.5303   1.8255  -1.4751   0.00    0.0
2274 470447.000  -2853535.5543   4667402.4827   3268265.6153   6  11   1.2479   1.7611   1.6963  -1.3310   1.5861  -1.2817   0.00    0.0
2274 470448.000  -2853535.6658   4667402.4633   3268265.8527   6  11   1.1208   1.5810   1.5205  -1.1955   1.4232  -1.1501   0.00    0.0
2274 470449.000  -2853535.7515   4667402.4267   3268266.1765   6  11   1.0273   1.4484   1.3909  -1.0958   1.3033  -1.0533   0.00    0.0
2274 470450.000  -2853535.7207   4667402.4898   3268266.6783   6  11   0.9550   1.3458   1.2904  -1.0187   1.2104  -0.9782   0.00    0.0
2274 470451.000  -2853535.6420   4667402.6401   3268267.1669   6  11   0.8969   1.2633   1.2096  -0.9567   1.1357  -0.9179   0.00    0.0
2274 470452.000  -2853535.4439   4667402.8296   3268267.6321   6  11   0.8489   1.1953   1.1428  -0.9056   1.0740  -0.8681   0.00    0.0
2274 470453.000  -2853535.1582   4667403.0243   3268267.9659   6  11   0.8085   1.1379   1.0864  -0.8625   1.0220  -0.8261   0.00    0.0
2274 470454.000  -2853534.9582   4667403.3442   3268268.2803   6  11   0.7738   1.0886   1.0379  -0.8256   0.9774  -0.7901   0.00    0.0
2274 470455.000  -2853534.6539   4667403.6740   3268268.4825   6  11   0.7437   1.0458   0.9957  -0.7935   0.9386  -0.7587   0.00    0.0
2274 470456.000  -2853534.3252   4667403.9838   3268268.7225   6  11   0.7172   1.0082   0.9586  -0.7653   0.9044  -0.7312   0.00    0.0
2274 470457.000  -2853533.9491   4667404.2454   3268268.9517   6  11   0.6937   0.9748   0.9256  -0.7402   0.8741  -0.7067   0.00    0.0
2274 470458.000  -2853533.6099   4667404.4882   3268269.1659   6  11   0.6726   0.9448   0.8959  -0.7178   0.8469  -0.6847   0.00    0.0
2274 470459.000  -2853533.2678   4667404.7287   3268269.4281   6  11   0.6536   0.9178   0.8692  -0.6975   0.8224  -0.6649   0.00    0.0
2274 470460.000  -2853533.0162   4667404.9888   3268269.6985   6  11   0.6363   0.8933   0.8449  -0.6792   0.8001  -0.6469   0.00    0.0
2274 470461.000  -2853532.7737   4667405.1544   3268269.8893   6  11   0.6206   0.8709   0.8227  -0.6624   0.7798  -0.6305   0.00    0.0
2274 470462.000  -2853532.5395   4667405.2870   3268270.0834   6  11   0.6061   0.8504   0.8023  -0.6471   0.7611  -0.6154   0.00    0.0
2274 470463.000  -2853532.2983   4667405.4946   3268270.3719   6  11   0.5928   0.8315   0.7835  -0.6329   0.7439  -0.6015   0.00    0.0
2274 470464.000  -2853531.9446   4667405.6512   3268270.5623   6  11   0.5805   0.8140   0.7661  -0.6198   0.7280  -0.5887   0.00    0.0
2274 470465.000  -2853531.6421   4667405.8406   3268270.8126   6  11   0.5690   0.7977   0.7499  -0.6076   0.7132  -0.5767   0.00    0.0
2274 470466.000  -2853531.2948   4667406.0074   3268270.9737   6  11   0.5583   0.7826   0.7348  -0.5963   0.6995  -0.5656   0.00    0.0
2274 470467.000  -2853530.9964   4667406.2327   3268271.2138   6  11   0.5484   0.7684   0.7207  -0.5857   0.6866  -0.5552   0.00    0.0
2274 470468.000  -2853530.6806   4667406.4369   3268271.4289   6  11   0.5390   0.7552   0.7074  -0.5758   0.6745  -0.5454   0.00    0.0
2274 470469.000  -2853530.3731   4667406.6252   3268271.6669   6  11   0.5302   0.7427   0.6950  -0.5665   0.6632  -0.5363   0.00    0.0
2274 470470.000  -2853530.1252   4667406.8131   3268271.8591   6  11   0.5220   0.7310   0.6832  -0.5577   0.6525  -0.5276   0.00    0.0
2274 470471.000  -2853529.7974   4667406.9921   3268272.0736   6  11   0.5141   0.7199   0.6721  -0.5494   0.6424  -0.5195   0.00    0.0
2274 470472.000  -2853529.4266   4667407.1256   3268272.2003   6  11   0.5068   0.7095   0.6616  -0.5416   0.6329  -0.5118   0.00    0.0
2274 470473.000  -2853529.0757   4667407.3536   3268272.4456   6  11   0.4998   0.6996   0.6517  -0.5342   0.6239  -0.5045   0.00    0.0
2274 470474.000  -2853528.6504   4667407.4945   3268272.5563   6  11   0.4931   0.6901   0.6422  -0.5271   0.6153  -0.4975   0.00    0.0
2274 470475.000  -2853528.3238   4667407.6895   3268272.7748   6  11   0.4868   0.6812   0.6332  -0.5204   0.6071  -0.4910   0.00    0.0
2274 470476.000  -2853527.9847   4667407.8673   3268272.9811   6  11   0.4807   0.6727   0.6247  -0.5140   0.5994  -0.4847   0.00    0.0
2274 470477.000  -2853527.5809   4667407.9864   3268273.2064   6  11   0.4750   0.6646   0.6165  -0.5080   0.5920  -0.4787   0.00    0.0
2274 470478.000  -2853527.1821   4667408.1724   3268273.4442   6  11   0.4695   0.6568   0.6087  -0.5021   0.5849  -0.4730   0.00    0.0
2274 470479.000  -2853526.8217   4667408.2954   3268273.6287   6  11   0.4642   0.6494   0.6012  -0.4966   0.5781  -0.4675   0.00    0.0
2274 470480.000  -2853526.5647   4667408.4743   3268273.8108   6  11   0.4592   0.6423   0.5941  -0.4913   0.5717  -0.4622   0.00    0.0
2274 470481.000  -2853526.1063   4667408.5769   3268273.8635   6  11   0.4543   0.6355   0.5872  -0.4862   0.5654  -0.4572   0.00    0.0
2274 470482.000  -2853525.7632   4667408.8356   3268274.0363   6  11   0.4497   0.6289   0.5806  -0.4813   0.5595  -0.4524   0.00    0.0
2274 470483.000  -2853525.3240   4667409.0438   3268274.1814   6  11   0.4452   0.6226   0.5742  -0.4766   0.5538  -0.4477   0.00    0.0
2274 470484.000  -2853524.8698   4667409.2062   3268274.3008   6  11   0.4409   0.6166   0.5681  -0.4720   0.5482  -0.4433   0.00    0.0
2274 470485.000  -2853524.4667   4667409.4482   3268274.4812   6  11   0.4368   0.6108   0.5623  -0.4677   0.5429  -0.4390   0.00    0.0
2274 470486.000  -2853524.0298   4667409.5957   3268274.5742   6  11   0.4328   0.6052   0.5566  -0.4635   0.5378  -0.4348   0.00    0.0
2274 470487.000  -2853523.6193   4667409.8305   3268274.6655   6  11   0.4289   0.5998   0.5511  -0.4594   0.5329  -0.4308   0.00    0.0
2274 470488.000  -2853523.2855   4667410.0559   3268274.7460   6  11   0.4252   0.5946   0.5459  -0.4555   0.5282  -0.4270   0.00    0.0
2274 470489.000  -2853522.8619   4667410.2941   3268274.8947   6  11   0.4216   0.5895   0.5408  -0.4517   0.5236  -0.4233   0.00    0.0
2274 470490.000  -2853522.4427   4667410.5080   3268274.9948   6  11   0.4181   0.5847   0.5358  -0.4481   0.5191  -0.4197   0.00    0.0
2274 470491.000  -2853522.0659   4667410.7617   3268275.1203   6  11   0.4147   0.5800   0.5311  -0.4445   0.5148  -0.4162   0.00    0.0
2274 470492.000  -2853521.6521   4667410.8687   3268275.1620   6  11   0.4114   0.5754   0.5265  -0.4411   0.5107  -0.4128   0.00    0.0
2274 470493.000  -2853521.3071   4667411.0539   3268275.1964   6  11   0.4083   0.5710   0.5220  -0.4378   0.5066  -0.4095   0.00    0.0
2274 470494.000  -2853521.0680   4667411.2629   3268275.3154   6  10   0.4118   0.5677   0.5190  -0.4373   0.5039  -0.4095   0.00    0.0
2274 470495.000  -2853520.5905   4667411.3303   3268275.2955   6  11   0.4081   0.5634   0.5146  -0.4339   0.5000  -0.4060   0.00    0.0
2274 470496.000  -2853520.2752   4667411.4662   3268275.3059   6  11   0.4026   0.5590   0.5103  -0.4298   0.4960  -0.4021   0.00    0.0
2274 470497.000  -2853519.7584   4667411.3360   3268275.1624   6  11   0.4024   0.5555   0.5065  -0.4279   0.4927  -0.4001   0.00    0.0
2274 470498.000  -2853519.4531   4667411.4455   3268275.0692   6  11   0.4291   0.5634   0.5024  -0.4457   0.4888  -0.3962   0.00    0.0
2274 470499.000  -2853519.0449   4667411.5675   3268274.9998   6  11   0.4119   0.5548   0.4986  -0.4336   0.4858  -0.3939   0.00    0.0
2274 470500.000  -2853518.6058   4667411.5330   3268274.9885   6  11   0.4057   0.5506   0.4949  -0.4291   0.4827  -0.3914   0.00    0.0
2274 470501.000  -2853518.4832   4667411.8403   3268275.0430   6  10   0.4070   0.5471   0.4925  -0.4276   0.4807  -0.3917   0.00    0.0
2274 470502.000  -2853518.1416   4667411.9726   3268275.0512   6  10   0.4033   0.5432   0.4896  -0.4241   0.4779  -0.3899   0.00    0.0
2274 470503.000  -2853517.8121   4667412.1909   3268274.9583   6  11   0.4149   0.5426   0.4867  -0.4284   0.4761  -0.3904   0.00    0.0
2274 470504.000  -2853517.2870   4667412.3221   3268274.7111   6  11   0.4114   0.5401   0.4833  -0.4263   0.4733  -0.3876   0.00    0.0
2274 470505.000  -2853517.0737   4667412.7142   3268274.5889   6  10   0.4072   0.5373   0.4803  -0.4234   0.4707  -0.3851   0.00    0.0
2274 470506.000  -2853516.7811   4667412.9806   3268274.4625   6   9   0.4147   0.5368   0.4781  -0.4260   0.4693  -0.3848   0.00    0.0
2274 470507.000  -2853516.6065   4667413.3946   3268274.4013   6  11   0.4037   0.5320   0.4745  -0.4194   0.4656  -0.3802   0.00    0.0
2274 470508.000  -2853516.3776   4667413.6984   3268274.2743   6  10   0.3967   0.5288   0.4715  -0.4151   0.4629  -0.3770   0.00    0.0
2274 470509.000  -2853514.5589   4667413.0705   3268274.0804   6  10   0.7948   0.6845   0.4732  -0.6873   0.4882  -0.4271   0.00    0.0
2274 470510.000  -2853514.3415   4667413.4304   3268273.9508   6  10   0.6355   0.6141   0.4683  -0.5736   0.4732  -0.4011   0.00    0.0
2274 470511.000  -2853514.5772   4667414.0590   3268273.9889   6  10   0.5980   0.6109   0.4738  -0.5182   0.4514  -0.4053   0.00    0.0
2274 470512.000  -2853514.3661   4667414.3032   3268273.8344   6   9   0.6421   0.6003   0.4945  -0.5374   0.4807  -0.4562   0.00    0.0
2274 470513.000  -2853514.4923   4667414.7394   3268273.8556   6  10   0.5856   0.5804   0.4844  -0.5063   0.4661  -0.4207   0.00    0.0
2274 470514.000  -2853514.2403   4667415.1518   3268273.5308   6  11   0.5600   0.5729   0.4790  -0.4923   0.4603  -0.4099   0.00    0.0
2274 470515.000  -2853514.0678   4667415.2155   3268273.3932   6  11   0.5686   0.5767   0.4744  -0.5017   0.4598  -0.4075   0.00    0.0
2274 470516.000  -2853514.1040   4667415.6322   3268273.3906   6  10   0.5387   0.5683   0.4693  -0.4854   0.4551  -0.3971   0.00    0.0
2274 470517.000  -2853513.6783   4667415.8405   3268273.2489   6  10   0.5154   0.5613   0.4650  -0.4726   0.4514  -0.3894   0.00    0.0
2274 470518.000  -2853513.5432   4667415.8426   3268273.2797   6  10   0.5250   0.6096   0.4663  -0.4848   0.4302  -0.3818   0.00    0.0
2274 470519.000  -2853513.3998   4667416.0938   3268273.2185   6  10   0.5285   0.5890   0.4621  -0.4793   0.4361  -0.3843   0.00    0.0
2274 470520.000  -2853513.2759   4667416.5324   3268273.1534   6  10   0.5002   0.5747   0.4575  -0.4630   0.4365  -0.3788   0.00    0.0
2274 470521.000  -2853513.3788   4667417.0888   3268273.1172   6   9   0.5352   0.5832   0.4556  -0.4878   0.4406  -0.3840   0.00    0.0
2274 470522.000  -2853512.9975   4667417.3192   3268272.9716   6   9   0.5431   0.5789   0.4531  -0.4895   0.4414  -0.3847   0.00    0.0
2274 470523.000  -2853510.9404   4667416.5435   3268272.0911   6  10   1.2766   0.8350   0.6479  -0.9685   0.6913  -0.8291   0.00    0.0
2274 470524.000  -2853509.9984   4667416.4308   3268271.8189   6  10   0.9933   0.7209   0.5699  -0.7764   0.5928  -0.6662   0.00    0.0
2274 470525.000  -2853509.2380   4667416.5649   3268271.6723   6   9   0.9224   0.6925   0.5531  -0.7288   0.5712  -0.6294   0.00    0.0
2274 470526.000  -2853509.6284   4667417.1675   3268272.0238   6  11   0.8153   0.6500   0.5269  -0.6559   0.5365  -0.5709   0.00    0.0
2274 470527.000  -2853508.7740   4667417.2176   3268272.0165   6   9   0.7530   0.6283   0.5112  -0.6156   0.5170  -0.5365   0.00    0.0
2274 470528.000  -2853509.1109   4667417.5881   3268272.2056   6  10   0.7435   0.6334   0.4989  -0.6178   0.4971  -0.5031   0.00    0.0
2274 470529.000  -2853508.8978   4667417.8653   3268272.3342   6  10   0.7026   0.6179   0.4900  -0.5912   0.4829  -0.4794   0.00    0.0
2274 470530.000  -2853508.7287   4667418.1710   3268272.1436   6  10   0.7038   0.6143   0.4873  -0.5902   0.4811  -0.4775   0.00    0.0
2274 470531.000  -2853508.8334   4667418.4353   3268272.4439   6  10   0.7614   0.6069   0.6309  -0.5956   0.5102  -0.6011   0.00    0.0
2274 470532.000  -2853509.2868   4667418.9769   3268272.8470   6  10   0.6841   0.5873   0.5803  -0.5533   0.4826  -0.5384   0.00    0.0
2274 470533.000  -2853508.6815   4667419.2949   3268271.6307   6   8   0.8512   0.5943   0.8555  -0.5921   0.5332  -0.7789   0.00    0.0
2274 470534.000  -2853507.2705   4667419.5695   3268270.2659   6   9   0.7225   0.5781   0.7116  -0.5443   0.4859  -0.6338   0.00    0.0
2274 470535.000  -2853507.5238   4667419.9730   3268270.6987   6   8   0.8130   0.5804   0.8326  -0.5677   0.5202  -0.7534   0.00    0.0
2274 470536.000  -2853505.6555   4667419.6050   3268269.4667   6  10   0.6997   0.5681   0.6891  -0.5303   0.4828  -0.6185   0.00    0.0
2274 470537.000  -2853505.4265   4667420.0142   3268269.4605   6   8   0.6789   0.5654   0.6497  -0.5248   0.4775  -0.5887   0.00    0.0
2274 470538.000  -2853505.3102   4667420.4320   3268269.3003   6  10   1.2104   0.8879   0.6085  -0.9841   0.4618  -0.5434   0.00    0.0
2274 470539.000  -2853506.2719   4667421.5020   3268269.4869   6  10   0.9063   0.7208   0.5881  -0.7456   0.4355  -0.4964   0.00    0.0
2274 470540.000  -2853506.0143   4667421.8728   3268269.2472   6  10   0.7729   0.6534   0.5672  -0.6443   0.4246  -0.4689   0.00    0.0
2274 470541.000  -2853505.9504   4667422.2277   3268269.1047   6   9   0.7264   0.6273   0.5547  -0.6076   0.4285  -0.4666   0.00    0.0
2274 470542.000  -2853506.1002   4667422.8389   3268269.0725   6   9   0.6903   0.6079   0.5444  -0.5799   0.4303  -0.4630   0.00    0.0
2274 470543.000  -2853505.4634   4667422.9367   3268269.0627   6  10   0.6388   0.5854   0.5315  -0.5436   0.4238  -0.4466   0.00    0.0
2274 470544.000  -2853505.1561   4667423.3073   3268269.1947   6   9   0.6023   0.5710   0.5220  -0.5186   0.4180  -0.4343   0.00    0.0
2274 470545.000  -2853504.3884   4667423.2254   3268269.2291   6  10   0.5738   0.5585   0.5125  -0.4990   0.4151  -0.4248   0.00    0.0
2274 470546.000  -2853503.8966   4667423.3866   3268269.3893   6  10   0.5506   0.5485   0.5040  -0.4833   0.4126  -0.4166   0.00    0.0
2274 470547.000  -2853503.4538   4667423.5761   3268269.2666   6  10   0.5316   0.5403   0.4965  -0.4705   0.4104  -0.4097   0.00    0.0
2274 470548.000  -2853502.7055   4667423.6973   3268268.8324   6   9   0.5154   0.5340   0.4904  -0.4598   0.4075  -0.4035   0.00    0.0
2274 470549.000  -2853502.9436   4667424.2606   3268268.7754   6  10   0.4991   0.5274   0.4837  -0.4494   0.4054  -0.3968   0.00    0.0
2274 470550.000  -2853502.9308   4667424.8040   3268268.5230   6  10   0.4860   0.5217   0.4777  -0.4409   0.4036  -0.3915   0.00    0.0
2274 470551.000  -2853503.0362   4667425.2367   3268268.4752   6  11   0.4774   0.5161   0.4726  -0.4344   0.4028  -0.3881   0.00    0.0
2274 470552.000  -2853502.7207   4667425.4811   3268268.4251   6   9   0.4842   0.5161   0.4685  -0.4378   0.4026  -0.3866   0.00    0.0
2274 470553.000  -2853501.7409   4667425.4430   3268268.4029   6  10   0.7178   0.6151   0.4654  -0.6083   0.4170  -0.4086   0.00    0.0
2274 470554.000  -2853501.5144   4667425.8703   3268268.5111   6  10   0.6409   0.5834   0.4598  -0.5549   0.4087  -0.3931   0.00    0.0
2274 470555.000  -2853501.1273   4667425.9749   3268268.4515   6  10   0.6217   0.5718   0.4573  -0.5392   0.4083  -0.3922   0.00    0.0
2274 470556.000  -2853500.8795   4667426.2412   3268268.3979   6  10   0.5842   0.5557   0.4526  -0.5128   0.4039  -0.3835   0.00    0.0
2274 470557.000  -2853500.7478   4667426.5526   3268268.0708   6  11   0.5851   0.5559   0.4484  -0.5145   0.4005  -0.3771   0.00    0.0
2274 470558.000  -2853500.6649   4667426.9911   3268267.8215   6  10   0.5690   0.5459   0.4451  -0.5009   0.4013  -0.3776   0.00    0.0
2274 470559.000  -2853499.9583   4667427.1700   3268267.5402   6  10   0.5530   0.5380   0.4422  -0.4892   0.4009  -0.3762   0.00    0.0
2274 470560.000  -2853499.5476   4667427.3636   3268267.4940   6  11   0.5298   0.5267   0.4387  -0.4722   0.3983  -0.3714   0.00    0.0
2274 470561.000  -2853499.2082   4667427.5590   3268267.5830   6  11   0.5088   0.5172   0.4351  -0.4574   0.3957  -0.3661   0.00    0.0
2274 470562.000  -2853498.7810   4667427.8907   3268267.3988   6  10   0.4966   0.5115   0.4325  -0.4487   0.3945  -0.3640   0.00    0.0
2274 470563.000  -2853498.1831   4667427.8001   3268266.8534   6  10   0.7347   1.2232   1.1981  -0.8957   1.1830  -0.8595   0.00    0.0
2274 470564.000  -2853497.5018   4667428.0497   3268266.5527   6   9   0.6392   0.9924   0.9512  -0.7432   0.9383  -0.6996   0.00    0.0
2274 470565.000  -2853497.4159   4667428.3719   3268266.3123   6  10   0.5965   0.8957   0.8477  -0.6791   0.8357  -0.6334   0.00    0.0
2274 470566.000  -2853497.1864   4667428.8942   3268266.2748   6   9   0.5731   0.8411   0.7912  -0.6420   0.7782  -0.5939   0.00    0.0
2274 470567.000  -2853496.9704   4667429.4178   3268266.2800   6   9   0.5544   0.8037   0.7528  -0.6156   0.7392  -0.5666   0.00    0.0
2274 470568.000  -2853496.5456   4667429.7976   3268266.3554   6  10   0.5392   0.7756   0.7217  -0.5962   0.7094  -0.5479   0.00    0.0
2274 470569.000  -2853496.4014   4667430.3733   3268266.5753   6  10   0.5266   0.7533   0.6971  -0.5805   0.6859  -0.5328   0.00    0.0
2274 470570.000  -2853495.9045   4667430.6943   3268266.5834   6  10   0.5127   0.7312   0.6754  -0.5639   0.6639  -0.5181   0.00    0.0
2274 470571.000  -2853495.5035   4667430.9362   3268266.5956   6  11   0.5012   0.7126   0.6570  -0.5501   0.6456  -0.5058   0.00    0.0
2274 470572.000  -2853494.8927   4667431.0767   3268266.6023   6  11   0.4910   0.6962   0.6411  -0.5380   0.6299  -0.4951   0.00    0.0
2274 470573.000  -2853494.5916   4667431.3492   3268266.4657   6  11   0.4813   0.6819   0.6271  -0.5272   0.6161  -0.4854   0.00    0.0
2274 470574.000  -2853494.1996   4667431.6122   3268266.3910   6  11   0.4728   0.6691   0.6146  -0.5175   0.6038  -0.4768   0.00    0.0
2274 470575.000  -2853493.8773   4667431.8756   3268266.2740   6  10   0.4664   0.6604   0.6043  -0.5108   0.5944  -0.4702   0.00    0.0
2274 470576.000  -2853493.5581   4667432.1554   3268266.1980   6  10   0.4602   0.6519   0.5948  -0.5042   0.5857  -0.4640   0.00    0.0
2274 470577.000  -2853493.3937   4667432.5467   3268266.1819   6  10   0.4544   0.6440   0.5860  -0.4981   0.5776  -0.4582   0.00    0.0
2274 470578.000  -2853493.1606   4667432.6794   3268266.2235   6  10   0.4597   0.6384   0.5796  -0.4971   0.5720  -0.4578   0.00    0.0
2274 470579.000  -2853492.9541   4667433.0201   3268266.1693   6  10   0.4575   0.6316   0.5726  -0.4924   0.5654  -0.4541   0.00    0.0
2274 470580.000  -2853492.7368   4667433.3133   3268266.1257   6  10   0.4459   0.6239   0.5640  -0.4843   0.5575  -0.4458   0.00    0.0
2274 470581.000  -2853492.4835   4667433.6467   3268266.0505   6  10   0.4389   0.6173   0.5568  -0.4784   0.5508  -0.4400   0.00    0.0
2274 470582.000  -2853492.1852   4667434.0100   3268266.1790   6  10   0.4333   0.6112   0.5501  -0.4732   0.5447  -0.4350   0.00    0.0
2274 470583.000  -2853491.8491   4667434.3008   3268266.2181   6  10   0.4282   0.6054   0.5439  -0.4684   0.5390  -0.4305   0.00    0.0
2274 470584.000  -2853491.4066   4667434.4783   3268266.2978   6  10   0.4236   0.6000   0.5380  -0.4639   0.5336  -0.4262   0.00    0.0
2274 470585.000  -2853491.0483   4667434.5877   3268266.4121   6  10   0.4192   0.5947   0.5324  -0.4596   0.5284  -0.4221   0.00    0.0
2274 470586.000  -2853490.7454   4667434.7444   3268266.6060   6  11   0.4144   0.5882   0.5265  -0.4544   0.5224  -0.4176   0.00    0.0
2274 470587.000  -2853490.4052   4667434.9266   3268266.9023   6  11   0.4313   0.6366   0.5860  -0.4866   0.5801  -0.4549   0.00    0.0
2274 470588.000  -2853489.9597   4667434.9298   3268267.0459   6  11   0.4215   0.6168   0.5598  -0.4724   0.5565  -0.4386   0.00    0.0
2274 470589.000  -2853489.5560   4667435.0343   3268267.2538   6  11   0.4127   0.5996   0.5426  -0.4600   0.5390  -0.4264   0.00    0.0
2274 470590.000  -2853489.1251   4667435.0553   3268267.4174   6  11   0.4059   0.5871   0.5301  -0.4509   0.5264  -0.4175   0.00    0.0
2274 470591.000  -2853488.7559   4667435.1960   3268267.6433   6  11   0.4002   0.5772   0.5203  -0.4436   0.5165  -0.4104   0.00    0.0
2274 470592.000  -2853488.3237   4667435.1982   3268267.8102   6  11   0.3952   0.5688   0.5120  -0.4373   0.5082  -0.4045   0.00    0.0
2274 470593.000  -2853487.9565   4667435.3426   3268268.0841   6  10   0.3915   0.5633   0.5053  -0.4331   0.5020  -0.3999   0.00    0.0
2274 470594.000  -2853487.5803   4667435.3979   3268268.2699   6  10   0.3878   0.5578   0.4993  -0.4289   0.4963  -0.3957   0.00    0.0
2274 470595.000  -2853487.2350   4667435.5008   3268268.5148   6  10   0.3843   0.5527   0.4938  -0.4250   0.4912  -0.3918   0.00    0.0
2274 470596.000  -2853486.9194   4667435.6521   3268268.7572   6  10   0.3810   0.5480   0.4888  -0.4213   0.4865  -0.3882   0.00    0.0
2274 470597.000  -2853486.5925   4667435.6961   3268268.9454   6  10   0.3778   0.5437   0.4841  -0.4179   0.4821  -0.3849   0.00    0.0
2274 470598.000  -2853486.2716   4667435.7719   3268269.2186   6  11   0.3744   0.5385   0.4793  -0.4140   0.4773  -0.3813   0.00    0.0
2274 470599.000  -2853486.0089   4667435.8089   3268269.5622   6  10   0.3716   0.5347   0.4751  -0.4110   0.4734  -0.3783   0.00    0.0
2274 470600.000  -2853485.7314   4667435.8537   3268269.8766   6  10   0.3688   0.5310   0.4711  -0.4080   0.4697  -0.3754   0.00    0.0
2274 470601.000  -2853485.4200   4667435.8557   3268270.0308   6  10   0.3661   0.5274   0.4674  -0.4052   0.4662  -0.3727   0.00    0.0
2274 470602.000  -2853485.3619   4667435.8574   3268270.0522   6  10   0.3635   0.5240   0.4637  -0.4025   0.4628  -0.3700   0.00    0.0
2274 470603.000  -2853485.3933   4667435.8724   3268270.0357   6  10   0.4096   0.6362   0.5839  -0.4803   0.5853  -0.4523   0.00    0.0
