% program   : RTKPOST ver.2.4.2
% inp file  : D:\ligo\urbannav\20210517.light-urban.tste.ublox.m8t.GC.obs
% inp file  : D:\ligo\urbannav\dataTST.rnx
% inp file  : D:\ligo\urbannav\igr21581.sp3
% obs start : 2021/05/17 02:33:13.0 GPST (week2158  95593.0s)
% obs end   : 2021/05/17 02:46:19.0 GPST (week2158  96379.0s)
% pos mode  : ppp-kinematic
% solution  : forward
% elev mask : 15.0 deg
% dynamics  : off
% tidecorr  : on
% tropo opt : est ztd+grad
% ephemeris : precise
% navi sys  : gps glonass galileo
% antenna1  :                       ( 0.0000  0.0000  0.0000)
%
% (x/y/z-ecef=WGS84,Q=1:fix,2:float,3:sbas,4:dgps,5:single,6:ppp,ns=# of satellites)
%  GPST              x-ecef(m)      y-ecef(m)      z-ecef(m)   Q  ns   sdx(m)   sdy(m)   sdz(m)  sdxy(m)  sdyz(m)  sdzx(m) age(s)  ratio
2158  95599.000  -2418171.3521   5385943.0306   2405298.6811   5   5   2.9847   6.4917   3.3211  -2.2284   4.1939  -1.1854   0.00    0.0
2158  95609.000  -2418177.7899   5385983.5709   2405296.1428   5   7   2.8343   4.2327   2.2804  -2.6660   2.5096  -1.7418   0.00    0.0
2158  95611.000  -2418187.6947   5385999.6894   2405284.2605   5   6   2.9206   5.3577   2.3186  -3.0688   2.7691  -1.8239   0.00    0.0
2158  95612.000  -2418189.2246   5385979.0342   2405279.4506   5   6   2.8472   5.4851   2.5312  -2.8351   3.1821  -1.8237   0.00    0.0
2158  95613.000  -2418210.2749   5386014.4567   2405289.6664   5   6   2.9208   5.3569   2.3188  -3.0683   2.7687  -1.8236   0.00    0.0
2158  95617.000  -2418226.8020   5385991.8532   2405271.1343   5   6   2.8476   5.4817   2.5317  -2.8327   3.1808  -1.8224   0.00    0.0
2158  95618.000  -2418213.5690   5385975.9078   2405254.9899   5   5   4.2846   6.3639   2.5868  -4.2864   3.4395  -2.2401   0.00    0.0
2158  95619.000  -2418231.3058   5385977.3520   2405243.2517   5   5   2.8605   5.5418   2.9855  -2.7923   3.3786  -1.7009   0.00    0.0
2158  95620.000  -2418282.9731   5386064.5333   2405287.6809   5   4   3.4691  15.1098   4.5709  -5.9481   7.7502  -3.1118   0.00    0.0
2158  95623.000  -2418281.1560   5386040.1703   2405298.3091   5   5   4.2837   6.3577   2.5872  -4.2819   3.4375  -2.2384   0.00    0.0
2158  95624.000  -2418279.1019   5386032.9544   2405287.7747   5   4   5.9975  18.5070   4.4986  -9.5545   8.7051  -4.5230   0.00    0.0
2158  95633.000  -2418292.4323   5386063.4003   2405217.1151   5   6   3.1932   4.4604   2.8873  -2.2191   2.6002  -2.5137   0.00    0.0
2158  95636.000  -2418299.5171   5386069.1709   2405282.6370   5   5   3.6640   5.1078   2.8367  -3.3352   1.8138   1.0655   0.00    0.0
2158  95637.000  -2418303.8282   5386070.8772   2405280.4000   5   5   3.6645   5.1081   2.8367  -3.3357   1.8137   1.0654   0.00    0.0
2158  95642.000  -2418309.2894   5386085.8930   2405231.5372   5   6   3.1962   4.4615   2.8931  -2.2235   2.6047  -2.5178   0.00    0.0
2158  95655.000  -2418352.8954   5386112.3639   2405244.6470   5   5   4.5576   6.8240   2.4214  -4.9192   3.2407  -2.3815   0.00    0.0
2158  95656.000  -2418358.4985   5386117.9264   2405244.6655   5   5   4.5573   6.8227   2.4215  -4.9183   3.2403  -2.3812   0.00    0.0
2158  95657.000  -2418364.5798   5386124.5572   2405245.8034   5   5   4.5570   6.8215   2.4217  -4.9174   3.2399  -2.3810   0.00    0.0
2158  95659.000  -2418363.8223   5386126.6763   2405244.0721   5   5   4.5564   6.8190   2.4219  -4.9156   3.2391  -2.3804   0.00    0.0
2158  95660.000  -2418365.7034   5386125.5527   2405246.8989   5   5   4.5561   6.8178   2.4220  -4.9147   3.2388  -2.3802   0.00    0.0
2158  95662.000  -2418275.5872   5385956.8702   2405192.7301   5   4   6.1478  15.4956   5.3426  -8.1663   8.4573  -5.2782   0.00    0.0
2158  95663.000  -2418364.5575   5386126.1360   2405246.7506   5   5   4.5553   6.8140   2.4223  -4.9121   3.2376  -2.3793   0.00    0.0
2158  95665.000  -2418330.9491   5386089.6923   2405259.6075   5   6   2.8026   5.0845   2.0105  -2.8125   2.1062  -1.0823   0.00    0.0
2158  95666.000  -2418332.2228   5386093.4355   2405257.2626   5   6   2.8030   5.0842   2.0105  -2.8124   2.1056  -1.0817   0.00    0.0
2158  95681.000  -2418372.5302   5387074.8439   2405293.9030   5   5   3.2433  24.6497   2.6996  -7.1417   6.5743  -2.1493   0.00    0.0
2158  95682.000  -2418380.2455   5387137.3079   2405298.0507   5   5   3.2430  24.6477   2.6982  -7.1401   6.5698  -2.1477   0.00    0.0
2158  95683.000  -2418385.0807   5387223.4819   2405304.5250   5   5   3.2428  24.6456   2.6969  -7.1386   6.5653  -2.1462   0.00    0.0
2158  95684.000  -2418381.9545   5387294.9796   2405309.3676   5   5   3.2425  24.6435   2.6956  -7.1370   6.5607  -2.1446   0.00    0.0
2158  95685.000  -2418386.2683   5387381.8086   2405311.2158   5   5   3.2422  24.6413   2.6943  -7.1354   6.5562  -2.1430   0.00    0.0
2158  95686.000  -2418391.1289   5387446.1813   2405310.4984   5   5   3.2419  24.6392   2.6929  -7.1339   6.5516  -2.1414   0.00    0.0
2158  95693.000  -2418219.0221   5386082.1509   2405117.7816   5   6   3.7241   4.0321   4.6797  -2.8360   3.3611  -3.6639   0.00    0.0
2158  95695.000  -2418189.8249   5386089.6743   2405082.4705   5   7   2.2839   4.7682   2.4539  -1.8347   2.8760  -1.4540   0.00    0.0
2158  95696.000  -2418180.3146   5386092.7199   2405078.9100   5   5   2.3513   6.7712   4.1848  -0.8613   4.8784  -0.4801   0.00    0.0
2158  95697.000  -2418173.4871   5386102.1865   2405077.6060   5   6   2.2945   4.8504   2.9352  -1.7810   3.1153  -1.3284   0.00    0.0
2158  95698.000  -2418168.2983   5386097.9890   2405063.3895   5   6   2.2947   4.8502   2.9354  -1.7808   3.1152  -1.3281   0.00    0.0
2158  95700.000  -2418145.3595   5386134.2251   2405066.5828   5   5   3.0840   5.5803   2.7925  -2.7700   3.1861  -1.3414   0.00    0.0
2158  95701.000  -2418144.0609   5386170.3889   2405071.3968   5   4   3.5521  29.8964   9.3724  -7.7090  16.5204  -4.1909   0.00    0.0
2158  95702.000  -2418131.4075   5386128.4891   2405050.9753   5   5   3.0085   6.5623   3.4235  -2.0794   4.2942  -1.0384   0.00    0.0
2158  95703.000  -2418129.2661   5386133.8914   2405043.9601   5   5   3.0088   6.5631   3.4246  -2.0778   4.2952  -1.0368   0.00    0.0
2158  95704.000  -2418133.4556   5386138.8023   2405033.1078   5   5   3.0091   6.5638   3.4256  -2.0763   4.2963  -1.0352   0.00    0.0
2158  95705.000  -2418129.9990   5386140.0797   2405026.8740   5   5   3.0093   6.5645   3.4266  -2.0747   4.2973  -1.0335   0.00    0.0
2158  95706.000  -2418123.6997   5386145.3197   2405021.8575   5   4   3.0851   6.8714   4.2131  -1.7096   4.8418   0.7723   0.00    0.0
2158  95707.000  -2418120.9076   5386150.6192   2405016.8039   5   4   3.0856   6.8719   4.2142  -1.7073   4.8427   0.7762   0.00    0.0
2158  95708.000  -2418116.8548   5386155.3969   2405013.6200   5   4   3.0861   6.8725   4.2153  -1.7049   4.8435   0.7801   0.00    0.0
2158  95711.000  -2418138.7207   5386186.5366   2405035.8736   5   5   3.4727   4.9599   2.4426  -2.5478   2.6046  -1.8142   0.00    0.0
2158  95712.000  -2418090.4344   5386134.0832   2404977.6324   5   5   2.3008   8.2100   3.3770  -1.5277   4.5522  -1.2436   0.00    0.0
2158  95713.000  -2418080.0822   5386124.8082   2404970.8969   5   5   2.9666   5.3267   2.6509  -3.0676   2.6706  -1.6458   0.00    0.0
2158  95715.000  -2418133.4578   5386660.3644   2405022.1685   5   5   3.2348  24.5791   2.6559  -7.0897   6.4193  -2.0964   0.00    0.0
2158  95716.000  -2418069.5738   5386156.6067   2404949.7012   5   5   3.3658  13.3970   3.6902  -5.4350   6.5349  -2.8242   0.00    0.0
2158  95717.000  -2418062.1653   5386160.9281   2404946.4666   5   4   3.3653  13.8315   4.2995  -5.4467   7.0942  -2.8415   0.00    0.0
2158  95720.000  -2418035.8109   5386151.6501   2404917.6514   5   4   3.3628  13.7965   4.2923  -5.4329   7.0762  -2.8340   0.00    0.0
2158  95721.000  -2418022.7909   5386145.5538   2404912.9971   5   4   3.3620  13.7848   4.2899  -5.4284   7.0702  -2.8314   0.00    0.0
2158  95726.000  -2417993.9503   5386164.7135   2404883.7784   5   4   3.3579  13.7272   4.2780  -5.4058   7.0405  -2.8190   0.00    0.0
2158  95727.000  -2417985.7329   5386205.8662   2404891.5257   5   4   3.3571  13.7156   4.2756  -5.4013   7.0346  -2.8165   0.00    0.0
2158  95728.000  -2418003.7496   5386249.7173   2404892.2223   5   5   2.8819   5.4536   2.9899  -2.7386   3.3194  -1.6330   0.00    0.0
2158  95729.000  -2417994.8208   5386248.5087   2404888.8509   5   5   2.8822   5.4529   2.9900  -2.7381   3.3189  -1.6324   0.00    0.0
2158  95730.000  -2417992.7638   5386260.5826   2404891.3575   5   5   2.8824   5.4521   2.9901  -2.7377   3.3183  -1.6318   0.00    0.0
2158  95731.000  -2417984.2837   5386263.7203   2404898.6075   5   5   2.8827   5.4513   2.9901  -2.7372   3.3178  -1.6311   0.00    0.0
2158  95732.000  -2417985.6078   5386277.9474   2404901.1486   5   5   2.8829   5.4506   2.9902  -2.7367   3.3173  -1.6305   0.00    0.0
2158  95733.000  -2417998.2808   5386283.0667   2404918.8886   5   4   3.3523  13.6474   4.2616  -5.3746   6.9995  -2.8017   0.00    0.0
2158  95734.000  -2418009.6611   5386313.2270   2404931.3359   5   5   2.8834   5.4490   2.9904  -2.7358   3.3163  -1.6292   0.00    0.0
2158  95739.000  -2418005.3948   5386284.4809   2404917.8237   5   5   3.3477  13.1853   3.6579  -5.3476   6.4411  -2.7862   0.00    0.0
2158  95740.000  -2418004.4053   5386270.5375   2404913.7080   5   5   3.3469  13.1763   3.6566  -5.3439   6.4371  -2.7845   0.00    0.0
2158  95741.000  -2418015.8478   5386339.0803   2404921.5877   5   5   2.8854   5.4021   2.8167  -2.7785   3.1549  -1.9075   0.00    0.0
2158  95742.000  -2418016.4563   5386347.5920   2404930.9184   5   5   2.8855   5.4015   2.8167  -2.7779   3.1543  -1.9070   0.00    0.0
2158  95743.000  -2418016.4520   5386345.7454   2404927.8984   5   6   2.8629   5.4008   2.5489  -2.7758   3.1493  -1.7896   0.00    0.0
2158  95744.000  -2418017.2338   5386349.7504   2404934.5363   5   6   2.8631   5.4002   2.5490  -2.7754   3.1490  -1.7893   0.00    0.0
2158  95745.000  -2418013.8668   5386294.2880   2404925.5897   5   5   3.3432  13.1315   3.6498  -5.3253   6.4172  -2.7765   0.00    0.0
2158  95746.000  -2418022.8862   5386346.0363   2404939.6323   5   6   2.8634   5.3990   2.5494  -2.7745   3.1486  -1.7888   0.00    0.0
2158  95747.000  -2418021.6652   5386341.0146   2404937.5001   5   6   2.8636   5.3984   2.5495  -2.7741   3.1483  -1.7885   0.00    0.0
2158  95748.000  -2418018.9609   5386343.7341   2404941.3262   5   6   2.8638   5.3978   2.5497  -2.7737   3.1481  -1.7883   0.00    0.0
2158  95749.000  -2418021.3233   5386343.0084   2404940.9600   5   5   3.3402  13.0959   3.6444  -5.3106   6.4014  -2.7700   0.00    0.0
2158  95752.000  -2417981.0008   5386281.7341   2404909.9319   5   4   6.2711  14.9437   5.4052  -8.1580   8.3534  -5.3719   0.00    0.0
2158  95753.000  -2417982.7232   5386283.9117   2404911.3550   5   4   6.2725  14.9381   5.4060  -8.1581   8.3524  -5.3730   0.00    0.0
2158  95768.000  -2418005.0647   5386330.5296   2404918.6755   5   5   3.5053  10.0945   2.5165  -3.0958   4.1516  -1.9913   0.00    0.0
2158  95769.000  -2418009.2748   5386339.6427   2404920.2978   5   5   3.5056  10.0884   2.5161  -3.0948   4.1494  -1.9911   0.00    0.0
2158  95771.000  -2418062.5041   5386458.7342   2404955.4546   5   5   4.5250   6.6787   2.4357  -4.8144   3.1933  -2.3481   0.00    0.0
2158  95772.000  -2418057.9616   5386453.9464   2404953.9537   5   5   4.5247   6.6774   2.4358  -4.8135   3.1928  -2.3478   0.00    0.0
2158  95773.000  -2418025.6320   5386390.9867   2404948.1127   5   4   3.3241  13.2164   4.1745  -5.2058   6.7772  -2.7070   0.00    0.0
2158  95780.000  -2418017.4083   5386388.4931   2404950.9511   5   5   2.3155   8.1429   3.3861  -1.5039   4.5264  -1.2215   0.00    0.0
2158  95781.000  -2418019.4658   5386374.4610   2404941.6794   5   6   2.2999   7.8802   2.8098  -1.6778   4.0761  -1.4152   0.00    0.0
2158  95782.000  -2418022.3421   5386370.9433   2404942.8998   5   6   2.3001   7.8797   2.8101  -1.6776   4.0762  -1.4152   0.00    0.0
2158  95783.000  -2418025.6960   5386381.8130   2404945.3071   5   6   2.3003   7.8791   2.8105  -1.6774   4.0763  -1.4152   0.00    0.0
2158  95784.000  -2418028.7846   5386390.6294   2404947.2944   5   6   2.3005   7.8786   2.8108  -1.6772   4.0763  -1.4151   0.00    0.0
2158  95785.000  -2418027.4036   5386392.9452   2404954.9762   5   5   2.3167   8.1380   3.3869  -1.5021   4.5245  -1.2198   0.00    0.0
2158  95786.000  -2418029.8412   5386385.8845   2404955.1000   5   5   2.3169   8.1371   3.3870  -1.5018   4.5242  -1.2195   0.00    0.0
2158  95792.000  -2417973.1726   5386290.2792   2404908.2244   5   5   3.5147   9.9510   2.5087  -3.0713   4.0989  -1.9863   0.00    0.0
2158  95800.000  -2417921.9442   5386267.6392   2404909.0747   5   6   3.5005   4.9021   2.2318  -2.5229   2.6169  -1.8812   0.00    0.0
2158  95801.000  -2417917.7825   5386268.6438   2404916.4664   5   6   3.5009   4.9015   2.2320  -2.5227   2.6166  -1.8812   0.00    0.0
2158  95802.000  -2417910.0472   5386261.1046   2404921.6649   5   6   3.5014   4.9009   2.2322  -2.5225   2.6164  -1.8812   0.00    0.0
2158  95803.000  -2417908.1937   5386261.1055   2404929.7569   5   6   3.5018   4.9003   2.2324  -2.5224   2.6162  -1.8812   0.00    0.0
2158  95804.000  -2417904.9182   5386260.2380   2404939.9995   5   6   3.5023   4.8997   2.2326  -2.5222   2.6159  -1.8812   0.00    0.0
2158  95805.000  -2417935.7590   5386282.6233   2404974.3769   5   4   9.0986   9.4714   9.5121  -8.6272   9.0013  -8.9633   0.00    0.0
2158  95809.000  -2417910.5656   5386261.1782   2404996.8866   5   4   8.5837   6.6681   4.0050  -2.8461   4.5242  -3.9637   0.00    0.0
2158  95815.000  -2417924.0422   5386211.5538   2405046.7838   5   4   9.1211   9.4831   9.5489  -8.6456   9.0257  -8.9920   0.00    0.0
2158  95816.000  -2417921.4823   5386203.3574   2405050.7812   5   4  11.2229  10.2926   5.7864 -10.1362   7.3488  -7.6367   0.00    0.0
2158  95818.000  -2417913.6137   5386194.2948   2405059.5485   5   4   9.1279   9.4865   9.5600  -8.6511   9.0330  -9.0006   0.00    0.0
2158  95819.000  -2417897.9053   5386172.7810   2405046.0170   5   5   5.4289   6.2994   4.0095  -4.7743   4.4764  -4.1624   0.00    0.0
2158  95820.000  -2417933.9298   5386195.2742   2405083.9295   5   4   9.1324   9.4888   9.5674  -8.6548   9.0378  -9.0063   0.00    0.0
2158  95821.000  -2417958.2447   5386209.1776   2405107.8694   5   4   9.1346   9.4900   9.5711  -8.6566   9.0403  -9.0092   0.00    0.0
2158  95822.000  -2417959.0130   5386201.7967   2405104.7527   5   4   9.1369   9.4912   9.5748  -8.6585   9.0427  -9.0121   0.00    0.0
2158  95823.000  -2417981.9448   5386215.4047   2405140.3824   5   4   9.1391   9.4923   9.5785  -8.6603   9.0451  -9.0149   0.00    0.0
2158  95824.000  -2418002.4030   5386224.0926   2405166.3622   5   4   9.1413   9.4934   9.5821  -8.6621   9.0475  -9.0178   0.00    0.0
2158  95827.000  -2418019.1573   5386200.8381   2405185.1973   5   4   9.1481   9.4969   9.5933  -8.6676   9.0548  -9.0264   0.00    0.0
2158  95840.000  -2418015.3372   5386162.8302   2405266.9237   5   4   9.1774   9.5119   9.6416  -8.6914   9.0865  -9.0637   0.00    0.0
2158  95842.000  -2417907.0586   5386114.3667   2405225.5465   5   4   9.1819   9.5143   9.6490  -8.6951   9.0914  -9.0695   0.00    0.0
2158  95844.000  -2417926.7768   5386125.9812   2405221.4253   5   4   9.1864   9.5166   9.6565  -8.6988   9.0963  -9.0753   0.00    0.0
2158  95846.000  -2417950.8092   5386150.0427   2405249.6916   5   4   9.1909   9.5189   9.6640  -8.7024   9.1012  -9.0810   0.00    0.0
2158  95848.000  -2417930.1900   5386135.3991   2405254.4700   5   4   9.1954   9.5212   9.6714  -8.7060   9.1061  -9.0868   0.00    0.0
2158  95850.000  -2417937.3602   5386139.1536   2405249.0513   5   4   9.1999   9.5235   9.6789  -8.7097   9.1110  -9.0925   0.00    0.0
2158  95851.000  -2417933.0598   5386138.9798   2405248.9171   5   4   9.2005   9.5235   9.6810  -8.7102   9.1121  -9.0938   0.00    0.0
2158  95852.000  -2417933.6846   5386142.4309   2405251.4345   5   4   9.2008   9.5234   9.6828  -8.7105   9.1130  -9.0949   0.00    0.0
2158  95853.000  -2417934.5915   5386143.9091   2405252.6232   5   4   9.2012   9.5233   9.6847  -8.7109   9.1140  -9.0960   0.00    0.0
2158  95854.000  -2417923.5068   5386134.3994   2405242.3575   5   4   9.2016   9.5232   9.6866  -8.7112   9.1150  -9.0971   0.00    0.0
2158  95855.000  -2417916.0463   5386124.9552   2405235.4348   5   4   9.2020   9.5231   9.6885  -8.7116   9.1159  -9.0983   0.00    0.0
2158  95856.000  -2417923.8029   5386133.7106   2405244.3184   5   4   9.2023   9.5230   9.6904  -8.7120   9.1169  -9.0994   0.00    0.0
2158  95858.000  -2417917.6986   5386124.0966   2405239.4009   5   4   9.2031   9.5227   9.6941  -8.7127   9.1188  -9.1016   0.00    0.0
2158  95859.000  -2417919.4581   5386120.7826   2405212.7270   5   4   9.2035   9.5227   9.6961  -8.7131   9.1198  -9.1028   0.00    0.0
2158  95863.999  -2417953.8559   5386133.4878   2405253.2742   5   4   9.2053   9.5221   9.7055  -8.7148   9.1247  -9.1083   0.00    0.0
2158  95864.999  -2417949.1241   5386120.5937   2405248.7431   5   4   9.2057   9.5220   9.7074  -8.7152   9.1256  -9.1095   0.00    0.0
2158  95868.000  -2417962.2847   5386122.3132   2405274.0461   5   4   9.2068   9.5216   9.7130  -8.7162   9.1285  -9.1128   0.00    0.0
2158  95869.000  -2417965.2574   5386125.4589   2405286.2625   5   4   9.2072   9.5215   9.7149  -8.7166   9.1295  -9.1139   0.00    0.0
2158  95873.000  -2418017.7106   5386118.6853   2405342.5843   5   4   9.2087   9.5210   9.7225  -8.7180   9.1333  -9.1184   0.00    0.0
2158  95875.000  -2418019.6282   5386102.5501   2405386.9069   5   4   9.2094   9.5208   9.7262  -8.7187   9.1352  -9.1206   0.00    0.0
2158  95876.000  -2418016.5998   5386101.7253   2405397.8021   5   4   9.2098   9.5206   9.7281  -8.7190   9.1362  -9.1217   0.00    0.0
2158  95878.000  -2418028.3569   5386093.1847   2405374.2721   5   4   9.2105   9.5205   9.7320  -8.7198   9.1382  -9.1240   0.00    0.0
2158  95880.000  -2417963.9993   5386040.1432   2405372.6692   5   5   5.4653   6.2898   4.0559  -4.8018   4.5044  -4.2027   0.00    0.0
2158  95881.000  -2417986.8011   5386064.1854   2405421.5965   5   4   9.2116   9.5201   9.7376  -8.7208   9.1410  -9.1273   0.00    0.0
2158  95886.000  -2418158.1886   5386120.6420   2405037.1189   5   4   4.4481   6.2180  26.1699  -1.3374  10.2338   6.5815   0.00    0.0
2158  95887.000  -2418153.4210   5386114.7622   2405090.0043   5   4   4.4475   6.2174  26.1462  -1.3413  10.2291   6.5741   0.00    0.0
2158  95888.000  -2417965.1188   5386040.2294   2405420.3067   5   5   5.4652   6.2851   4.0591  -4.8018   4.5051  -4.2046   0.00    0.0
2158  95891.000  -2417952.6203   5386031.5271   2405417.0189   5   5   5.4652   6.2834   4.0603  -4.8018   4.5054  -4.2054   0.00    0.0
2158  95892.000  -2417947.0913   5386020.4780   2405406.5828   5   5   5.4652   6.2828   4.0606  -4.8018   4.5055  -4.2056   0.00    0.0
2158  95893.000  -2417957.4174   5386031.2852   2405418.0397   5   6   3.5162   4.8258   2.2386  -2.4958   2.5829  -1.8744   0.00    0.0
2158  95894.000  -2417958.5716   5386033.5393   2405416.7872   5   6   3.5160   4.8247   2.2385  -2.4954   2.5824  -1.8742   0.00    0.0
2158  95895.000  -2417957.0835   5386033.8339   2405412.1551   5   6   3.5159   4.8236   2.2385  -2.4949   2.5819  -1.8741   0.00    0.0
2158  95896.000  -2417978.6455   5386049.9287   2405417.8638   5   6   3.4385   4.6202   2.1967  -2.1804   2.4624  -1.7328   0.00    0.0
2158  95897.000  -2417976.5840   5386048.0975   2405419.3115   5   6   3.4384   4.6193   2.1968  -2.1803   2.4621  -1.7330   0.00    0.0
2158  95898.000  -2417959.0532   5386037.7410   2405421.5992   5   6   2.6666   4.4027   2.4180  -1.3121   2.3243  -1.4433   0.00    0.0
2158  95899.000  -2417958.8468   5386037.4016   2405425.1871   5   6   2.6665   4.4019   2.4180  -1.3122   2.3239  -1.4433   0.00    0.0
2158  95900.000  -2417957.3507   5386036.5544   2405424.1720   5   6   2.6664   4.4011   2.4180  -1.3123   2.3234  -1.4433   0.00    0.0
2158  95901.000  -2417958.6687   5386039.9546   2405424.4069   5   6   2.6662   4.4003   2.4180  -1.3123   2.3229  -1.4433   0.00    0.0
2158  95902.000  -2417953.9651   5386036.3325   2405426.4624   5   6   2.6661   4.3996   2.4180  -1.3124   2.3225  -1.4433   0.00    0.0
2158  95903.000  -2417954.5052   5386037.1528   2405425.0882   5   6   2.6660   4.3988   2.4180  -1.3124   2.3220  -1.4433   0.00    0.0
2158  95904.000  -2417944.2428   5386026.4425   2405405.3493   5   6   3.2712   4.8201   3.1920  -2.3371   3.1922  -2.5864   0.00    0.0
2158  95905.000  -2417947.1806   5386029.9116   2405410.0650   5   6   3.2712   4.8198   3.1924  -2.3375   3.1924  -2.5867   0.00    0.0
2158  95906.000  -2417953.4284   5386036.9535   2405428.7399   5   5   3.8206   5.2359   5.3852  -3.0831   4.3667  -3.9055   0.00    0.0
2158  95907.000  -2417951.3340   5386033.7171   2405418.9271   5   6   3.2711   4.8190   3.1932  -2.3383   3.1929  -2.5873   0.00    0.0
2158  95908.000  -2417947.0500   5386029.9850   2405412.4944   5   6   3.2711   4.8186   3.1936  -2.3387   3.1931  -2.5876   0.00    0.0
2158  95909.000  -2417949.9181   5386033.5274   2405419.4148   5   6   3.2711   4.8182   3.1940  -2.3391   3.1933  -2.5878   0.00    0.0
2158  95910.000  -2417944.7676   5386031.4185   2405416.7314   5   6   3.2711   4.8178   3.1944  -2.3395   3.1935  -2.5881   0.00    0.0
2158  95911.000  -2417946.1356   5386034.6071   2405421.7545   5   6   3.2710   4.8175   3.1948  -2.3400   3.1937  -2.5884   0.00    0.0
2158  95912.000  -2417951.8334   5386030.1133   2405422.3056   5   6   3.2710   4.8171   3.1952  -2.3404   3.1939  -2.5887   0.00    0.0
2158  95913.000  -2417945.9943   5386025.9581   2405426.6199   5   6   3.2710   4.8167   3.1956  -2.3408   3.1942  -2.5890   0.00    0.0
2158  95914.000  -2417948.5575   5386019.8770   2405431.6509   5   6   3.2710   4.8163   3.1960  -2.3412   3.1944  -2.5893   0.00    0.0
2158  95915.000  -2417953.8880   5386014.6914   2405438.2791   5   6   3.2710   4.8159   3.1964  -2.3416   3.1946  -2.5895   0.00    0.0
2158  95916.000  -2417964.4804   5386020.5301   2405452.8497   5   6   3.2710   4.8156   3.1968  -2.3420   3.1948  -2.5898   0.00    0.0
2158  95917.000  -2417961.7144   5386011.6950   2405456.6633   5   4   9.2256   9.5169   9.8074  -8.7340   9.1768  -9.1684   0.00    0.0
2158  95918.000  -2417967.8675   5386009.8408   2405463.6308   5   5   5.4653   6.2681   4.0712  -4.8021   4.5081  -4.2123   0.00    0.0
2158  95919.000  -2417966.4523   5385995.5905   2405464.4656   5   6   5.4215   5.1033   3.8109  -4.5330   3.8869  -4.0933   0.00    0.0
2158  95920.000  -2417941.2105   5385974.4438   2405448.0066   5   7   3.4942   3.9457   2.1510  -2.6708   2.2197  -1.9274   0.00    0.0
2158  95921.000  -2417963.3669   5385980.6539   2405470.4038   5   7   3.2617   3.8791   3.0638  -2.4881   2.7554  -2.6343   0.00    0.0
2158  95922.000  -2417973.4587   5385983.9575   2405486.0240   5   6   3.2709   4.8133   3.1993  -2.3444   3.1962  -2.5916   0.00    0.0
2158  95923.000  -2417969.6649   5385974.9476   2405485.3824   5   7   3.2618   3.8786   3.0644  -2.4882   2.7556  -2.6347   0.00    0.0
2158  95924.000  -2417973.7931   5385969.7098   2405488.2023   5   6   3.2708   4.8126   3.2002  -2.3452   3.1966  -2.5921   0.00    0.0
2158  95925.000  -2417978.2334   5385969.3014   2405490.2439   5   6   3.2708   4.8122   3.2006  -2.3456   3.1969  -2.5924   0.00    0.0
2158  95926.000  -2417979.3177   5385957.4188   2405482.8460   5   6   3.2708   4.8118   3.2010  -2.3461   3.1971  -2.5927   0.00    0.0
2158  95927.000  -2417985.3396   5385956.0787   2405481.8925   5   6   3.2708   4.8115   3.2014  -2.3465   3.1973  -2.5930   0.00    0.0
2158  95928.000  -2417987.7338   5385954.7042   2405476.1591   5   6   3.2708   4.8111   3.2018  -2.3469   3.1976  -2.5933   0.00    0.0
2158  95929.000  -2417995.5238   5385953.1848   2405471.0671   5   6   3.2708   4.8107   3.2023  -2.3473   3.1978  -2.5936   0.00    0.0
2158  95930.000  -2418009.3833   5385953.2996   2405471.3523   5   6   3.2708   4.8104   3.2027  -2.3477   3.1980  -2.5939   0.00    0.0
2158  95931.000  -2418019.2156   5385943.3144   2405426.9748   5   4   4.4226   6.1953  25.1661  -1.4959  10.0364   6.2594   0.00    0.0
2158  95933.000  -2418037.8750   5385953.2102   2405458.4992   5   5   3.3354   7.7002   3.3151  -1.2604   3.9180  -2.4853   0.00    0.0
2158  95934.000  -2418056.2503   5385946.7709   2405458.6749   5   4   3.8845   7.9514   5.4799  -2.3592   4.9032  -3.8559   0.00    0.0
2158  95935.000  -2418066.3831   5385954.6815   2405451.8289   5   4   3.8844   7.9498   5.4814  -2.3625   4.9046  -3.8567   0.00    0.0
2158  95936.000  -2418077.1881   5385947.7278   2405443.9768   5   4   3.8843   7.9482   5.4829  -2.3657   4.9059  -3.8575   0.00    0.0
2158  95937.000  -2418091.2222   5385942.2323   2405454.2951   5   4   3.8842   7.9466   5.4844  -2.3689   4.9073  -3.8583   0.00    0.0
2158  95942.000  -2418128.3840   5385891.0966   2405422.4596   5   4   6.4286  13.7922   5.4840  -8.0411   8.0853  -5.4947   0.00    0.0
2158  95943.000  -2418149.0920   5385915.0276   2405435.3691   5   4   6.4287  13.7855   5.4839  -8.0398   8.0833  -5.4948   0.00    0.0
2158  95944.000  -2418164.0989   5385925.4640   2405435.2843   5   4   6.4289  13.7789   5.4839  -8.0384   8.0813  -5.4949   0.00    0.0
2158  95947.000  -2418181.1214   5385922.2470   2405431.1184   5   4   5.8068   6.2044   4.5915  -4.9531   4.1609  -4.6701   0.00    0.0
2158  95950.000  -2418204.2611   5385887.7505   2405422.6299   5   4   6.4298  13.7394   5.4838  -8.0305   8.0698  -5.4957   0.00    0.0
2158  95952.000  -2418203.1756   5385892.6817   2405421.4553   5   4   8.0399   7.3462   7.7467  -6.9097   6.6458  -7.5250   0.00    0.0
2158  95955.000  -2418216.8283   5385902.9482   2405387.1733   5   4   5.8078   6.3060   4.7151  -4.9742   4.7292  -4.7371   0.00    0.0
2158  95956.000  -2418210.2917   5385897.3776   2405372.0928   5   4   5.8075   6.3052   4.7152  -4.9737   4.7287  -4.7369   0.00    0.0
2158  95957.000  -2418211.4078   5385893.6846   2405367.0270   5   4   5.8072   6.3043   4.7152  -4.9732   4.7282  -4.7368   0.00    0.0
2158  95960.000  -2418231.9163   5385903.5712   2405367.5396   5   6   3.2709   4.7999   3.2157  -2.3600   3.2053  -2.6029   0.00    0.0
2158  95961.000  -2418226.3175   5385901.6979   2405370.2007   5   4   3.8819   7.9086   5.5212  -2.4442   4.9401  -3.8777   0.00    0.0
2158  95964.000  -2418232.9775   5385928.2960   2405378.0785   5   4   3.8816   7.9040   5.5259  -2.4533   4.9442  -3.8802   0.00    0.0
2158  95965.000  -2418209.0408   5385895.2504   2405350.0803   5   4   9.2450   9.5138   9.9033  -8.7519   9.2260  -9.2243   0.00    0.0
2158  95966.000  -2418217.5193   5385903.0959   2405357.8697   5   4   9.2454   9.5137   9.9053  -8.7523   9.2270  -9.2255   0.00    0.0
2158  95967.000  -2418229.7520   5385907.6249   2405366.9738   5   4   9.2458   9.5136   9.9074  -8.7527   9.2280  -9.2266   0.00    0.0
2158  95968.000  -2418234.5710   5385912.1523   2405372.3373   5   4   9.2462   9.5136   9.9094  -8.7530   9.2291  -9.2278   0.00    0.0
2158  95973.000  -2418232.4748   5385934.2123   2405368.4929   5   5   3.8787   4.5184   5.0819  -2.6477   3.2092  -3.9251   0.00    0.0
2158  95974.000  -2418227.2944   5385932.2023   2405366.0687   5   5   3.8787   4.5182   5.0826  -2.6480   3.2096  -3.9254   0.00    0.0
2158  95975.000  -2418214.7204   5385917.2214   2405348.5575   5   5   2.9919   5.1845   2.6491  -2.9970   2.5182  -1.5097   0.00    0.0
2158  95976.000  -2418206.6824   5385927.9157   2405346.1117   5   6   2.9001   4.0844   2.6366  -2.5754   2.3500  -1.4456   0.00    0.0
2158  95977.000  -2418205.5592   5385940.6622   2405342.2274   5   6   2.9000   4.0837   2.6365  -2.5750   2.3494  -1.4450   0.00    0.0
2158  95983.000  -2418162.1738   5385861.0002   2405278.7536   5   4   4.7798  12.4729   3.5053  -6.3886   6.0486  -3.1327   0.00    0.0
2158  95984.000  -2418156.2673   5385851.4051   2405274.9514   5   4   4.7775  12.4609   3.5034  -6.3823   6.0433  -3.1299   0.00    0.0
2158  95986.000  -2418168.1444   5385874.4828   2405270.0432   5   4   3.1745  11.1221   3.7535  -4.4079   5.7006  -2.2566   0.00    0.0
2158  95988.000  -2418171.2576   5385924.6958   2405280.5572   5   4   3.1922   5.5510   3.2838  -2.5887   3.1943  -0.2958   0.00    0.0
2158  95991.000  -2418156.0817   5385967.2997   2405332.3211   5   4   3.6697   5.9773   7.8276   1.7938   6.0913   3.7358   0.00    0.0
2158  95995.000  -2418167.7504   5385934.1493   2405288.2407   5   4   3.2036   6.9508   4.4510  -0.6128   5.0201   1.5584   0.00    0.0
2158  95996.000  -2418171.9505   5385916.2649   2405270.4836   5   4   3.1922   5.5486   3.2846  -2.5818   3.1939  -0.2589   0.00    0.0
2158  95997.000  -2418170.6624   5385944.3897   2405283.8946   5   4   3.1922   5.5483   3.2847  -2.5809   3.1938  -0.2539   0.00    0.0
2158  95999.000  -2418167.3472   5385953.4094   2405295.7130   5   4   3.2048   6.9509   4.4534  -0.5814   5.0217   1.5667   0.00    0.0
2158  96001.000  -2418170.7906   5385954.7481   2405291.8938   5   5   3.1129   4.5125   3.2718  -2.0886   3.0401   0.3943   0.00    0.0
2158  96002.000  -2418166.6541   5385983.3673   2405310.5402   5   4   3.2058   6.9511   4.4552  -0.5566   5.0230   1.5729   0.00    0.0
2158  96003.000  -2418177.0850   5385944.9318   2405270.6507   5   4   3.6843   5.9522   7.8203   1.8150   6.0676   3.7625   0.00    0.0
2158  96004.000  -2418182.2276   5385933.6532   2405254.4802   5   4   3.6855   5.9501   7.8196   1.8167   6.0656   3.7647   0.00    0.0
2158  96005.000  -2418165.3044   5385946.0797   2405301.1570   5   5   3.0952   5.5378   2.9129  -2.5279   3.2643  -1.1097   0.00    0.0
2158  96006.000  -2418165.6423   5385984.6668   2405316.1440   5   5   3.0681   6.6998   3.6863  -1.4152   4.5391   0.3984   0.00    0.0
2158  96007.000  -2418165.6685   5385948.2971   2405302.5052   5   5   3.0950   5.5371   2.9134  -2.5259   3.2645  -1.1078   0.00    0.0
2158  96008.000  -2418165.7608   5385976.8471   2405313.3435   5   5   3.0684   6.7002   3.6877  -1.4091   4.5403   0.4100   0.00    0.0
2158  96009.000  -2418166.1090   5385963.7605   2405307.9754   5   6   3.0307   4.5101   2.8777  -2.0873   3.0310  -0.9672   0.00    0.0
2158  96010.000  -2418165.3868   5385962.7974   2405309.2880   5   6   3.0307   4.5098   2.8779  -2.0864   3.0310  -0.9661   0.00    0.0
2158  96011.000  -2418163.8765   5385963.0747   2405313.3683   5   6   3.0307   4.5095   2.8781  -2.0855   3.0310  -0.9650   0.00    0.0
2158  96012.000  -2418161.6021   5385964.4355   2405317.4154   5   6   3.0307   4.5092   2.8783  -2.0845   3.0311  -0.9639   0.00    0.0
2158  96013.000  -2418160.1983   5385963.5687   2405320.7246   5   5   3.0945   5.5351   2.9149  -2.5198   3.2653  -1.1019   0.00    0.0
2158  96014.000  -2418160.0546   5385957.8613   2405318.5648   5   5   3.0944   5.5348   2.9152  -2.5187   3.2655  -1.1009   0.00    0.0
2158  96015.000  -2418161.1466   5385959.7296   2405316.0892   5   5   3.0944   5.5345   2.9155  -2.5177   3.2656  -1.0999   0.00    0.0
2158  96016.000  -2418164.4138   5385955.5909   2405310.6996   5   6   2.9231   5.1138   2.3392  -2.9122   2.6425  -1.7246   0.00    0.0
2158  96017.000  -2418161.0842   5385962.9528   2405317.1319   5   5   3.0942   5.5338   2.9160  -2.5157   3.2659  -1.0979   0.00    0.0
2158  96018.000  -2418161.4958   5385962.1899   2405315.8281   5   5   3.0941   5.5335   2.9162  -2.5146   3.2660  -1.0969   0.00    0.0
2158  96019.000  -2418163.3617   5385962.3629   2405312.2030   5   5   3.0941   5.5331   2.9165  -2.5136   3.2661  -1.0959   0.00    0.0
2158  96020.000  -2418164.7282   5385962.0930   2405309.0078   5   5   3.0940   5.5328   2.9167  -2.5126   3.2663  -1.0949   0.00    0.0
2158  96021.000  -2418168.7678   5385953.3744   2405300.0743   5   6   2.9222   5.1095   2.3388  -2.9094   2.6402  -1.7229   0.00    0.0
2158  96025.000  -2418174.8143   5385952.5856   2405285.7329   5   5   2.9875   5.1457   2.6429  -2.9749   2.4851  -1.4815   0.00    0.0
2158  96030.000  -2418175.1623   5385958.2381   2405281.9752   5   4   3.1929   5.5388   3.2887  -2.5527   3.1922   0.1446   0.00    0.0
2158  96031.000  -2418173.8758   5385952.8933   2405281.7962   5   5   3.1156   4.5040   3.2749  -2.0641   3.0357   0.4845   0.00    0.0
2158  96032.000  -2418174.1291   5385952.7298   2405280.6504   5   5   3.1157   4.5037   3.2750  -2.0633   3.0355   0.4872   0.00    0.0
2158  96033.000  -2418174.0881   5385954.3989   2405281.3750   5   5   3.1158   4.5034   3.2751  -2.0625   3.0354   0.4900   0.00    0.0
2158  96034.000  -2418173.6802   5385955.5063   2405283.2976   5   5   3.1159   4.5032   3.2753  -2.0617   3.0352   0.4927   0.00    0.0
2158  96035.000  -2418222.4813   5385970.0893   2405311.6937   5   6   3.5007   3.9212   2.3636  -2.6671   2.0409  -1.8180   0.00    0.0
2158  96036.000  -2418222.8507   5385971.1067   2405313.0319   5   6   3.5007   3.9207   2.3636  -2.6668   2.0404  -1.8178   0.00    0.0
2158  96037.000  -2418222.5542   5385971.3214   2405315.5397   5   6   3.5007   3.9202   2.3637  -2.6665   2.0400  -1.8176   0.00    0.0
2158  96038.000  -2418173.0395   5385951.7706   2405282.6548   5   5   3.1163   4.5021   3.2757  -2.0584   3.0347   0.5034   0.00    0.0
2158  96039.000  -2418174.0020   5385951.2286   2405279.8091   5   5   3.1165   4.5018   3.2758  -2.0576   3.0345   0.5060   0.00    0.0
2158  96044.000  -2418177.7594   5385961.8066   2405275.5036   5   5   2.9865   5.1314   2.6410  -2.9670   2.4726  -1.4706   0.00    0.0
2158  96045.000  -2418258.1952   5385982.4264   2405324.7587   5   5   4.5750   5.0833   2.4475  -1.8399   2.6721  -0.5964   0.00    0.0
2158  96046.000  -2418259.2329   5385985.0282   2405322.5498   5   5   4.5754   5.0828   2.4476  -1.8382   2.6721  -0.5948   0.00    0.0
2158  96047.000  -2418176.8127   5386239.4176   2405381.1488   5   5   3.0275  13.1207   4.1814   2.2400   6.9489   1.7285   0.00    0.0
2158  96048.000  -2418180.0792   5386235.8826   2405375.4496   5   5   3.0281  13.1169   4.1816   2.2459   6.9480   1.7311   0.00    0.0
2158  96049.000  -2418179.4661   5386236.3523   2405378.2478   5   5   3.0287  13.1130   4.1817   2.2519   6.9471   1.7337   0.00    0.0
2158  96050.000  -2418180.5023   5386232.7998   2405375.9096   5   5   3.0293  13.1092   4.1819   2.2578   6.9462   1.7363   0.00    0.0
2158  96057.000  -2418179.2897   5385986.7971   2405291.4321   5   6   2.9166   5.0787   2.3363  -2.8893   2.6241  -1.7110   0.00    0.0
2158  96058.000  -2418181.6792   5385993.4940   2405288.7035   5   6   2.9165   5.0779   2.3363  -2.8887   2.6237  -1.7106   0.00    0.0
2158  96059.000  -2418192.7618   5386000.9544   2405289.2080   5   6   2.9163   5.0771   2.3362  -2.8882   2.6232  -1.7103   0.00    0.0
2158  96060.000  -2418179.7348   5385977.0114   2405280.5675   5   6   5.4250   5.0481   3.8566  -4.5149   3.8893  -4.1187   0.00    0.0
2158  96061.000  -2418250.9545   5386424.7207   2405323.5782   5   4   3.5126  29.2391   2.4226  -3.0291   2.0428  -1.9202   0.00    0.0
2158  96062.000  -2418282.0149   5386005.0754   2405318.9024   5   4   5.4526   6.2657   3.1652   3.3606   3.7628   2.2965   0.00    0.0
2158  96065.000  -2418222.0105   5385958.0592   2405249.1521   5   5   2.4141   8.7528   2.8315   0.9196   3.6620  -1.5010   0.00    0.0
2158  96069.000  -2418246.5551   5386037.8585   2405256.6389   5   4   3.6626   8.4225   6.4933  -2.5850   6.8765  -3.2628   0.00    0.0
2158  96070.000  -2418251.7597   5386038.2906   2405247.4266   5   4   3.6627   8.4206   6.4929  -2.5854   6.8753  -3.2633   0.00    0.0
2158  96072.000  -2418160.9061   5386666.5827   2405406.3000   5   5   7.1388  29.5128   7.5082  13.8344  14.6288   6.7342   0.00    0.0
2158  96073.000  -2418353.8703   5386084.7512   2405275.2151   5   5   3.5225   4.6641   2.4593  -2.4623   2.4108  -1.7357   0.00    0.0
2158  96076.000  -2418230.1800   5386006.2911   2405104.5664   5   5   5.4790   4.5777   8.4169  -4.1422   5.2010  -6.4347   0.00    0.0
2158  96085.000  -2418434.0860   5386094.0291   2405260.4576   5   5   4.5844   4.2034   2.6101  -1.5445   2.4100  -0.0868   0.00    0.0
2158  96088.000  -2418215.6393   5386036.3703   2405117.2421   5   7   2.3034   3.6571   2.6258  -1.8680   2.2601  -1.3358   0.00    0.0
2158  96091.000  -2418456.1952   5386134.0654   2405263.1337   5   5   4.5871   4.2022   2.6107  -1.5365   2.4089   0.0600   0.00    0.0
2158  96092.000  -2418192.9981   5386050.4455   2405092.8323   5   6   2.3278   4.4362   3.1956  -1.6248   3.1111  -1.0809   0.00    0.0
2158  96093.000  -2418187.2639   5386039.2676   2405082.0603   5   5   2.3179   7.5171   3.2950  -1.4622   4.2073  -1.1416   0.00    0.0
2158  96094.000  -2418186.0800   5386060.3246   2405079.9273   5   6   2.2911   7.3840   2.7945  -1.6211   3.9058  -1.3840   0.00    0.0
2158  96095.000  -2418183.1515   5386065.1189   2405076.7462   5   6   2.3045   4.3514   2.6327  -1.9130   2.3570  -1.3395   0.00    0.0
2158  96096.000  -2418178.3794   5386072.6188   2405076.5071   5   7   2.2852   4.3471   2.3010  -1.8984   2.4061  -1.4747   0.00    0.0
2158  96097.000  -2418175.8210   5386077.9804   2405074.2043   5   7   2.2851   4.3468   2.3010  -1.8982   2.4059  -1.4746   0.00    0.0
2158  96098.000  -2418169.1165   5386082.6404   2405067.4390   5   7   2.2851   4.3464   2.3010  -1.8980   2.4057  -1.4745   0.00    0.0
2158  96099.000  -2418166.2466   5386091.2098   2405067.6076   5   6   2.3045   4.3500   2.6326  -1.9123   2.3556  -1.3385   0.00    0.0
2158  96100.000  -2418165.0571   5386075.7144   2405060.7699   5   5   2.3179   7.5020   3.2927  -1.4615   4.1995  -1.1398   0.00    0.0
2158  96101.000  -2418158.9638   5386098.2986   2405060.0600   5   6   2.3045   4.3493   2.6325  -1.9120   2.3550  -1.3381   0.00    0.0
2158  96103.000  -2418138.9349   5386102.7010   2405062.3815   5   4   3.1987   5.5200   3.2998  -2.4923   3.1889   0.4653   0.00    0.0
2158  96106.000  -2418134.0814   5386105.4590   2405048.4115   5   5   3.0877   6.7266   3.7618  -1.0606   4.6060   0.8043   0.00    0.0
2158  96107.000  -2418137.8460   5386088.9127   2405035.5549   5   6   2.8378   5.0547   2.5308  -2.5534   2.9771  -1.6547   0.00    0.0
2158  96109.000  -2418137.2442   5386089.9770   2405028.7237   5   4   3.2502   6.9611   4.5267   0.8438   5.0726   1.7909   0.00    0.0
2158  96110.000  -2418133.8208   5386087.2351   2405027.7081   5   4   3.2507   6.9613   4.5274   0.8495   5.0731   1.7929   0.00    0.0
2158  96111.000  -2418128.3333   5386092.9945   2405036.7261   5   4   3.2512   6.9614   4.5282   0.8552   5.0736   1.7949   0.00    0.0
2158  96112.000  -2418126.4412   5386095.5834   2405038.8472   5   4   3.2517   6.9615   4.5289   0.8609   5.0741   1.7970   0.00    0.0
2158  96113.000  -2418124.6309   5386099.9079   2405043.7033   5   4   3.2522   6.9617   4.5296   0.8665   5.0746   1.7990   0.00    0.0
2158  96114.000  -2418130.7382   5386065.0787   2405018.0406   5   4   3.0919  34.6364  12.4481  -2.2018  20.6001  -0.7981   0.00    0.0
2158  96115.000  -2418128.0641   5386005.0257   2404995.1807   5   4   3.0920  34.6498  12.4568  -2.1571  20.6115  -0.7533   0.00    0.0
2158  96116.000  -2418128.4661   5385977.3065   2404981.5156   5   4   3.0921  34.6630  12.4656  -2.1114  20.6229  -0.7055   0.00    0.0
2158  96117.000  -2418130.3309   5386096.2314   2405020.0909   5   5   3.0694  10.0717   3.1641  -4.0866   5.0394  -2.2250   0.00    0.0
2158  96118.000  -2418136.2214   5386222.0644   2405056.5455   5   4   3.0923  34.6889  12.4828  -2.0170  20.6453  -0.5984   0.00    0.0
2158  96123.000  -2418098.9094   5386366.0316   2405092.5693   5   4   3.2888  12.8528   4.3044   2.5026   6.8390   2.1893   0.00    0.0
2158  96124.000  -2418100.2698   5386363.1642   2405082.6137   5   4   3.2896  12.8494   4.3044   2.5068   6.8380   2.1912   0.00    0.0
2158  96125.000  -2418154.0171   5386171.2893   2405032.9794   5   6   3.4997   4.5988   2.2348  -2.4120   2.4781  -1.8460   0.00    0.0
2158  96130.000  -2418070.4823   5386160.7391   2404952.1850   5   5   3.0629   9.9878   3.1514  -4.0532   5.0014  -2.2097   0.00    0.0
2158  96131.000  -2418065.7307   5386163.7294   2404945.3001   5   5   3.0624   9.9815   3.1504  -4.0507   4.9985  -2.2086   0.00    0.0
2158  96134.000  -2418049.6088   5386202.1096   2404935.6041   5   4   3.1046   9.9946   3.5404  -3.9913   5.1183  -2.0052   0.00    0.0
2158  96135.000  -2418037.1285   5386172.1119   2404919.9539   5   5   3.0605   9.9561   3.1466  -4.0406   4.9870  -2.2039   0.00    0.0
2158  96136.000  -2418039.0812   5386233.3423   2404918.1462   5   5   2.4067   8.7465   2.8171   0.9795   3.6271  -1.4805   0.00    0.0
2158  96143.000  -2418038.3638   5386309.2839   2404950.9079   5   4   3.8898   7.6868   5.8411  -2.9139   5.2053  -4.0461   0.00    0.0
2158  96144.000  -2418021.1710   5386293.5771   2404930.7135   5   4   3.8900   7.6859   5.8431  -2.9161   5.2069  -4.0472   0.00    0.0
2158  96145.000  -2418000.7050   5386269.2068   2404893.2963   5   4   3.1012   9.9226   3.5276  -3.9650   5.0809  -1.9882   0.00    0.0
2158  96147.000  -2418003.8484   5386295.1999   2404897.4021   5   4   3.1007   9.9097   3.5253  -3.9603   5.0742  -1.9852   0.00    0.0
2158  96148.000  -2418001.0671   5386293.9350   2404895.3275   5   4   3.1004   9.9033   3.5242  -3.9580   5.0709  -1.9836   0.00    0.0
2158  96149.000  -2417991.9700   5386280.5953   2404887.8191   5   4   3.1001   9.8968   3.5230  -3.9556   5.0675  -1.9821   0.00    0.0
2158  96150.000  -2417988.9995   5386265.0844   2404886.2876   5   4   3.0998   9.8904   3.5219  -3.9533   5.0642  -1.9806   0.00    0.0
2158  96151.000  -2417988.4663   5386257.7667   2404883.3336   5   4   3.0995   9.8840   3.5208  -3.9510   5.0609  -1.9791   0.00    0.0
2158  96152.000  -2417985.4705   5386249.2779   2404885.9962   5   4   3.0992   9.8776   3.5197  -3.9487   5.0576  -1.9776   0.00    0.0
2158  96153.000  -2417982.6862   5386244.6660   2404886.0498   5   4   3.0990   9.8713   3.5186  -3.9463   5.0542  -1.9760   0.00    0.0
2158  96154.000  -2417980.8573   5386239.1991   2404880.7615   5   4   3.0987   9.8649   3.5174  -3.9440   5.0509  -1.9745   0.00    0.0
2158  96155.000  -2418026.8597   5386313.4840   2404936.1108   5   5   3.3079   7.2905   3.4497  -1.9284   3.9868  -2.5975   0.00    0.0
2158  96161.000  -2418021.9454   5386324.1260   2404922.1418   5   5   3.3079   7.2815   3.4540  -1.9413   3.9892  -2.6008   0.00    0.0
2158  96162.000  -2417991.9598   5386281.1109   2404900.6769   5   5   3.0482   9.7892   3.1219  -3.9741   4.9113  -2.1733   0.00    0.0
2158  96165.000  -2418027.2446   5386317.6780   2404931.7517   5   5   5.5069   6.1624   4.2004  -4.8332   4.5588  -4.3017   0.00    0.0
2158  96166.000  -2418038.1013   5386317.4299   2404938.8599   5   5   3.3079   7.2742   3.4576  -1.9520   3.9912  -2.6036   0.00    0.0
2158  96167.000  -2418038.4764   5386315.0900   2404937.5114   5   5   3.3079   7.2727   3.4583  -1.9541   3.9916  -2.6041   0.00    0.0
2158  96168.000  -2418035.5464   5386309.3323   2404932.8550   5   5   3.3079   7.2713   3.4590  -1.9562   3.9920  -2.6047   0.00    0.0
2158  96169.000  -2418030.6003   5386307.3512   2404926.7456   5   5   3.3080   7.2698   3.4597  -1.9583   3.9924  -2.6052   0.00    0.0
2158  96170.000  -2417993.3270   5386243.8205   2404895.8403   5   5   3.0449   9.7412   3.1149  -3.9550   4.8896  -2.1645   0.00    0.0
2158  96171.000  -2417992.1120   5386238.4582   2404895.5547   5   5   3.0444   9.7353   3.1141  -3.9527   4.8869  -2.1634   0.00    0.0
2158  96172.000  -2418033.9366   5386307.5090   2404929.6520   5   5   3.3080   7.2655   3.4619  -1.9646   3.9937  -2.6069   0.00    0.0
2158  96173.000  -2418036.8813   5386309.8434   2404932.0364   5   5   3.3080   7.2640   3.4626  -1.9666   3.9941  -2.6075   0.00    0.0
2158  96174.000  -2418042.6177   5386314.8499   2404939.7904   5   5   3.3080   7.2626   3.4633  -1.9687   3.9945  -2.6080   0.00    0.0
2158  96175.000  -2418044.8568   5386321.9415   2404943.2362   5   5   3.3080   7.2611   3.4641  -1.9708   3.9949  -2.6086   0.00    0.0
2158  96176.000  -2417994.3014   5386686.3097   2405058.7708   5   5   2.7477  28.4565  10.9992   6.2646  17.5400   3.7786   0.00    0.0
2158  96177.000  -2417996.2821   5386704.7982   2405063.7007   5   5   2.7493  28.4985  11.0166   6.2763  17.5674   3.7864   0.00    0.0
2158  96178.000  -2418050.9732   5386335.1093   2404942.3396   5   5   3.3081   7.2569   3.4662  -1.9770   3.9962  -2.6103   0.00    0.0
2158  96179.000  -2418003.0572   5386672.6615   2405046.4959   5   5   2.7525  28.5828  11.0518   6.2998  17.6223   3.8019   0.00    0.0
2158  96180.000  -2418048.3680   5386339.6908   2404940.7832   5   5   3.3081   7.2540   3.4677  -1.9811   3.9970  -2.6114   0.00    0.0
2158  96201.000  -2417883.6165   5386279.5986   2404941.9732   5   5   5.6355   6.2659   3.0664   3.6541   3.8805   2.4210   0.00    0.0
2158  96202.000  -2417873.8465   5386278.7122   2404952.0808   5   5   5.6371   6.2660   3.0670   3.6560   3.8809   2.4226   0.00    0.0
2158  96203.000  -2417872.9378   5386275.8004   2404955.5983   5   4   5.6483   6.2961   3.2192   3.6301   3.8034   2.4898   0.00    0.0
2158  96204.000  -2417880.8108   5386269.5114   2404961.8882   5   4   8.7899   6.7771   4.2764  -2.0017   4.7706  -3.7683   0.00    0.0
2158  96205.000  -2418177.6484   5386359.7478   2405156.6766   5   4   3.9789   7.3004   6.5194  -2.5667   6.0157  -3.8550   0.00    0.0
2158  96207.000  -2418201.3854   5386356.8338   2405190.9888   5   4   3.9792   7.3022   6.5241  -2.5699   6.0193  -3.8574   0.00    0.0
2158  96208.000  -2417883.9791   5386255.1028   2405001.4860   5   4   8.7936   6.7786   4.2798  -1.9919   4.7736  -3.7664   0.00    0.0
2158  96209.000  -2417886.2497   5386245.2733   2405004.7712   5   4   8.7946   6.7790   4.2806  -1.9895   4.7743  -3.7660   0.00    0.0
2158  96215.000  -2417900.3489   5386199.9436   2405063.5283   5   4   9.3518   9.5117  10.4465  -8.8454   9.4995  -9.5276   0.00    0.0
2158  96217.000  -2417908.9545   5386181.1848   2405060.0911   5   5   5.5260   6.1484   4.2352  -4.8469   4.5763  -4.3275   0.00    0.0
2158  96221.000  -2417851.9807   5386179.8397   2405091.5289   5   4   8.8063   6.7837   4.2909  -1.9599   4.7835  -3.7605   0.00    0.0
2158  96222.000  -2417917.5886   5386157.2849   2405118.4842   5   4   9.3547   9.5118  10.4625  -8.8478   9.5074  -9.5361   0.00    0.0
2158  96245.000  -2417951.1970   5386168.4657   2405247.9686   5   4   9.3644   9.5123  10.5158  -8.8557   9.5334  -9.5642   0.00    0.0
2158  96246.000  -2417950.7473   5386165.8354   2405248.1299   5   4   9.3648   9.5123  10.5181  -8.8561   9.5346  -9.5655   0.00    0.0
2158  96247.000  -2417928.1751   5386145.0061   2405223.1108   5   5   5.5388   6.1417   4.2566  -4.8560   4.5875  -4.3436   0.00    0.0
2158  96248.000  -2417930.8339   5386139.2486   2405215.4589   5   6   3.5110   4.4997   2.2437  -2.3824   2.4343  -1.8358   0.00    0.0
2158  96249.000  -2417929.5196   5386140.0682   2405210.7312   5   6   3.5111   4.4990   2.2438  -2.3822   2.4339  -1.8357   0.00    0.0
2158  96250.000  -2417927.5014   5386138.7576   2405212.0428   5   6   3.5113   4.4982   2.2439  -2.3820   2.4336  -1.8357   0.00    0.0
2158  96251.000  -2417920.2770   5386134.1929   2405217.5625   5   6   3.5114   4.4975   2.2440  -2.3818   2.4333  -1.8356   0.00    0.0
2158  96252.000  -2417925.6646   5386139.2696   2405220.5161   5   6   3.5116   4.4968   2.2441  -2.3816   2.4330  -1.8355   0.00    0.0
2158  96253.000  -2417922.3999   5386114.8402   2405220.1828   5   5   3.5233   7.5475   2.3690  -2.7198   3.2431  -1.8934   0.00    0.0
2158  96254.000  -2417912.3650   5386129.6452   2405223.8443   5   6   3.5119   4.4953   2.2443  -2.3812   2.4323  -1.8354   0.00    0.0
2158  96255.000  -2417905.9205   5386089.7455   2405224.0122   5   5   3.5236   7.5403   2.3688  -2.7189   3.2406  -1.8931   0.00    0.0
2158  96256.000  -2417907.7299   5386073.5105   2405221.7237   5   4   6.5495  12.2121   5.5727  -7.7743   7.6787  -5.6064   0.00    0.0
2158  96257.000  -2417918.1662   5386074.9139   2405228.7204   5   4   6.5501  12.2085   5.5733  -7.7739   7.6781  -5.6070   0.00    0.0
2158  96260.000  -2417910.3068   5386022.5781   2405232.5434   5   4   6.5521  12.1978   5.5752  -7.7728   7.6761  -5.6088   0.00    0.0
2158  96261.000  -2417923.0571   5386037.9101   2405247.7430   5   4   6.5528  12.1942   5.5758  -7.7725   7.6755  -5.6095   0.00    0.0
2158  96262.000  -2417932.8335   5386037.3172   2405258.1121   5   4   6.5534  12.1907   5.5764  -7.7721   7.6748  -5.6101   0.00    0.0
2158  96263.000  -2417948.1867   5386049.1048   2405272.9441   5   4   6.5541  12.1871   5.5770  -7.7718   7.6742  -5.6107   0.00    0.0
2158  96264.000  -2417936.9052   5386012.6796   2405265.5002   5   4   6.5548  12.1836   5.5776  -7.7714   7.6736  -5.6113   0.00    0.0
2158  96265.000  -2417943.1251   5386006.0829   2405277.0629   5   4   6.5554  12.1801   5.5783  -7.7711   7.6729  -5.6120   0.00    0.0
2158  96270.000  -2417935.9113   5386053.2647   2405345.5143   5   4   8.8587   6.8042   4.3345  -1.8353   4.8224  -3.7390   0.00    0.0
2158  96275.000  -2417958.8984   5386045.0122   2405392.9788   5   4   6.5623  12.1451   5.5846  -7.7679   7.6668  -5.6184   0.00    0.0
2158  96277.000  -2417957.3560   5386034.2035   2405395.8747   5   5   5.5528   6.1360   4.2789  -4.8659   4.5995  -4.3605   0.00    0.0
2158  96278.000  -2417950.4865   5386033.5920   2405397.2127   5   5   5.5532   6.1359   4.2797  -4.8663   4.6000  -4.3611   0.00    0.0
2158  96279.000  -2417944.0642   5386021.8972   2405394.0545   5   5   5.5537   6.1357   4.2805  -4.8666   4.6004  -4.3617   0.00    0.0
2158  96289.000  -2417929.6785   5386028.4292   2405399.4444   5   4   9.3826   9.5134  10.6191  -8.8704   9.5836  -9.6180   0.00    0.0
2158  96290.000  -2417914.4861   5386013.2715   2405383.0000   5   4   9.3830   9.5135  10.6214  -8.8707   9.5848  -9.6193   0.00    0.0
2158  96291.000  -2417908.7482   5386010.7147   2405377.7152   5   4   9.3835   9.5135  10.6238  -8.8711   9.5859  -9.6205   0.00    0.0
2158  96292.000  -2417914.6138   5386018.5609   2405384.1536   5   4   9.3839   9.5135  10.6262  -8.8714   9.5871  -9.6217   0.00    0.0
2158  96293.000  -2417923.9272   5386024.4033   2405394.1508   5   4   9.3843   9.5136  10.6286  -8.8717   9.5882  -9.6229   0.00    0.0
2158  96294.000  -2417933.2173   5386027.0842   2405401.0087   5   4   9.3847   9.5136  10.6309  -8.8720   9.5894  -9.6241   0.00    0.0
2158  96295.000  -2417928.0040   5386023.9960   2405395.9149   5   4   9.3851   9.5136  10.6333  -8.8724   9.5905  -9.6254   0.00    0.0
2158  96296.000  -2417924.9552   5386021.3383   2405390.9210   5   4   9.3855   9.5137  10.6357  -8.8727   9.5917  -9.6266   0.00    0.0
2158  96297.000  -2417933.3182   5386023.9161   2405396.7326   5   4   9.3859   9.5137  10.6381  -8.8730   9.5928  -9.6278   0.00    0.0
2158  96298.000  -2417942.7924   5386025.9688   2405401.7376   5   4   9.3863   9.5137  10.6405  -8.8733   9.5940  -9.6290   0.00    0.0
2158  96299.000  -2417931.9581   5386016.9342   2405386.9511   5   4   9.3867   9.5138  10.6429  -8.8737   9.5952  -9.6303   0.00    0.0
2158  96300.000  -2417927.2055   5386009.9778   2405381.8605   5   4   9.3872   9.5138  10.6453  -8.8740   9.5963  -9.6315   0.00    0.0
2158  96301.000  -2417961.6800   5386035.6023   2405418.3687   5   4   9.3875   9.5138  10.6476  -8.8743   9.5974  -9.6327   0.00    0.0
2158  96302.000  -2417948.8228   5386028.3156   2405410.1556   5   4   9.3879   9.5139  10.6500  -8.8746   9.5986  -9.6339   0.00    0.0
2158  96303.000  -2417940.2614   5386025.0041   2405402.7746   5   4   9.3884   9.5139  10.6524  -8.8750   9.5997  -9.6352   0.00    0.0
2158  96304.000  -2417928.2235   5386013.7099   2405394.5167   5   5   5.5664   6.1319   4.3000  -4.8756   4.6112  -4.3765   0.00    0.0
2158  96305.000  -2417959.4675   5386031.1471   2405413.3519   5   6   3.3073   4.7316   3.4201  -2.5122   3.3313  -2.7355   0.00    0.0
2158  96306.000  -2417946.3168   5386022.9588   2405414.1302   5   6   3.3075   4.7315   3.4209  -2.5127   3.3318  -2.7359   0.00    0.0
2158  96307.000  -2417949.4364   5386018.7631   2405419.9596   5   6   3.3077   4.7315   3.4216  -2.5132   3.3323  -2.7364   0.00    0.0
2158  96308.000  -2417960.7757   5386025.3951   2405440.4671   5   4   9.3904   9.5140  10.6643  -8.8765   9.6055  -9.6412   0.00    0.0
2158  96309.000  -2417944.0451   5386008.3811   2405425.0292   5   5   5.5690   6.1312   4.3039  -4.8775   4.6134  -4.3796   0.00    0.0
2158  96310.000  -2417970.8781   5386020.2259   2405457.6382   5   4   9.3912   9.5141  10.6690  -8.8772   9.6077  -9.6436   0.00    0.0
2158  96311.000  -2417950.9209   5385998.4904   2405440.7335   5   5   5.5701   6.1309   4.3055  -4.8783   4.6143  -4.3808   0.00    0.0
2158  96312.000  -2417960.9114   5386000.8715   2405455.7104   5   5   5.5706   6.1307   4.3063  -4.8787   4.6148  -4.3814   0.00    0.0
2158  96313.000  -2417963.2151   5385995.4102   2405458.9164   5   5   5.5712   6.1306   4.3071  -4.8790   4.6152  -4.3820   0.00    0.0
2158  96314.000  -2417962.0011   5385985.8590   2405465.7753   5   6   3.3092   4.7312   3.4270  -2.5166   3.3359  -2.7398   0.00    0.0
2158  96315.000  -2417966.1163   5385987.3734   2405476.6891   5   7   2.6528   4.1319   2.2071  -1.3326   2.2555  -1.5230   0.00    0.0
2158  96316.000  -2417964.4527   5385980.6187   2405477.7496   5   7   2.6529   4.1315   2.2073  -1.3327   2.2553  -1.5231   0.00    0.0
2158  96317.000  -2417965.9189   5385973.6734   2405483.6308   5   7   2.6529   4.1310   2.2075  -1.3328   2.2552  -1.5232   0.00    0.0
2158  96318.000  -2417969.2696   5385973.0888   2405487.8091   5   7   2.6530   4.1305   2.2077  -1.3329   2.2550  -1.5233   0.00    0.0
2158  96319.000  -2417977.4210   5385973.4767   2405489.6001   5   6   3.5240   4.4491   2.2523  -2.3695   2.4126  -1.8310   0.00    0.0
2158  96320.000  -2417988.4921   5385975.7870   2405494.2845   5   6   3.5242   4.4484   2.2524  -2.3693   2.4123  -1.8309   0.00    0.0
2158  96321.000  -2417995.7955   5385972.5550   2405494.1985   5   6   3.5244   4.4477   2.2525  -2.3692   2.4120  -1.8309   0.00    0.0
2158  96322.000  -2417982.6322   5385956.6408   2405479.2249   5   6   2.8384   4.8641   2.5298  -2.4366   2.8815  -1.5737   0.00    0.0
2158  96323.000  -2417990.3454   5385956.1323   2405476.8056   5   6   2.8384   4.8633   2.5298  -2.4361   2.8811  -1.5733   0.00    0.0
2158  96324.000  -2418000.7593   5385954.1799   2405474.4601   5   5   2.9243   4.8637   2.9377  -2.4200   2.9086  -1.1934   0.00    0.0
2158  96325.000  -2418005.4245   5385956.6952   2405472.3089   5   5   2.9246   4.8629   2.9378  -2.4196   2.9081  -1.1925   0.00    0.0
2158  96326.000  -2418011.7511   5385957.5149   2405476.6344   5   4   9.3976   9.5146  10.7074  -8.8822   9.6262  -9.6631   0.00    0.0
2158  96327.000  -2418016.9596   5385959.6415   2405484.9741   5   4   9.3980   9.5146  10.7098  -8.8825   9.6273  -9.6643   0.00    0.0
2158  96328.000  -2418014.9050   5385954.1736   2405479.4956   5   4   9.3984   9.5147  10.7122  -8.8828   9.6285  -9.6656   0.00    0.0
2158  96329.000  -2418002.5534   5385919.3852   2405455.2415   5   4   6.6021  11.9699   5.6228  -7.7555   7.6402  -5.6559   0.00    0.0
2158  96332.000  -2418023.5018   5385947.6706   2405469.1246   5   4   6.6045  11.9607   5.6251  -7.7550   7.6390  -5.6581   0.00    0.0
2158  96333.000  -2418026.6326   5385940.3468   2405461.9878   5   4   6.6052  11.9577   5.6258  -7.7549   7.6386  -5.6588   0.00    0.0
2158  96334.000  -2418030.6740   5385936.3632   2405460.5193   5   4   6.6060  11.9547   5.6266  -7.7547   7.6382  -5.6596   0.00    0.0
2158  96335.000  -2418040.9330   5385948.7762   2405459.9366   5   4   2.4319   8.7618   3.2632   1.2286   3.7036  -1.1893   0.00    0.0
2158  96336.000  -2418052.0761   5385943.4280   2405454.6704   5   5   2.4016   8.7348   2.7988   1.1169   3.5440  -1.4339   0.00    0.0
2158  96338.000  -2418045.2988   5385944.3426   2405428.3231   5   4   3.9431   7.5826   6.2798  -3.3106   5.5472  -4.2716   0.00    0.0
2158  96339.000  -2418060.2893   5385946.8472   2405454.4762   5   6   2.2950   6.9783   2.7833  -1.5705   3.7547  -1.3587   0.00    0.0
2158  96340.000  -2418071.7197   5385940.1607   2405443.9394   5   4   3.0778   8.8629   3.3597  -3.5852   4.5258  -1.7122   0.00    0.0
2158  96341.000  -2418074.7884   5385923.2750   2405437.6321   5   5   2.3338   7.0416   3.2395  -1.4345   3.9607  -1.0700   0.00    0.0
2158  96342.000  -2418088.7438   5385897.7891   2405432.9386   5   4   2.4324   8.7607   3.2622   1.2306   3.6978  -1.1865   0.00    0.0
2158  96355.000  -2418208.2897   5385918.4003   2405422.9228   5   4   6.6231  11.8932   5.6434  -7.7524   7.6311  -5.6757   0.00    0.0
2158  96357.000  -2418275.6119   5385941.8611   2405366.3665   5   4  30.5560  18.5503   9.7226 -23.4622 -12.5543  16.7485   0.00    0.0
2158  96361.000  -2418215.2722   5385896.2822   2405372.0858   5   4   8.9774   6.8477   4.4237  -1.5858   4.9013  -3.7033   0.00    0.0
2158  96362.000  -2418221.5315   5385903.9230   2405371.5731   5   5   5.5991   6.1256   4.3479  -4.8988   4.6386  -4.4133   0.00    0.0
2158  96363.000  -2418224.4328   5385911.7416   2405365.3313   5   5   5.5997   6.1256   4.3487  -4.8992   4.6391  -4.4139   0.00    0.0
2158  96364.000  -2418218.1438   5385899.5932   2405353.9504   5   4   4.3086   9.1047   4.2033   3.2362   2.1066  -3.6408   0.00    0.0
2158  96371.000  -2418176.6335   5385925.8754   2405333.4093   5   4   3.5669  38.8962  15.1451   7.8082  24.1344   4.9934   0.00    0.0
2158  96379.000  -2418171.7342   5386026.5042   2405382.0801   5   4   4.2068   8.2680   6.5965   1.3718   6.8132   2.7683   0.00    0.0
