      UTCTime       Week   GPSTime         Latitude        Longitude        H-Ell VelBdyX VelBdyY VelBdyZ AccBdyX AccBdyY AccBdyZ           Roll          Pitch        Heading Q
        (sec)    (weeks)     (sec)       (+/-D M S)       (+/-D M S)          (m)   (m/s)   (m/s)   (m/s) (m/s^2) (m/s^2) (m/s^2)          (deg)          (deg)          (deg)  
1621307670.00 2158.00000 184488.00   22 18 54.27235  114 10 06.52684        2.968   0.145   6.234  -0.060  -0.492  -2.132   1.082   0.2269313939  -0.0563102921  -9.8491792871 2
1621307671.00 2158.00000 184489.00   22 18 54.47408  114 10 06.49653        2.931   0.197   6.385  -0.066   1.660   2.527  -0.465   0.0961423180   0.3543400188 -10.1641685646 2
1621307672.00 2158.00000 184490.00   22 18 54.67801  114 10 06.46554        2.908   0.159   6.235  -0.086   1.158  -1.856  -0.493  -0.0692476791   0.3219965513 -10.1669875169 2
1621307673.00 2158.00000 184491.00   22 18 54.87596  114 10 06.43264        2.878   0.158   6.045  -0.065   1.189  -0.100  -0.053  -0.4230663063   0.3816872944 -11.5370613854 2
1621307674.00 2158.00000 184492.00   22 18 55.06689  114 10 06.39584        2.854   0.183   5.869  -0.011  -0.179  -0.850   0.114  -0.0778706939   0.0637415547 -12.6280532414 2
1621307675.00 2158.00000 184493.00   22 18 55.25076  114 10 06.35896        2.817   0.273   5.592  -0.051  -0.091   0.248  -0.018  -0.1238562866   0.5566915233 -12.4326345262 2
1621307676.00 2158.00000 184494.00   22 18 55.42866  114 10 06.32478        2.802   0.184   5.447  -0.001  -0.329   0.417   0.207   0.0055691498   0.0404909274 -11.9394152674 2
1621307677.00 2158.00000 184495.00   22 18 55.60319  114 10 06.29220        2.761   0.167   5.464  -0.018  -0.696  -1.096  -0.332   0.0659760901   0.4528830300 -11.6959483115 2
1621307678.00 2158.00000 184496.00   22 18 55.77600  114 10 06.25869        2.757   0.192   5.291  -0.024  -0.813  -0.299  -0.540   0.1902277176  -0.1577123627 -11.8923353254 2
1621307679.00 2158.00000 184497.00   22 18 55.94301  114 10 06.22667        2.746   0.186   5.193  -0.022   0.361   0.138   0.017   0.5027933835   0.4726156965 -12.0217321139 2
1621307680.00 2158.00000 184498.00   22 18 56.11049  114 10 06.19387        2.755   0.186   5.278  -0.011   0.089   0.116   0.618   0.7339933130   0.3676383692 -12.1139382118 2
1621307681.00 2158.00000 184499.00   22 18 56.28077  114 10 06.15998        2.763   0.165   5.416  -0.034  -0.399  -1.470   0.126   0.6929179687   0.7353340343 -12.2875616125 2
1621307682.00 2158.00000 184500.00   22 18 56.45677  114 10 06.12448        2.783   0.189   5.558  -0.061  -0.616  -0.181   0.646   0.9786462916   0.7828379651 -12.4161046938 2
1621307683.00 2158.00000 184501.00   22 18 56.63764  114 10 06.08635        2.835   0.141   5.659  -0.012   0.168   0.503   1.005   0.5497415453   0.7689380090 -12.5350679208 2
1621307684.00 2158.00000 184502.00   22 18 56.82223  114 10 06.04640        2.875   0.190   5.776  -0.039   0.082   0.814   0.108   0.0659760901   0.4427416770 -12.8941348415 2
1621307685.00 2158.00000 184503.00   22 18 57.00466  114 10 06.00652        2.899   0.226   5.623  -0.013   0.689  -0.139   0.070   0.2187380974   0.2353939806 -13.0543682184 2
1621307686.00 2158.00000 184504.00   22 18 57.18387  114 10 05.97125        2.877   0.296   5.495  -0.116   0.944   0.951   0.630   1.7773895650   0.0511708607 -12.6205761422 3
1621307687.00 2158.00000 184505.00   22 18 57.36052  114 10 05.93617        2.869   0.269   5.377  -0.039   0.471   0.527  -0.065   2.1959581527   0.1764251643 -12.8515526181 3
1621307688.00 2158.00000 184506.00   22 18 57.51640  114 10 05.90404        2.878   0.211   4.315  -0.069  -0.478  -1.729  -0.353   2.4017588631   0.6331985777 -13.3310839152 3
1621307689.00 2158.00000 184507.00   22 18 57.64679  114 10 05.87567        2.917   0.174   3.886   0.082  -0.683   0.683   0.780   2.7952089810   0.1257012107 -13.6752825810 3
1621307690.00 2158.00000 184508.00   22 18 57.76564  114 10 05.84742        2.957   0.203   3.576   0.036  -0.577   0.358   0.332   2.6166753321   0.5822511706 -14.1150448775 3
1621307691.00 2158.00000 184509.00   22 18 57.87433  114 10 05.82035        3.042   0.150   3.230   0.009   0.520  -0.279   0.264   2.6958122627   0.5066952261 -14.2242907403 2
1621307692.00 2158.00000 184510.00   22 18 57.97875  114 10 05.79651        3.101   0.138   3.212   0.013  -0.537  -0.764   0.510   2.3964647331   0.2361273665 -14.2329366735 2
1621307693.00 2158.00000 184511.00   22 18 58.07755  114 10 05.77299        3.151   0.158   3.026   0.037  -0.044   0.470  -0.347   2.2860844138   0.3942407997 -15.8724095676 2
1621307694.00 2158.00000 184512.00   22 18 58.18232  114 10 05.73287        3.211  -0.033   3.735   0.007  -0.155   0.135   0.176   1.9751001114   0.0973970956 -25.5606216804 2
1621307695.00 2158.00000 184513.00   22 18 58.29564  114 10 05.66680        3.256   0.119   4.107  -0.032   0.670   1.392  -0.856  -0.2027697637   0.6492413960 -31.0084247176 2
1621307696.00 2158.00000 184514.00   22 18 58.41251  114 10 05.60180        3.339   0.240   3.945   0.062   2.494  -0.042  -1.287  -1.5486762723   0.7842073342 -27.1930701120 2
1621307697.00 2158.00000 184515.00   22 18 58.52848  114 10 05.55958        3.398   0.315   3.606   0.053   0.084   1.261   1.122  -0.0479966745   0.2486006577 -18.8060795294 2
1621307698.00 2158.00000 184516.00   22 18 58.63753  114 10 05.53707        3.445   0.236   3.158  -0.023  -0.002  -0.046  -0.415   0.6301733606  -0.6540828893 -12.1898493901 2
1621307699.00 2158.00000 184517.00   22 18 58.72876  114 10 05.52292        3.471   0.009   2.360  -0.057   1.453   0.114   1.743  -0.3588721150   0.1437321925 -10.6360508751 2
1621307700.00 2158.00000 184518.00   22 18 58.78963  114 10 05.51466        3.544   0.120   1.432   0.044  -0.215  -1.504  -0.409  -0.9429109139   0.0871411511 -10.6305046436 2
1621307701.00 2158.00000 184519.00   22 18 58.83157  114 10 05.51038        3.618   0.112   1.044   0.040  -0.393  -0.720   0.110  -1.0496987877   0.4102606996 -10.6070477515 2
1621307702.00 2158.00000 184520.00   22 18 58.85870  114 10 05.50859        3.697   0.093   0.701   0.038  -0.074  -0.356  -0.014  -1.2769854155   0.5264164334 -10.5936806461 2
1621307703.00 2158.00000 184521.00   22 18 58.87919  114 10 05.50834        3.776   0.085   0.526   0.044   0.286  -0.276   0.048  -1.0617996564   0.6282424928 -10.5108767856 2
1621307704.00 2158.00000 184522.00   22 18 58.89822  114 10 05.50817        3.856   0.094   0.673   0.034  -0.566   0.037   0.064  -0.8903993319   0.6999023242 -10.4266519897 2
1621307705.00 2158.00000 184523.00   22 18 58.92138  114 10 05.50685        3.937   0.070   0.516   0.033  -0.044  -0.116   0.016  -0.8602502928   0.6655133974 -10.4081454529 2
1621307706.00 2158.00000 184524.00   22 18 58.93520  114 10 05.50673        4.012   0.063   0.424   0.032   0.398   0.142   0.054  -1.0134935847   0.5730838458 -10.4102138305 2
1621307707.00 2158.00000 184525.00   22 18 58.95392  114 10 05.50560        4.080   0.085   0.704   0.029   0.224   0.309  -0.103  -1.1593514506   0.6118272520 -10.4152501296 2
1621307708.00 2158.00000 184526.00   22 18 58.98172  114 10 05.50305        4.148   0.082   0.978   0.025  -0.293   0.332   0.124  -1.0962401494   0.6399709388 -10.3366288609 2
1621307709.00 2158.00000 184527.00   22 18 59.01727  114 10 05.49902        4.218   0.066   1.165   0.016  -0.057   0.228  -0.027  -1.0399642348   0.5911262868 -10.3013633086 2
1621307710.00 2158.00000 184528.00   22 18 59.05652  114 10 05.49386        4.285   0.083   1.219   0.019   0.673   0.267  -0.121  -1.3457002438   0.8853573033 -10.2651409168 2
1621307711.00 2158.00000 184529.00   22 18 59.09607  114 10 05.48885        4.349   0.091   1.194   0.019  -0.466  -0.423  -0.110  -1.3551826954   0.9974794143 -10.2626771983 2
1621307712.00 2158.00000 184530.00   22 18 59.13583  114 10 05.48373        4.416   0.106   1.243   0.018  -0.184  -0.528   0.170  -1.3067906800   0.6202038949 -10.2970833139 2
1621307713.00 2158.00000 184531.00   22 18 59.17727  114 10 05.47816        4.477   0.075   1.261   0.024   0.552   0.009   0.033  -1.2950450452   0.3206271822 -10.3322113563 2
1621307714.00 2158.00000 184532.00   22 18 59.21671  114 10 05.47285        4.531   0.091   1.133   0.013  -0.393  -0.591   0.038  -1.2705109924   0.5046841443 -10.4412853318 2
1621307715.00 2158.00000 184533.00   22 18 59.25139  114 10 05.46864        4.583   0.075   0.934   0.027   0.175  -0.723   0.002  -1.0462667705   0.6498372721 -10.3836572367 2
1621307716.00 2158.00000 184534.00   22 18 59.27538  114 10 05.46607        4.636   0.052   0.547   0.034   0.570   0.056   0.064  -1.0017823273   0.7844766244 -10.3374138131 2
1621307717.00 2158.00000 184535.00   22 18 59.28768  114 10 05.46540        4.683   0.053   0.214   0.035  -0.027   0.065  -0.020  -1.0507014639   0.7664685609 -10.3133094787 2
1621307718.00 2158.00000 184536.00   22 18 59.29752  114 10 05.46517        4.724   0.055   0.373   0.033  -0.440   0.206  -0.064  -1.0637935495   0.8271677097 -10.2959202096 2
1621307719.00 2158.00000 184537.00   22 18 59.31182  114 10 05.46413        4.761   0.058   0.532   0.025   0.611   0.168   0.086  -1.0979819411   0.8690337358 -10.2596004149 2
1621307720.00 2158.00000 184538.00   22 18 59.33070  114 10 05.46253        4.791   0.076   0.531   0.019   0.122  -0.296  -0.075  -0.9680752202   0.8443564435 -10.1703278609 2
1621307721.00 2158.00000 184539.00   22 18 59.35037  114 10 05.46123        4.819   0.089   0.708   0.023   0.453   0.320   0.160  -0.7971848283   0.9101778350  -9.2956734091 2
1621307722.00 2158.00000 184540.00   22 18 59.37950  114 10 05.46104        4.843   0.137   1.196   0.015  -0.059   1.540   0.227  -0.6662353242   1.1882858192  -4.9269790832 2
1621307723.00 2158.00000 184541.00   22 18 59.43648  114 10 05.46250        4.877   0.090   2.248  -0.001  -0.479   1.131   0.172  -0.0552675089   1.2028102993  -1.8204305659 2
1621307724.00 2158.00000 184542.00   22 18 59.52473  114 10 05.46005        4.912   0.067   3.169   0.002  -0.994   0.775  -0.407   0.1709190399   0.8698931725  -4.9069542083 3
1621307725.00 2158.00000 184543.00   22 18 59.64122  114 10 05.44601        4.933   0.055   4.041  -0.015   0.429   0.678  -0.266   0.3209423089   0.9332107384 -10.1272758121 3
1621307726.00 2158.00000 184544.00   22 18 59.78049  114 10 05.41840        4.958   0.157   4.627  -0.017  -0.046   0.076   0.629   0.1009952705   0.7031624541 -12.7546368071 3
1621307727.00 2158.00000 184545.00   22 18 59.93631  114 10 05.38544        4.983   0.161   5.024  -0.056   0.610   1.933  -2.427  -0.0270894446   0.7852615765 -12.8339800025 3
1621307728.00 2158.00000 184546.00   22 19 00.09427  114 10 05.35205        5.012   0.136   4.798  -0.042  -0.588   0.745   0.713   0.0308766956   0.8666788792 -12.9818546799 3
1621307729.00 2158.00000 184547.00   22 19 00.23717  114 10 05.31976        5.052   0.084   4.083  -0.045   0.029  -0.427  -0.012  -0.2492423705   0.8747747729 -13.7930540558 3
1621307730.00 2158.00000 184548.00   22 19 00.35412  114 10 05.29241        5.090   0.120   3.318   0.008  -0.136  -1.234  -0.897  -0.3444507673   0.8984780369 -13.9237629176 4
1621307731.00 2158.00000 184549.00   22 19 00.44672  114 10 05.27139        5.114   0.101   2.540   0.003   0.023  -0.757  -0.044  -0.4414525220   1.0289347972 -13.6453054292 4
1621307732.00 2158.00000 184550.00   22 19 00.51676  114 10 05.25611        5.132   0.090   1.860   0.000   0.015  -0.595   0.006  -0.3855834074   1.1927090534 -13.4468443081 4
1621307733.00 2158.00000 184551.00   22 19 00.57185  114 10 05.24456        5.144   0.049   1.630   0.014  -0.559   0.568   0.321  -0.4044165301   1.1319755271 -13.1228939707 4
1621307734.00 2158.00000 184552.00   22 19 00.62252  114 10 05.23410        5.148   0.094   1.562   0.007  -0.304  -0.744   0.119  -0.5268060447   0.9727849333 -12.9923971033 3
1621307735.00 2158.00000 184553.00   22 19 00.67054  114 10 05.22436        5.150   0.075   1.465  -0.006   0.549  -0.273  -0.061  -0.6067107388   1.0469256720 -12.9065737552 3
1621307736.00 2158.00000 184554.00   22 19 00.71731  114 10 05.21499        5.145   0.051   1.453   0.014  -0.369  -0.154   0.340  -0.6599385180   1.0877259966 -12.8158229700 4
1621307737.00 2158.00000 184555.00   22 19 00.76357  114 10 05.20582        5.147   0.071   1.448   0.004   0.279   0.655  -0.183  -0.7031509949   1.0220593037 -12.7641937431 3
1621307738.00 2158.00000 184556.00   22 19 00.80948  114 10 05.19674        5.145   0.060   1.438   0.004   0.446   0.198  -0.147  -0.7654830735   1.0330658229 -12.6734486875 3
1621307739.00 2158.00000 184557.00   22 19 00.85451  114 10 05.18815        5.143   0.050   1.403   0.014  -0.504  -0.012  -0.005  -0.6950780196   1.1203731318 -12.4667541629 4
1621307740.00 2158.00000 184558.00   22 19 00.89946  114 10 05.18002        5.136   0.088   1.413   0.015  -0.204  -0.118  -0.148  -0.4148615507   0.9860489063 -12.1897290690 4
1621307741.00 2158.00000 184559.00   22 19 00.94422  114 10 05.17181        5.136   0.059   1.411   0.021  -0.516  -0.491   0.449  -0.4529918920   0.8431016660 -11.9082807408 5
1621307742.00 2158.00000 184560.00   22 19 00.98845  114 10 05.16414        5.129   0.035   1.282   0.015   0.061  -0.728   0.070  -0.3231310077   0.8982030171 -11.6297373087 5
1621307743.00 2158.00000 184561.00   22 19 01.01931  114 10 05.16109        5.121   0.118   0.737   0.012  -0.040   0.632   0.031  -0.3896800556   1.0399241277  -7.7598313914 5
1621307744.00 2158.00000 184562.00   22 19 01.04716  114 10 05.16396        5.112   0.148   0.957   0.026   0.799   0.128   0.013  -0.3084747473   1.1417272688   0.7574960418 4
1621307745.00 2158.00000 184563.00   22 19 01.07695  114 10 05.17145        5.101   0.057   0.834   0.010  -0.120  -0.540  -0.126   0.1676531804   1.0274909436   8.2159454920 5
1621307746.00 2158.00000 184564.00   22 19 01.10355  114 10 05.17722        5.086   0.017   0.888   0.009   0.254  -0.256   0.013   0.4035169864   0.9182851878   7.9727707446 4
1621307747.00 2158.00000 184565.00   22 19 01.13002  114 10 05.17999        5.066  -0.031   0.693   0.022   0.214  -0.725  -0.074   0.4182305426   0.7725018064   3.7311584577 3
1621307748.00 2158.00000 184566.00   22 19 01.13843  114 10 05.18066        5.033   0.007  -0.001   0.032  -0.330   0.347   0.033   0.3357933750   0.7554047458   1.9679438685 4
1621307749.00 2158.00000 184567.00   22 19 01.13799  114 10 05.18135        4.990   0.008  -0.002   0.020   0.104   0.136   0.002   0.3077012543   0.7482427734   1.9666203360 4
1621307750.00 2158.00000 184568.00   22 19 01.13756  114 10 05.18205        4.941   0.003  -0.001   0.018   0.214   0.050  -0.032   0.3094659643   0.7456873816   1.9675141502 4
1621307751.00 2158.00000 184569.00   22 19 01.13717  114 10 05.18275        4.886   0.008  -0.001   0.017  -0.181   0.024  -0.021   0.3115973673   0.7455154943   1.9672906966 4
1621307752.00 2158.00000 184570.00   22 19 01.13681  114 10 05.18340        4.824   0.000  -0.001   0.013   0.039  -0.018   0.040   0.3111619194   0.7443122829   1.9675485276 4
1621307753.00 2158.00000 184571.00   22 19 01.13649  114 10 05.18402        4.753   0.003  -0.000   0.015   0.209  -0.019   0.002   0.3114942349   0.7444727111   1.9676344713 3
1621307754.00 2158.00000 184572.00   22 19 01.13622  114 10 05.18463        4.695  -0.000   0.000   0.012  -0.650  -0.176   0.029   0.3135110463   0.7422324461   1.9677777108 3
1621307755.00 2158.00000 184573.00   22 19 01.13599  114 10 05.18519        4.708  -0.002  -0.000   0.012   0.484  -0.124   0.029   0.3113567250   0.7424673588   1.9685913108 4
1621307756.00 2158.00000 184574.00   22 19 01.13588  114 10 05.18527        4.698   0.003  -0.000   0.013   0.127   0.044   0.019   0.3134537506   0.7443695787   1.9682589953 5
1621307757.00 2158.00000 184575.00   22 19 01.13588  114 10 05.18527        4.698   0.003   0.001   0.012  -0.483   0.050  -0.070   0.3148059310   0.7436820293   1.9683449390 5
1621307758.00 2158.00000 184576.00   22 19 01.13588  114 10 05.18527        4.698  -0.001  -0.001   0.009  -0.410  -0.118  -0.012   0.3146626915   0.7421121250   1.9677719812 5
1621307759.00 2158.00000 184577.00   22 19 01.13588  114 10 05.18527        4.698  -0.000  -0.000   0.008   0.232  -0.126   0.014   0.3152299197   0.7410521531   1.9670214065 5
1621307760.00 2158.00000 184578.00   22 19 01.13588  114 10 05.18527        4.698  -0.000  -0.000   0.008   0.628   0.173   0.068   0.3121474068   0.7457962436   1.9667177388 5
1621307761.00 2158.00000 184579.00   22 19 01.13588  114 10 05.18526        4.698  -0.000  -0.001   0.006   0.315   0.110  -0.050   0.3165477227   0.7463634718   1.9675427981 5
1621307762.00 2158.00000 184580.00   22 19 01.13588  114 10 05.18526        4.698   0.002  -0.002   0.002  -0.111  -0.053  -0.054   0.3160091423   0.7465296296   1.9682589953 5
1621307763.00 2158.00000 184581.00   22 19 01.13588  114 10 05.18526        4.698  -0.000  -0.000   0.004  -0.341   0.109  -0.060   0.3146798802   0.7456071675   1.9678006291 5
1621307764.00 2158.00000 184582.00   22 19 01.13588  114 10 05.18526        4.698   0.003   0.000   0.002   0.154  -0.086  -0.124   0.3175102917   0.7450800464   1.9682131587 5
1621307765.00 2158.00000 184583.00   22 19 01.13588  114 10 05.18526        4.698  -0.002  -0.001   0.001  -0.386   0.170   0.170   0.3202375709   0.7490219960   1.9688147644 5
1621307766.00 2158.00000 184584.00   22 19 01.13588  114 10 05.18526        4.698   0.001   0.001  -0.001   0.237   0.159  -0.074   0.3164617790   0.7517091681   1.9689580038 5
1621307767.00 2158.00000 184585.00   22 19 01.13587  114 10 05.18525        4.698  -0.000  -0.002  -0.003   0.069   0.041  -0.031   0.3173899706   0.7512221539   1.9692674010 5
1621307768.00 2158.00000 184586.00   22 19 01.13587  114 10 05.18525        4.698   0.000   0.000  -0.002  -0.086  -0.106  -0.014   0.3188338243   0.7497897594   1.9697601447 5
1621307769.00 2158.00000 184587.00   22 19 01.13587  114 10 05.18525        4.698   0.000  -0.002  -0.002  -0.032   0.176  -0.000   0.3183067031   0.7518753258   1.9693132376 5
1621307770.00 2158.00000 184588.00   22 19 01.13587  114 10 05.18525        4.698   0.004  -0.002  -0.001  -0.234  -0.088  -0.035   0.3196818018   0.7471598832   1.9665172036 5
1621307771.00 2158.00000 184589.00   22 19 01.13587  114 10 05.18525        4.698  -0.000  -0.003  -0.000   0.164  -0.019   0.104   0.3156424493   0.7486037368   1.9686887136 5
1621307772.00 2158.00000 184590.00   22 19 01.13587  114 10 05.18524        4.698  -0.002  -0.002   0.001  -0.059   0.028   0.046   0.3170977621   0.7510330779   1.9695825278 5
1621307773.00 2158.00000 184591.00   22 19 01.13587  114 10 05.18524        4.698  -0.002   0.000   0.001   0.033  -0.043   0.044   0.3194698074   0.7505116863   1.9695424208 5
1621307774.00 2158.00000 184592.00   22 19 01.13587  114 10 05.18524        4.698  -0.001   0.002   0.004  -0.062  -0.009   0.043   0.3185473454   0.7499902947   1.9694220996 5
1621307775.00 2158.00000 184593.00   22 19 01.13587  114 10 05.18524        4.698  -0.002   0.001   0.007  -0.095   0.062  -0.030   0.3182322186   0.7510903736   1.9699778687 5
1621307776.00 2158.00000 184594.00   22 19 01.13587  114 10 05.18524        4.698   0.005   0.003   0.006  -0.334   0.000  -0.035   0.3200313060   0.7514226892   1.9690554066 5
1621307777.00 2158.00000 184595.00   22 19 01.13587  114 10 05.18523        4.698   0.005   0.003   0.006  -0.228   0.066   0.009   0.3202891371   0.7525628752   1.9689580038 5
1621307778.00 2158.00000 184596.00   22 19 01.13587  114 10 05.18523        4.699  -0.002   0.002   0.005  -0.074   0.033   0.059   0.3204839427   0.7510101595   1.9692158348 5
1621307779.00 2158.00000 184597.00   22 19 01.13587  114 10 05.18523        4.699   0.000   0.003   0.006   0.399  -0.140   0.099   0.3205355089   0.7491652354   1.9688319531 5
1621307780.00 2158.00000 184598.00   22 19 01.13587  114 10 05.18523        4.699   0.000   0.003   0.005   0.346   0.087   0.090   0.3203693511   0.7504257426   1.9688720601 5
1621307781.00 2158.00000 184599.00   22 19 01.13587  114 10 05.18522        4.699   0.004   0.002   0.003  -0.059  -0.277  -0.199   0.3216642358   0.7488042720   1.9687746573 5
1621307782.00 2158.00000 184600.00   22 19 01.13587  114 10 05.18522        4.699   0.002   0.002   0.004  -0.328  -0.315  -0.118   0.3227986922   0.7476411677   1.9688892489 5
1621307783.00 2158.00000 184601.00   22 19 01.13587  114 10 05.18522        4.699   0.002   0.000   0.004   0.509  -0.038  -0.042   0.3227127485   0.7488271903   1.9688949785 5
1621307784.00 2158.00000 184602.00   22 19 01.13587  114 10 05.18522        4.699  -0.002   0.001   0.002   0.466   0.021   0.027   0.3232857063   0.7486094664   1.9685454742 5
1621307785.00 2158.00000 184603.00   22 19 01.13587  114 10 05.18522        4.699  -0.002  -0.003   0.003   0.140  -0.063   0.042   0.3245519431   0.7484948748   1.9684881784 5
1621307786.00 2158.00000 184604.00   22 19 01.13587  114 10 05.18521        4.699  -0.003  -0.001   0.004  -0.398   0.045  -0.054   0.3240190923   0.7499673764   1.9681329446 5
1621307787.00 2158.00000 184605.00   22 19 01.13587  114 10 05.18521        4.699  -0.001  -0.007   0.002  -0.637  -0.024  -0.027   0.3257494248   0.7505460637   1.9682933728 5
1621307788.00 2158.00000 184606.00   22 19 01.13586  114 10 05.18521        4.699   0.002  -0.004   0.002  -0.376   0.048  -0.034   0.3264713517   0.7513940413   1.9676000938 5
1621307789.00 2158.00000 184607.00   22 19 01.13586  114 10 05.18521        4.699   0.001  -0.004  -0.000  -0.263  -0.034  -0.148   0.3258239094   0.7522305596   1.9673766403 5
1621307790.00 2158.00000 184608.00   22 19 01.13586  114 10 05.18521        4.699   0.002  -0.003  -0.000  -0.337  -0.021  -0.081   0.3277261292   0.7517148976   1.9672735079 5
1621307791.00 2158.00000 184609.00   22 19 01.13586  114 10 05.18520        4.699   0.005   0.001  -0.003   0.018   0.004  -0.094   0.3287517237   0.7527576808   1.9673078854 5
1621307792.00 2158.00000 184610.00   22 19 01.13586  114 10 05.18520        4.699   0.007   0.005  -0.005   0.256   0.018  -0.279   0.3293819773   0.7539379739   1.9669354628 5
1621307793.00 2158.00000 184611.00   22 19 01.13587  114 10 05.18527        4.676   0.002   0.003  -0.014   0.406   0.046   0.008   0.3298804505   0.7525686047   1.9669354628 2
1621307794.00 2158.00000 184612.00   22 19 01.13591  114 10 05.18557        4.622   0.007   0.004  -0.015  -0.680   0.086   0.051   0.3339885579   0.7550609712   1.9662020768 2
1621307795.00 2158.00000 184613.00   22 19 01.13593  114 10 05.18579        4.588   0.009   0.003  -0.019  -0.522  -0.126  -0.081   0.3330546367   0.7525972526   1.9657952768 2
1621307796.00 2158.00000 184614.00   22 19 01.13598  114 10 05.18610        4.558   0.009   0.001  -0.018   0.217   0.074  -0.064   0.3327337804   0.7537890049   1.9659041388 2
1621307797.00 2158.00000 184615.00   22 19 01.13625  114 10 05.18656        4.524   0.001   0.071  -0.026   0.085   0.356  -0.016   0.3340916903   0.8215183458   1.8850655234 2
1621307798.00 2158.00000 184616.00   22 19 01.14271  114 10 05.18714        4.496   0.028   0.286  -0.022   0.340   0.269   0.016   0.1740130120   0.7845568385   1.3724287250 2
1621307799.00 2158.00000 184617.00   22 19 01.15608  114 10 05.18892        4.470   0.039   0.447  -0.025  -0.314  -0.584   0.072   0.3028483018   0.7553818275   2.2417833171 5
1621307800.00 2158.00000 184618.00   22 19 01.16160  114 10 05.18990        4.441   0.025  -0.002  -0.021   0.202   0.070  -0.086   0.4196973145   0.7566537938   1.9587478959 5
1621307801.00 2158.00000 184619.00   22 19 01.16151  114 10 05.19059        4.407   0.020  -0.004  -0.031  -0.328  -0.033   0.131   0.4493879875   0.7546713599   1.8713947505 5
1621307802.00 2158.00000 184620.00   22 19 01.16142  114 10 05.19133        4.371   0.024  -0.001  -0.035  -0.334   0.000   0.058   0.4471362633   0.7775954012   1.8770498439 5
1621307803.00 2158.00000 184621.00   22 19 01.16636  114 10 05.19186        4.332  -0.003   0.327  -0.039   0.353   0.264  -0.001   0.4241778445   0.8349828540   0.3324644902 5
1621307804.00 2158.00000 184622.00   22 19 01.18320  114 10 05.19263        4.290   0.038   0.794  -0.064  -0.068   1.248  -0.151   0.6600817575   0.9780446859  -1.2059848969 5
1621307805.00 2158.00000 184623.00   22 19 01.23417  114 10 05.19218        4.257   0.040   2.223  -0.059   0.068   1.301   0.022   0.8329144764   1.1802529509  -3.2835756986 5
1621307806.00 2158.00000 184624.00   22 19 01.32021  114 10 05.18649        4.231   0.076   3.060  -0.074   0.046   0.688  -0.382   1.2553963658   0.9659266285  -6.6975848280 5
1621307807.00 2158.00000 184625.00   22 19 01.43233  114 10 05.17047        4.201   0.153   3.890  -0.087   0.181   0.487   0.796   1.3910899604   0.8752102208 -10.9173559637 6
1621307808.00 2158.00000 184626.00   22 19 01.56114  114 10 05.14406        4.178   0.136   4.118  -0.060   0.680   0.661   0.168   1.0883447910   0.6133971563 -12.9628152924 6
1621307809.00 2158.00000 184627.00   22 19 01.68850  114 10 05.11715        4.140   0.064   3.890  -0.052   0.095  -0.021   0.617   1.1367597247   0.4945657096 -13.2151401758 5
1621307810.00 2158.00000 184628.00   22 19 01.81692  114 10 05.08822        4.131   0.094   4.223  -0.070  -0.555  -0.748  -0.868   1.3515272246   1.3237158532 -14.0495787199 5
1621307811.00 2158.00000 184629.00   22 19 01.95470  114 10 05.05381        4.122   0.084   4.425  -0.157  -1.059   1.789   0.364   0.8911155292   0.7384394655 -14.8955795523 5
1621307812.00 2158.00000 184630.00   22 19 02.09761  114 10 05.01744        4.090   0.148   4.441  -0.085  -0.461  -0.417  -0.718   0.9538486782   0.0467304378 -15.0765081648 5
1621307813.00 2158.00000 184631.00   22 19 02.23676  114 10 04.98200        4.054   0.103   4.354  -0.074   1.036   0.286  -0.216   0.4807115901   0.8321123354 -14.8174166498 5
1621307814.00 2158.00000 184632.00   22 19 02.37497  114 10 04.94795        4.055   0.011   4.296  -0.066  -1.206  -0.935  -2.501   0.5319225578   0.9158329285 -14.5204411655 5
1621307815.00 2158.00000 184633.00   22 19 02.50941  114 10 04.92115        4.068   0.238   4.111  -0.037   0.211  -1.630   0.065   0.8285943746   0.7549291909 -10.3630995110 5
1621307816.00 2158.00000 184634.00   22 19 02.64403  114 10 04.90502        4.075   0.170   4.202  -0.059   1.201   1.001   0.870   0.4207973935   0.8871793091  -7.0119667702 5
1621307817.00 2158.00000 184635.00   22 19 02.77853  114 10 04.88874        4.092   0.074   4.048  -0.062  -0.047   0.136   0.338   0.5018250849   1.1467979453  -9.0963700401 5
1621307818.00 2158.00000 184636.00   22 19 02.90945  114 10 04.86879        4.111   0.131   4.157  -0.068  -1.140  -1.002   0.026   0.4859942610   0.9431572857 -10.0935457867 4
1621307819.00 2158.00000 184637.00   22 19 03.04691  114 10 04.84402        4.110   0.144   4.382  -0.068  -1.088  -0.041  -0.439   0.6509373510   0.8734684291 -11.8114909805 5
1621307820.00 2158.00000 184638.00   22 19 03.18495  114 10 04.81489        4.123   0.081   4.221  -0.046  -0.004  -0.201   0.527   0.3967904619   1.0019714034 -12.9905636384 5
1621307821.00 2158.00000 184639.00   22 19 03.31665  114 10 04.78609        4.142   0.118   4.123  -0.085   0.164   1.115   0.175   0.1325824338   0.8506589793 -12.8591443089 5
1621307822.00 2158.00000 184640.00   22 19 03.45583  114 10 04.75635        4.149   0.143   4.559  -0.052   0.388  -0.481  -0.678   0.2666488283   0.6971865043 -13.0895134496 5
1621307823.00 2158.00000 184641.00   22 19 03.60639  114 10 04.72317        4.155   0.129   4.889  -0.031  -0.013   0.099  -0.623   0.1635966392   0.5374573301 -13.0705714649 4
1621307824.00 2158.00000 184642.00   22 19 03.76311  114 10 04.68910        4.161   0.116   4.891  -0.037  -0.918  -0.598  -0.399   0.1544751511   0.6699538203 -12.9314343939 4
1621307825.00 2158.00000 184643.00   22 19 03.91657  114 10 04.65583        4.172   0.123   4.805  -0.021   0.423  -0.438   0.114  -0.2094504516   0.5457995956 -12.8326106334 5
1621307826.00 2158.00000 184644.00   22 19 04.06705  114 10 04.62333        4.186   0.145   4.604  -0.018   0.451  -0.579   0.054  -0.6673411327   0.5439604011 -12.7345374476 4
1621307827.00 2158.00000 184645.00   22 19 04.21142  114 10 04.59327        4.191   0.127   4.406  -0.030   0.736  -0.529   0.275  -0.2925064136   0.4346285947 -12.5171056940 5
1621307828.00 2158.00000 184646.00   22 19 04.34238  114 10 04.56756        4.195   0.127   3.658  -0.035  -0.202  -1.202  -0.135  -0.0672709747   0.4919415629 -11.9430764677 2
1621307829.00 2158.00000 184647.00   22 19 04.45007  114 10 04.54621        4.195   0.077   3.115  -0.105   0.248   1.809   2.118  -0.2177526100   1.1535817656 -12.1267151707 2
1621307830.00 2158.00000 184648.00   22 19 04.55687  114 10 04.52533        4.236   0.089   3.685  -0.007  -0.533  -0.720  -0.716   0.1032469947   1.1476573820 -12.3395346141 2
1621307831.00 2158.00000 184649.00   22 19 04.68488  114 10 04.49846        4.277   0.105   4.275  -0.069   1.673   0.054  -2.547  -0.4620618139   0.9837226976 -12.2897617704 2
1621307832.00 2158.00000 184650.00   22 19 04.83321  114 10 04.46900        4.317   0.126   4.988  -0.073   0.517   1.352  -0.213   0.1538850046   1.1330698765 -12.2218147055 2
1621307833.00 2158.00000 184651.00   22 19 05.00008  114 10 04.43524        4.336   0.200   5.251  -0.082  -0.767   0.185  -0.146   0.8664783440   0.7451717196 -12.5586394045 2
1621307834.00 2158.00000 184652.00   22 19 05.17104  114 10 04.39884        4.346   0.218   5.382  -0.011   1.230  -0.459   1.075   0.2088545755  -0.0938905939 -12.3269238130 2
1621307835.00 2158.00000 184653.00   22 19 05.33997  114 10 04.36502        4.349   0.164   5.191  -0.026   0.034   0.492   1.077   0.8578324109   0.5185153454 -12.3668532418 2
1621307836.00 2158.00000 184654.00   22 19 05.50220  114 10 04.33107        4.381   0.210   4.943  -0.064  -0.763   0.084  -2.757   1.1198689289   0.2715476174 -12.6395009381 2
1621307837.00 2158.00000 184655.00   22 19 05.65698  114 10 04.29825        4.387   0.197   4.679  -0.003   0.451  -0.777  -0.690   1.3932614704   0.6154884523 -12.7343712899 4
1621307838.00 2158.00000 184656.00   22 19 05.80150  114 10 04.26806        4.409   0.107   4.378  -0.023   0.040   0.724   0.379   1.5683172656   0.7088576546 -12.4596437567 2
1621307839.00 2158.00000 184657.00   22 19 05.93380  114 10 04.24014        4.424   0.157   3.874   0.018   1.108   0.913  -0.509   1.0025500908   0.2642022985 -12.5108948315 2
1621307840.00 2158.00000 184658.00   22 19 06.04840  114 10 04.21595        4.448   0.082   3.361   0.012  -0.322  -0.444   0.263   0.8059911896   0.4973502845 -12.5194548209 2
1621307841.00 2158.00000 184659.00   22 19 06.15029  114 10 04.19341        4.526   0.124   3.042  -0.005   0.181  -0.557   0.694   0.8540566190   0.5695429667 -13.4060955497 2
1621307842.00 2158.00000 184660.00   22 19 06.24574  114 10 04.17127        4.562   0.121   3.266   0.014   0.263   1.489   0.353   0.3560474331   1.0409726405 -13.2198327001 2
1621307843.00 2158.00000 184661.00   22 19 06.36122  114 10 04.14773        4.598   0.125   3.765  -0.030   0.767   1.027   0.626   0.6820546889   0.6182615680 -11.8917050718 2
1621307844.00 2158.00000 184662.00   22 19 06.48613  114 10 04.12379        4.624   0.118   4.030  -0.019  -0.519   0.812   0.280   1.1130278128   0.3682457045 -11.8421270338 2
1621307845.00 2158.00000 184663.00   22 19 06.62525  114 10 04.09690        4.640   0.167   4.722   0.022  -0.950   0.536   0.334   1.4369666910   0.8119556802 -11.7631046947 2
1621307846.00 2158.00000 184664.00   22 19 06.78982  114 10 04.06492        4.661   0.099   5.543  -0.019  -0.070   1.848  -0.622   0.7859777738   0.0865567341 -11.3118889719 2
1621307847.00 2158.00000 184665.00   22 19 06.98159  114 10 04.03127        4.663   0.166   6.317  -0.061   0.638   1.612  -0.261   1.0044694994   0.8752789757 -10.4809340112 2
1621307848.00 2158.00000 184666.00   22 19 07.19703  114 10 03.99498        4.708   0.154   7.072  -0.029   0.340   0.891   0.088   1.1179838977   0.8229736586 -10.6325042663 2
1621307849.00 2158.00000 184667.00   22 19 07.42342  114 10 03.95023        4.748   0.180   7.007  -0.028  -0.346   0.838  -0.257   1.2507095710   0.2632683773 -13.0955925318 2
1621307850.00 2158.00000 184668.00   22 19 07.64634  114 10 03.89482        4.749   0.199   7.204  -0.058  -0.576   1.342  -0.324   1.1141679988   0.5996977354 -15.1024287755 2
1621307851.00 2158.00000 184669.00   22 19 07.88070  114 10 03.83221        4.761   0.243   7.575  -0.167   0.854   2.977  -0.661   0.9002026398   1.2514544161 -15.3561115688 2
1621307852.00 2158.00000 184670.00   22 19 08.12722  114 10 03.76532        4.837   0.218   7.960  -0.051  -1.116   2.289   6.165   0.5936243828   0.8803725705 -15.5903195267 2
1621307853.00 2158.00000 184671.00   22 19 08.38130  114 10 03.69440        4.862   0.190   8.109  -0.030  -1.664   1.466  -2.961  -0.2803425196   0.6897323234 -15.7905052508 3
1621307854.00 2158.00000 184672.00   22 19 08.63801  114 10 03.62305        4.854   0.159   7.992  -0.029  -2.149  -5.362  -1.209   0.0560123541   0.0622232166 -15.8315061106 3
1621307855.00 2158.00000 184673.00   22 19 08.89003  114 10 03.55024        4.766   0.292   8.028   0.001   6.540  -0.484  -4.141  -0.9306037804   0.8626567155 -16.4053405312 3
1621307856.00 2158.00000 184674.00   22 19 09.13685  114 10 03.47857        4.787   0.248   7.702  -0.005  -0.677  -0.650  -1.425  -0.2459478631   0.6103031842 -16.6834198674 3
1621307857.00 2158.00000 184675.00   22 19 09.37379  114 10 03.40851        4.791   0.309   7.279   0.041  -0.615  -2.548   0.034  -0.1436920854   0.2557798189 -16.7049287031 3
1621307858.00 2158.00000 184676.00   22 19 09.59242  114 10 03.34438        4.769   0.195   6.618   0.027  -0.603  -0.006  -0.118  -1.1926173801   0.3737002627 -16.2035390661 3
1621307859.00 2158.00000 184677.00   22 19 09.79561  114 10 03.28891        4.759   0.222   6.239   0.036  -0.269  -1.278   0.740  -1.1515764133   0.4491530748 -15.2862966615 3
1621307860.00 2158.00000 184678.00   22 19 09.99106  114 10 03.24075        4.759   0.188   6.033   0.056   0.712  -1.049  -0.587  -1.4493425794   0.3453732293 -13.5827785450 3
1621307861.00 2158.00000 184679.00   22 19 10.17921  114 10 03.20033        4.752   0.152   5.736   0.058   1.866   0.528   0.633  -1.9334689980   0.2856366496 -12.2097997805 3
1621307862.00 2158.00000 184680.00   22 19 10.35696  114 10 03.16542        4.769   0.214   5.322   0.033   1.310  -0.733  -1.145  -1.7252332169   0.6352841441 -11.7421458986 3
1621307863.00 2158.00000 184681.00   22 19 10.51904  114 10 03.13570        4.788   0.225   4.724   0.059   0.132  -0.298  -0.087  -1.4611455100   0.3673347016 -10.9897663699 3
1621307864.00 2158.00000 184682.00   22 19 10.66236  114 10 03.11105        4.815   0.226   4.197   0.063   0.207  -1.020  -0.691  -1.2305987524   0.4879480471 -10.4862109525 4
1621307865.00 2158.00000 184683.00   22 19 10.78643  114 10 03.09023        4.854   0.126   3.465   0.054   0.370  -1.196  -0.504  -1.1773022183   0.5004958228 -10.3989895873 4
1621307866.00 2158.00000 184684.00   22 19 10.88504  114 10 03.07380        4.895   0.121   2.631   0.094   0.720  -0.788  -0.102  -1.1667196878   0.6752250320 -10.3925953783 4
1621307867.00 2158.00000 184685.00   22 19 10.95786  114 10 03.06181        4.938   0.094   1.932   0.093  -0.052  -0.389  -0.464  -1.0784784578   0.5879291823 -10.3582981247 4
1621307868.00 2158.00000 184686.00   22 19 11.01425  114 10 03.05278        4.972   0.090   1.605   0.120   0.090  -0.083   0.190  -0.8762644631   0.3328082649 -10.3454237631 4
1621307869.00 2158.00000 184687.00   22 19 11.06074  114 10 03.04530        5.007   0.105   1.225   0.107   0.131  -0.462  -0.099  -0.8973550396   0.2671931382 -10.3195489890 3
1621307870.00 2158.00000 184688.00   22 19 11.09615  114 10 03.03978        5.031   0.099   1.008   0.114   0.172  -0.307   0.057  -0.9205770190   0.5736338853 -10.2948487785 3
1621307871.00 2158.00000 184689.00   22 19 11.12683  114 10 03.03518        5.063   0.102   0.872   0.116   0.571   0.056  -0.018  -0.9152657003   0.6147149592 -10.2506336254 2
1621307872.00 2158.00000 184690.00   22 19 11.15397  114 10 03.03123        5.088   0.093   0.783   0.119  -0.163   0.020  -0.102  -0.9469731846   0.6093692630 -10.0914430316 2
1621307873.00 2158.00000 184691.00   22 19 11.17899  114 10 03.02798        5.054   0.087   0.821   0.109   0.341   0.376  -0.156  -0.9292573296   0.7315639720 -10.0394471117 3
1621307874.00 2158.00000 184692.00   22 19 11.21002  114 10 03.02343        5.046   0.090   0.971   0.115   0.321  -0.296  -0.054  -0.9974106593   0.6822953312 -10.0360265537 3
1621307875.00 2158.00000 184693.00   22 19 11.24442  114 10 03.01830        5.067   0.097   1.132   0.116  -0.342   0.014   0.447  -0.8824524073   0.6815848635  -9.9997583253 3
1621307876.00 2158.00000 184694.00   22 19 11.27356  114 10 03.01376        5.121   0.067   0.646   0.109   0.140  -0.414  -0.172  -0.8739325249   0.5263820560  -9.9271473839 3
1621307877.00 2158.00000 184695.00   22 19 11.29216  114 10 03.01077        5.197   0.068   0.562   0.116   0.167  -0.037   0.084  -0.8967935409   0.5773008152  -9.9575026879 2
1621307878.00 2158.00000 184696.00   22 19 11.31246  114 10 03.00778        5.214   0.075   0.740   0.116  -0.319   0.174   0.080  -0.8565489854   0.5482633142 -10.0438015910 2
1621307879.00 2158.00000 184697.00   22 19 11.33723  114 10 03.00399        5.229   0.065   0.883   0.110  -0.132   0.325  -0.134  -0.8558385177   0.5247032896 -10.0469643180 2
1621307880.00 2158.00000 184698.00   22 19 11.36888  114 10 02.99920        5.248   0.074   1.079   0.107  -0.208   0.127   0.108  -0.7392358769   0.5456105196  -9.9464789799 2
1621307881.00 2158.00000 184699.00   22 19 11.40660  114 10 02.99323        5.288   0.051   1.249   0.096  -0.013  -0.206   0.012  -0.7329046932   0.6181297877  -9.8548343806 2
1621307882.00 2158.00000 184700.00   22 19 11.44861  114 10 02.98658        5.308   0.076   1.330   0.113  -0.204   0.118   0.051  -0.6713346486   0.6218081767 -10.0785400221 2
1621307883.00 2158.00000 184701.00   22 19 11.49199  114 10 02.97926        5.344   0.073   1.367   0.110   0.202   0.193  -0.055  -0.5869723428   0.6598468448 -10.5280827082 2
1621307884.00 2158.00000 184702.00   22 19 11.53518  114 10 02.97174        5.404   0.095   1.332   0.096   0.001   0.016  -0.017  -0.3481749929   0.8510142131 -10.8750544897 2
1621307885.00 2158.00000 184703.00   22 19 11.57619  114 10 02.96449        5.439   0.057   1.287   0.108   0.359  -0.136  -0.261  -0.5080244882   0.8089648405 -10.6307510155 2
1621307886.00 2158.00000 184704.00   22 19 11.61965  114 10 02.95738        5.419   0.103   1.359   0.094  -0.314   0.809   0.185  -0.5544340696   0.4361984990 -10.3938272376 4
1621307887.00 2158.00000 184705.00   22 19 11.66498  114 10 02.95007        5.488   0.058   1.438   0.107  -0.251   0.466  -0.239  -0.4978372986   0.3698614455 -10.0311793307 2
1621307888.00 2158.00000 184706.00   22 19 11.71288  114 10 02.94194        5.515   0.090   1.534   0.108  -0.108  -0.319  -0.077  -0.8237586108   0.6215045091 -10.0715098299 2
1621307889.00 2158.00000 184707.00   22 19 11.76337  114 10 02.93385        5.547   0.077   1.598   0.101  -0.038   0.316   0.172  -0.6271596026   0.4533757737 -10.1633377758 2
1621307890.00 2158.00000 184708.00   22 19 11.81642  114 10 02.92467        5.580   0.077   1.675   0.134   0.508  -0.152   0.923  -0.8220970332   0.4451137223 -10.3871236314 2
1621307891.00 2158.00000 184709.00   22 19 11.87086  114 10 02.91496        5.605   0.023   1.737   0.089   0.958   0.815  -0.067  -0.8819023678   0.6396271642 -10.7464197351 2
1621307892.00 2158.00000 184710.00   22 19 11.92991  114 10 02.90460        5.639   0.080   1.965   0.114   0.252   0.366  -0.179  -0.7431663673   0.3387498372 -10.7703292639 2
1621307893.00 2158.00000 184711.00   22 19 11.99451  114 10 02.89338        5.676   0.040   2.023   0.107   0.375  -0.132   0.104  -0.4853124412   0.2936809771 -10.6839272284 2
1621307894.00 2158.00000 184712.00   22 19 12.05927  114 10 02.88203        5.642   0.067   1.981   0.110  -0.044  -0.424   0.298  -0.6264434053   0.1173302973 -10.5452714420 3
1621307895.00 2158.00000 184713.00   22 19 12.11461  114 10 02.87277        5.710   0.066   1.468   0.118  -0.363  -0.552  -0.145  -0.3553713429   0.0315757041 -10.4215125583 2
1621307896.00 2158.00000 184714.00   22 19 12.15407  114 10 02.86603        5.734   0.055   0.935   0.110  -0.623  -0.667   0.162  -0.3158830916   0.3204954019 -10.3130631068 2
1621307897.00 2158.00000 184715.00   22 19 12.17570  114 10 02.86245        5.761   0.042   0.397   0.116   0.333  -0.744  -0.028  -0.1761730628   0.3668190396 -10.2560767245 2
1621307898.00 2158.00000 184716.00   22 19 12.18143  114 10 02.86129        5.785   0.033  -0.003   0.116  -0.344  -0.176   0.018  -0.2440914799   0.4711718428 -10.2324708633 2
1621307899.00 2158.00000 184717.00   22 19 12.18189  114 10 02.86110        5.810   0.027   0.006   0.112   0.492  -0.044   0.005  -0.2391353950   0.4837196185 -10.2328948521 2
1621307900.00 2158.00000 184718.00   22 19 12.18247  114 10 02.86089        5.831   0.033   0.008   0.106   0.381   0.090  -0.021  -0.2376800822   0.4866073258 -10.2336167789 2
1621307901.00 2158.00000 184719.00   22 19 12.18458  114 10 02.86045        5.847   0.035   0.223   0.100   0.416   0.311   0.024  -0.2414501444   0.5656182058 -10.2320583337 2
1621307902.00 2158.00000 184720.00   22 19 12.19922  114 10 02.85800        5.864   0.051   0.656   0.097  -0.116   0.465  -0.031  -0.2320880141   0.5676350172 -10.1776903685 2
1621307903.00 2158.00000 184721.00   22 19 12.22916  114 10 02.85337        5.878   0.070   1.260   0.088   0.261   0.589  -0.033  -0.0504546634   0.5768997448  -9.8783313797 2
1621307904.00 2158.00000 184722.00   22 19 12.27626  114 10 02.84634        5.891   0.079   1.320   0.083   0.402  -0.951  -0.008  -0.0254908923   0.3437402996  -9.2906714876 2
1621307905.00 2158.00000 184723.00   22 19 12.30610  114 10 02.84210        5.900   0.047   0.533   0.086   0.138  -0.587  -0.119  -0.0550211371   0.3861735539  -8.9407203255 2
1621307906.00 2158.00000 184724.00   22 19 12.31745  114 10 02.84062        5.909   0.032   0.148   0.082   0.070  -0.427   0.003   0.0564993682   0.4393726852  -8.8183193517 2
1621307907.00 2158.00000 184725.00   22 19 12.31902  114 10 02.84034        5.917   0.024   0.016   0.080   0.264  -0.202  -0.032   0.0625727208   0.4748788798  -8.8078514128 2
1621307908.00 2158.00000 184726.00   22 19 12.32160  114 10 02.83987        5.924   0.031   0.219   0.078  -0.222   0.413  -0.020   0.0528840045   0.5264679996  -8.7759204749 2
1621307909.00 2158.00000 184727.00   22 19 12.33574  114 10 02.83785        5.929   0.045   0.629   0.066  -0.309   0.446   0.087   0.0123071334   0.5700528991  -8.5942298285 2
1621307910.00 2158.00000 184728.00   22 19 12.36286  114 10 02.83471        5.932   0.072   0.995   0.063   0.029   0.287  -0.119   0.0071734316   0.4845962440  -7.4565476417 2
1621307911.00 2158.00000 184729.00   22 19 12.39833  114 10 02.83159        5.936   0.063   1.030   0.063  -0.553  -0.196   0.010   0.0185237255   0.4672585411  -5.9323653151 2
1621307912.00 2158.00000 184730.00   22 19 12.42937  114 10 02.82939        5.938   0.061   0.923   0.048  -0.074   0.578   0.169   0.1365759496   0.5714795640  -5.1516816713 2
1621307913.00 2158.00000 184731.00   22 19 12.46577  114 10 02.82645        5.937   0.013   1.258   0.042   0.047   0.072  -0.015   0.1023818284   0.6684641300  -5.3777822765 2
1621307914.00 2158.00000 184732.00   22 19 12.50687  114 10 02.82228        5.940   0.023   1.082   0.055   0.593  -0.598  -0.142   0.0814688689   0.5568691402  -6.5658962083 2
1621307915.00 2158.00000 184733.00   22 19 12.53506  114 10 02.81860        5.941   0.033   0.785   0.056   0.463  -0.184   0.036   0.1006113888   0.6241171967  -7.6883434473 2
1621307916.00 2158.00000 184734.00   22 19 12.55842  114 10 02.81535        5.941   0.016   0.788   0.047   0.349   0.217   0.068   0.0570379485   0.6215216978  -8.0794043312 2
1621307917.00 2158.00000 184735.00   22 19 12.57616  114 10 02.81281        5.941   0.007   0.108   0.046   0.008  -0.914  -0.054   0.0844024128   0.5204290245  -8.2457110608 2
1621307918.00 2158.00000 184736.00   22 19 12.57680  114 10 02.81256        5.939   0.006  -0.001   0.046  -0.494   0.026  -0.028   0.1114689390   0.5965579267  -8.2498821936 2
1621307919.00 2158.00000 184737.00   22 19 12.57734  114 10 02.81227        5.935   0.007  -0.000   0.041   0.214   0.039   0.012   0.1094005614   0.5948447829  -8.2508848697 2
1621307920.00 2158.00000 184738.00   22 19 12.57827  114 10 02.81196        5.928   0.005   0.097   0.034  -0.042   0.494   0.007   0.1181324382   0.6638289014  -8.2569295745 2
1621307921.00 2158.00000 184739.00   22 19 12.58855  114 10 02.81045        5.924   0.012   0.511   0.028  -0.291   0.362  -0.073   0.1366103271   0.6434602518  -8.3818687513 2
1621307922.00 2158.00000 184740.00   22 19 12.61190  114 10 02.80736        5.921   0.034   0.879   0.026  -0.026   0.424   0.156   0.2738337190   0.6031698597  -8.4654919415 2
1621307923.00 2158.00000 184741.00   22 19 12.64624  114 10 02.80261        5.916   0.019   1.125   0.028   0.610  -0.388   0.046   0.1933102305   0.4948006223  -8.5331296092 2
1621307924.00 2158.00000 184742.00   22 19 12.67311  114 10 02.79911        5.913   0.012   0.511   0.027  -0.101  -0.466  -0.052   0.3346932960   0.3419870488  -8.6030018123 2
1621307925.00 2158.00000 184743.00   22 19 12.68208  114 10 02.79793        5.905   0.005   0.039   0.022  -0.155  -0.356  -0.083   0.3180546017   0.3520653764  -8.6141343823 2
1621307926.00 2158.00000 184744.00   22 19 12.68224  114 10 02.79801        5.898   0.003  -0.009   0.020   0.577   0.057  -0.076   0.3430584798   0.3819222071  -8.6145984781 2
1621307927.00 2158.00000 184745.00   22 19 12.68237  114 10 02.79805        5.865  -0.000  -0.007   0.014  -0.513  -0.102  -0.018   0.3467655168   0.3777969110  -8.6159678472 2
1621307928.00 2158.00000 184746.00   22 19 12.68247  114 10 02.79805        5.743  -0.001  -0.001   0.007   0.317  -0.061  -0.043   0.3451268575   0.3784500828  -8.6159850359 2
1621307929.00 2158.00000 184747.00   22 19 12.68247  114 10 02.79805        5.741   0.004   0.002   0.006   0.324  -0.005   0.043   0.3454305251   0.3791891984  -8.6166553966 2
1621307930.00 2158.00000 184748.00   22 19 12.68247  114 10 02.79805        5.741   0.001  -0.000   0.003  -0.454   0.152   0.045   0.3474989027   0.3817331310  -8.6173257572 2
1621307931.00 2158.00000 184749.00   22 19 12.68247  114 10 02.79805        5.741  -0.003  -0.002   0.004  -0.055   0.025  -0.039   0.3485073085   0.3796876717  -8.6170564670 2
1621307932.00 2158.00000 184750.00   22 19 12.68247  114 10 02.79805        5.741   0.000  -0.003   0.005   0.602  -0.073  -0.029   0.3456196012   0.3816643761  -8.6171882473 2
1621307933.00 2158.00000 184751.00   22 19 12.68247  114 10 02.79805        5.741   0.004  -0.002   0.005   0.079   0.052  -0.067   0.3483927169   0.3842999819  -8.6175262924 2
1621307934.00 2158.00000 184752.00   22 19 12.68247  114 10 02.79805        5.741   0.001  -0.002   0.005  -0.457   0.125  -0.018   0.3461352632   0.3847526186  -8.6176351544 2
1621307935.00 2158.00000 184753.00   22 19 12.68247  114 10 02.79805        5.741   0.004  -0.002   0.003   0.547   0.056   0.102   0.3497907339   0.3858870750  -8.6176351544 2
1621307936.00 2158.00000 184754.00   22 19 12.68247  114 10 02.79805        5.741   0.002  -0.002   0.001   0.350  -0.053   0.015   0.3494698776   0.3862022018  -8.6189071207 2
1621307937.00 2158.00000 184755.00   22 19 12.68247  114 10 02.79805        5.742   0.003  -0.001  -0.001  -0.262  -0.018  -0.049   0.3497907339   0.3874913568  -8.6190389010 2
1621307938.00 2158.00000 184756.00   22 19 12.68247  114 10 02.79805        5.742   0.000   0.001  -0.002  -0.429   0.015  -0.018   0.3495443621   0.3877090808  -8.6190159827 2
1621307939.00 2158.00000 184757.00   22 19 12.68247  114 10 02.79805        5.742  -0.003   0.003  -0.001  -0.481   0.061   0.162   0.3497506269   0.3871475822  -8.6192508954 2
1621307940.00 2158.00000 184758.00   22 19 12.68247  114 10 02.79805        5.742  -0.001   0.003  -0.002  -0.640   0.011  -0.049   0.3503235847   0.3874798977  -8.6196003996 2
1621307941.00 2158.00000 184759.00   22 19 12.68247  114 10 02.79805        5.742  -0.003   0.005   0.001  -0.400   0.016  -0.038   0.3456024124   0.3863569004  -8.6206145349 2
1621307942.00 2158.00000 184760.00   22 19 12.68245  114 10 02.79805        5.742  -0.001   0.006   0.002  -0.052   0.036  -0.027   0.3471150210   0.3879153456  -8.6201790870 3
1621307943.00 2158.00000 184761.00   22 19 12.68245  114 10 02.79805        5.742  -0.004   0.004   0.000  -0.627   0.081  -0.043   0.3500428354   0.3872048779  -8.6211130082 3
1621307944.00 2158.00000 184762.00   22 19 12.68244  114 10 02.79805        5.742  -0.006   0.002  -0.001  -0.365  -0.156  -0.010   0.3445653588   0.3848442918  -8.6207806927 3
1621307945.00 2158.00000 184763.00   22 19 12.68243  114 10 02.79805        5.744  -0.008   0.002  -0.001   0.215  -0.040   0.073   0.3430241024   0.3852797398  -8.6204884842 3
1621307946.00 2158.00000 184764.00   22 19 12.68240  114 10 02.79805        5.751  -0.010  -0.001  -0.002   0.247   0.182   0.060   0.3453732293   0.3870215315  -8.6206202645 3
1621307947.00 2158.00000 184765.00   22 19 12.68238  114 10 02.79806        5.758  -0.012  -0.002  -0.000   0.547  -0.053  -0.004   0.3385263837   0.3856407032  -8.6216172111 3
1621307948.00 2158.00000 184766.00   22 19 12.68235  114 10 02.79806        5.764  -0.013  -0.001   0.001   0.460  -0.041   0.031   0.3406004909   0.3849416947  -8.6218635829 3
1621307949.00 2158.00000 184767.00   22 19 12.68532  114 10 02.79742        5.762  -0.009   0.291   0.002   0.124   0.334  -0.020   0.3568323852   0.4278275856  -8.6272436566 3
1621307950.00 2158.00000 184768.00   22 19 12.70172  114 10 02.79471        5.753  -0.006   0.785  -0.010   0.153   0.420   0.149   0.4352760370   0.4756982094  -8.5818596697 4
1621307951.00 2158.00000 184769.00   22 19 12.73323  114 10 02.78981        5.744   0.021   1.133  -0.015   0.051   0.362  -0.240   0.4593517235   0.4696592342  -8.5900415070 4
1621307952.00 2158.00000 184770.00   22 19 12.77527  114 10 02.78371        5.732   0.059   1.588  -0.015  -0.009   0.624   0.068   0.4082553473   0.5738917163  -7.9243046561 4
1621307953.00 2158.00000 184771.00   22 19 12.83842  114 10 02.77769        5.726   0.014   2.221  -0.038   0.482   0.401  -0.171   0.4299016928   0.6580649460  -5.4656453543 4
1621307954.00 2158.00000 184772.00   22 19 12.92462  114 10 02.77057        5.722   0.062   3.073  -0.008  -0.384   0.634   0.030   0.4854614102   0.6547876274  -5.5879947619 4
1621307955.00 2158.00000 184773.00   22 19 13.02763  114 10 02.75844        5.716   0.043   3.153  -0.034   0.355   0.210  -0.633   0.6043673415   0.3063376147  -8.0508022781 3
1621307956.00 2158.00000 184774.00   22 19 13.12493  114 10 02.74265        5.706   0.053   2.967  -0.022  -0.108   0.077   0.299   0.5992852058   0.7498699735  -9.8903749526 3
1621307957.00 2158.00000 184775.00   22 19 13.22359  114 10 02.72537        5.717   0.020   3.089   0.008  -0.304   0.114   0.603   0.7704563471   0.3052088879 -10.0712348102 4
1621307958.00 2158.00000 184776.00   22 19 13.31764  114 10 02.71157        5.711   0.119   2.701  -0.018   0.308  -1.081   0.102   0.6464568211   0.2345918396  -7.1770015335 4
1621307959.00 2158.00000 184777.00   22 19 13.39398  114 10 02.70966        5.707   0.170   2.120   0.010   0.059  -0.567   0.419   0.9062702629   0.0949620250  -0.1569793881 4
1621307960.00 2158.00000 184778.00   22 19 13.45743  114 10 02.71933        5.704   0.131   1.873   0.018   0.042   0.356   0.055   1.2871726051   0.3576975515   9.4143268276 4
1621307961.00 2158.00000 184779.00   22 19 13.52363  114 10 02.74580        5.707   0.251   2.604  -0.048   0.993   1.186   0.659   1.4010708852   1.0175272075  22.4849551769 3
1621307962.00 2158.00000 184780.00   22 19 13.60314  114 10 02.80903        5.738   0.362   3.467  -0.018   0.500   0.488   0.321   1.3362922768   1.6430767987  41.3039430340 3
1621307963.00 2158.00000 184781.00   22 19 13.66564  114 10 02.90951        5.808   0.311   3.472   0.018   1.438  -0.031   0.076   1.9388261534   1.3024591190  60.9165118149 3
1621307964.00 2158.00000 184782.00   22 19 13.69977  114 10 03.02139        5.857   0.112   3.256  -0.004   0.775  -0.620   0.075   2.4368181506   1.0772695168  73.8886544488 4
1621307965.00 2158.00000 184783.00   22 19 13.71756  114 10 03.12318        5.903   0.070   2.497   0.025   0.679  -1.248   0.061   2.4464954077   0.7418944010  78.6383943563 3
1621307966.00 2158.00000 184784.00   22 19 13.72666  114 10 03.18847        5.933   0.063   1.419   0.017  -0.444  -0.592   0.285   2.7146339263   0.8611498365  79.6354383227 2
1621307967.00 2158.00000 184785.00   22 19 13.73122  114 10 03.22278        5.963   0.009   0.618   0.034   0.003  -0.584   0.067   2.8242121046   0.6790008239  79.6858528791 2
1621307968.00 2158.00000 184786.00   22 19 13.73325  114 10 03.23791        5.990   0.016   0.387   0.028   0.230   0.438   0.036   2.7706806578   0.6966192761  79.6679479480 3
1621307969.00 2158.00000 184787.00   22 19 13.73535  114 10 03.25413        6.017   0.036   0.579   0.030  -0.098   0.201   0.073   2.8595177639   0.6209258217  79.5328330407 3
1621307970.00 2158.00000 184788.00   22 19 13.73855  114 10 03.27669        6.039   0.023   0.838   0.015   0.040   0.265   0.038   2.8939238795   0.7487011396  79.3399811765 3
1621307971.00 2158.00000 184789.00   22 19 13.74337  114 10 03.31015        6.062   0.028   1.236   0.006   0.333   0.774   0.359   2.9332115955   0.9705503979  79.3786214502 3
1621307972.00 2158.00000 184790.00   22 19 13.75121  114 10 03.36379        6.090   0.032   1.751   0.009   0.381   0.542   0.008   2.8398939595   0.8790834155  79.5213738848 2
1621307973.00 2158.00000 184791.00   22 19 13.76030  114 10 03.42337        6.117   0.044   1.624   0.009  -0.205  -0.187   0.077   2.7138203262   0.6455801957  79.1544287945 2
1621307974.00 2158.00000 184792.00   22 19 13.76736  114 10 03.46737        6.142   0.027   0.976   0.020   0.046  -0.605  -0.176   2.5970114205   0.7202881626  78.8034520380 2
1621307975.00 2158.00000 184793.00   22 19 13.77130  114 10 03.49103        6.163   0.011   0.459   0.017   0.451  -0.667  -0.069   2.5896890199   0.7886305684  78.6604704202 2
1621307976.00 2158.00000 184794.00   22 19 13.77249  114 10 03.49711        6.181   0.004  -0.017   0.022   0.034   0.348   0.127   2.5493356024   0.8673091328  78.6342461419 2
1621307977.00 2158.00000 184795.00   22 19 13.77268  114 10 03.49645        6.199   0.002  -0.001   0.017  -0.372   0.058  -0.028   2.5526186506   0.8857469146  78.6328538545 2
1621307978.00 2158.00000 184796.00   22 19 13.77312  114 10 03.49587        6.214  -0.001   0.000   0.014   0.659   0.127   0.064   2.5508653997   0.8863599795  78.6319829586 2
1621307979.00 2158.00000 184797.00   22 19 13.77371  114 10 03.49537        6.226   0.003   0.001   0.012  -0.152   0.056  -0.036   2.5556037607   0.8836785370  78.6319142037 3
1621307980.00 2158.00000 184798.00   22 19 13.77370  114 10 03.49516        6.224  -0.003  -0.002   0.011  -0.431  -0.079  -0.058   2.5540739634   0.8819825819  78.6320230657 3
1621307981.00 2158.00000 184799.00   22 19 13.77370  114 10 03.49516        6.221  -0.001  -0.003   0.008   0.515  -0.116   0.017   2.5554490621   0.8807048861  78.6316621023 4
1621307982.00 2158.00000 184800.00   22 19 13.77370  114 10 03.49516        6.221  -0.000  -0.001   0.008  -0.055  -0.010   0.021   2.5523035238   0.8853057371  78.6320803614 4
1621307983.00 2158.00000 184801.00   22 19 13.77370  114 10 03.49516        6.221  -0.001  -0.001   0.005  -0.509   0.114  -0.056   2.5566178960   0.8851338498  78.6328080178 4
1621307984.00 2158.00000 184802.00   22 19 13.77370  114 10 03.49516        6.221  -0.005  -0.002   0.004   0.066   0.030   0.006   2.5537416478   0.8842916018  78.6325902939 4
1621307985.00 2158.00000 184803.00   22 19 13.77370  114 10 03.49516        6.221   0.000  -0.001   0.004   0.330  -0.097  -0.024   2.5532546337   0.8844921371  78.6326991559 4
1621307986.00 2158.00000 184804.00   22 19 13.77370  114 10 03.49516        6.221  -0.005   0.001   0.005  -0.572  -0.092   0.014   2.5597061385   0.8849505033  78.6320975502 4
1621307987.00 2158.00000 184805.00   22 19 13.77370  114 10 03.49516        6.221  -0.002   0.002   0.002  -0.085  -0.014   0.027   2.5543604423   0.8843317089  78.6317938825 4
1621307988.00 2158.00000 184806.00   22 19 13.77370  114 10 03.49516        6.221  -0.001   0.002   0.002   0.544   0.049   0.039   2.5497366728   0.8880788529  78.6313985417 4
1621307989.00 2158.00000 184807.00   22 19 13.77370  114 10 03.49516        6.221   0.001  -0.003  -0.001  -0.015  -0.043   0.014   2.5502809828   0.8851510385  78.6317308572 4
1621307990.00 2158.00000 184808.00   22 19 13.77370  114 10 03.49516        6.221   0.002   0.002   0.001  -0.544  -0.133  -0.041   2.5529452365   0.8872881711  78.6324069474 3
1621307991.00 2158.00000 184809.00   22 19 13.77370  114 10 03.49516        6.221  -0.007   0.006   0.001  -0.445  -0.004  -0.067   2.5534093323   0.8868985598  78.6312438431 3
1621307992.00 2158.00000 184810.00   22 19 13.77370  114 10 03.49516        6.221  -0.001  -0.001  -0.001  -0.195   0.034  -0.016   2.5557527297   0.8853687625  78.6307797473 3
1621307993.00 2158.00000 184811.00   22 19 13.77370  114 10 03.49516        6.221  -0.001   0.003  -0.003  -0.453  -0.021  -0.171   2.5549677775   0.8885486783  78.6316277248 3
1621307994.00 2158.00000 184812.00   22 19 13.77370  114 10 03.49516        6.221  -0.002  -0.000  -0.005   0.116  -0.007  -0.041   2.5506190279   0.8872537936  78.6308255839 4
1621307995.00 2158.00000 184813.00   22 19 13.77370  114 10 03.49516        6.221   0.001   0.005  -0.005  -0.140   0.019  -0.100   2.5500919067   0.8879986388  78.6310490374 4
1621307996.00 2158.00000 184814.00   22 19 13.77370  114 10 03.49516        6.221  -0.002   0.001  -0.005   0.152   0.023  -0.017   2.5559761832   0.8877121599  78.6302984627 4
1621307997.00 2158.00000 184815.00   22 19 13.77370  114 10 03.49516        6.221   0.001   0.005  -0.006  -0.406   0.006  -0.072   2.5468031289   0.8873913035  78.6294562147 4
1621307998.00 2158.00000 184816.00   22 19 13.77370  114 10 03.49516        6.221   0.002   0.001  -0.005  -0.681  -0.166  -0.013   2.5544120085   0.8836441595  78.6299661472 4
1621307999.00 2158.00000 184817.00   22 19 13.77370  114 10 03.49516        6.221  -0.003  -0.002  -0.008   0.043  -0.046   0.043   2.5580216426   0.8897576192  78.6300119838 3
1621308000.00 2158.00000 184818.00   22 19 13.77370  114 10 03.49516        6.221   0.002   0.002  -0.010   0.596   0.024   0.049   2.5513352251   0.8897576192  78.6303271106 3
1621308001.00 2158.00000 184819.00   22 19 13.77370  114 10 03.49516        6.221   0.007  -0.004  -0.011   0.206   0.017  -0.043   2.5561308818   0.8910754221  78.6312782205 3
1621308002.00 2158.00000 184820.00   22 19 13.77370  114 10 03.49516        6.223  -0.002   0.002  -0.012   0.507   0.036  -0.009   2.5584971975   0.8972060706  78.6296567500 2
1621308003.00 2158.00000 184821.00   22 19 13.77369  114 10 03.49515        6.230   0.002  -0.001  -0.015   0.534   0.073  -0.021   2.5589326455   0.8903936024  78.6292499499 3
1621308004.00 2158.00000 184822.00   22 19 13.77369  114 10 03.49515        6.236   0.001  -0.007  -0.015   0.372  -0.186   0.058   2.5608176766   0.8896659460  78.6289119048 2
