% program   : RTKPOST ver.2.4.2
% inp file  : D:\ligo\urbannav\UrbanNav-HK-Deep-Urban-1-Whampoa0521.ublox.f9p.obs
% inp file  : D:\ligo\urbannav\dataWha.rnx
% inp file  : D:\ligo\urbannav\igr0522.sp3
% obs start : 2021/05/21 06:29:06.0 GPST (week2158 455346.0s)
% obs end   : 2021/05/21 06:54:39.0 GPST (week2158 456879.0s)
% pos mode  : ppp-kinematic
% solution  : forward
% elev mask : 15.0 deg
% dynamics  : off
% tidecorr  : on
% tropo opt : est ztd+grad
% ephemeris : precise
% navi sys  : gps glonass galileo
% antenna1  :                       ( 0.0000  0.0000  0.0000)
%
% (x/y/z-ecef=WGS84,Q=1:fix,2:float,3:sbas,4:dgps,5:single,6:ppp,ns=# of satellites)
%  GPST              x-ecef(m)      y-ecef(m)      z-ecef(m)   Q  ns   sdx(m)   sdy(m)   sdz(m)  sdxy(m)  sdyz(m)  sdzx(m) age(s)  ratio
2158 455346.000  -2419236.1830   5385474.6144   2405345.6922   5   7   3.0383   4.5999   3.0618  -2.1698   2.7417  -0.9621   0.00    0.0
2158 455347.000  -2419236.2294   5385474.6462   2405345.7811   5   7   3.0384   4.5994   3.0619  -2.1696   2.7417  -0.9625   0.00    0.0
2158 455348.000  -2419236.0375   5385474.8270   2405345.8619   5   7   3.0385   4.5990   3.0619  -2.1694   2.7417  -0.9629   0.00    0.0
2158 455349.000  -2419235.1870   5385475.0957   2405345.6980   5   7   3.0386   4.5986   3.0619  -2.1692   2.7417  -0.9633   0.00    0.0
2158 455350.000  -2419234.1059   5385475.4830   2405345.7223   5   7   3.0387   4.5982   3.0620  -2.1690   2.7418  -0.9638   0.00    0.0
2158 455351.000  -2419232.9339   5385475.8709   2405346.0595   5   7   3.0388   4.5977   3.0620  -2.1688   2.7418  -0.9642   0.00    0.0
2158 455352.000  -2419231.7954   5385475.8161   2405346.9827   5   7   3.0389   4.5973   3.0621  -2.1686   2.7418  -0.9646   0.00    0.0
2158 455353.000  -2419230.9054   5385475.5504   2405348.0858   5   7   3.0390   4.5969   3.0621  -2.1685   2.7419  -0.9650   0.00    0.0
2158 455354.000  -2419229.7872   5385475.2237   2405349.3121   5   7   3.0391   4.5965   3.0622  -2.1683   2.7419  -0.9655   0.00    0.0
2158 455355.000  -2419229.7683   5385475.9379   2405351.4326   5   8   2.6822   4.3810   2.8297  -1.6476   2.4273   0.8602   0.00    0.0
2158 455356.000  -2419228.8051   5385475.4393   2405352.6582   5   8   2.6821   4.3806   2.8298  -1.6473   2.4274   0.8599   0.00    0.0
2158 455357.000  -2419227.1836   5385474.2034   2405353.5482   5   8   2.6821   4.3803   2.8299  -1.6470   2.4275   0.8596   0.00    0.0
2158 455358.000  -2419225.1999   5385475.2131   2405357.9185   5   8   2.6821   4.3799   2.8299  -1.6467   2.4277   0.8592   0.00    0.0
2158 455359.000  -2419223.2754   5385473.2317   2405359.6257   5   8   2.6820   4.3796   2.8300  -1.6465   2.4278   0.8589   0.00    0.0
2158 455360.000  -2419220.4617   5385474.5376   2405364.7971   5   8   2.6820   4.3792   2.8301  -1.6462   2.4279   0.8586   0.00    0.0
2158 455361.000  -2419218.6157   5385473.5357   2405369.3078   5   8   2.6820   4.3788   2.8301  -1.6459   2.4280   0.8583   0.00    0.0
2158 455362.000  -2419216.3306   5385472.8586   2405374.2077   5   8   2.6819   4.3785   2.8302  -1.6457   2.4281   0.8580   0.00    0.0
2158 455363.000  -2419213.5037   5385471.8375   2405379.8175   5   8   2.6819   4.3781   2.8303  -1.6454   2.4282   0.8577   0.00    0.0
2158 455364.000  -2419210.5408   5385471.0098   2405385.4713   5   8   2.6819   4.3778   2.8303  -1.6451   2.4283   0.8574   0.00    0.0
2158 455365.000  -2419204.5064   5385466.9668   2405388.4707   5   7   3.0404   4.5920   3.0627  -2.1663   2.7423  -0.9702   0.00    0.0
2158 455366.000  -2419200.8466   5385467.1062   2405393.9820   5   7   3.0405   4.5916   3.0627  -2.1661   2.7423  -0.9706   0.00    0.0
2158 455367.000  -2419197.7243   5385466.2092   2405399.1401   5   7   3.0407   4.5912   3.0628  -2.1659   2.7424  -0.9711   0.00    0.0
2158 455368.000  -2419194.6462   5385466.6431   2405403.9172   5   7   3.0408   4.5908   3.0628  -2.1657   2.7424  -0.9715   0.00    0.0
2158 455369.000  -2419191.2919   5385465.9619   2405408.8710   5   7   3.0409   4.5904   3.0629  -2.1655   2.7424  -0.9719   0.00    0.0
2158 455370.000  -2419188.5940   5385464.0441   2405412.2384   5   7   3.0410   4.5900   3.0629  -2.1654   2.7425  -0.9724   0.00    0.0
2158 455371.000  -2419182.5643   5385466.4397   2405416.7030   5   6   3.5667   7.0050   3.3650   2.2746   3.8594   1.2846   0.00    0.0
2158 455372.000  -2419178.3358   5385471.1318   2405418.4967   5   6   3.5665   7.0036   3.3647   2.2734   3.8587   1.2834   0.00    0.0
2158 455373.000  -2419173.1446   5385471.0714   2405419.8299   5   6   3.5662   7.0022   3.3644   2.2723   3.8579   1.2822   0.00    0.0
2158 455374.000  -2419169.7619   5385473.9342   2405419.7092   5   6   3.5660   7.0008   3.3642   2.2711   3.8571   1.2809   0.00    0.0
2158 455375.000  -2419164.1997   5385479.6604   2405418.7500   5   6   3.5658   6.9994   3.3639   2.2699   3.8563   1.2797   0.00    0.0
2158 455376.000  -2419161.0937   5385482.3078   2405417.0128   5   6   3.5656   6.9979   3.3636   2.2687   3.8555   1.2785   0.00    0.0
2158 455377.000  -2419158.6076   5385484.5755   2405414.7998   5   6   3.5654   6.9965   3.3633   2.2676   3.8548   1.2773   0.00    0.0
2158 455378.000  -2419156.5163   5385482.7213   2405412.8406   5   6   3.5652   6.9951   3.3630   2.2664   3.8540   1.2760   0.00    0.0
2158 455379.000  -2419153.6872   5385483.0943   2405410.6571   5   6   3.5650   6.9937   3.3628   2.2652   3.8532   1.2748   0.00    0.0
2158 455380.000  -2419150.4724   5385489.1987   2405408.5005   5   6   3.5648   6.9923   3.3625   2.2640   3.8524   1.2736   0.00    0.0
2158 455381.000  -2419152.2200   5385478.1053   2405403.5909   5   7   3.0424   4.5856   3.0634  -2.1635   2.7429  -0.9771   0.00    0.0
2158 455382.000  -2419148.4665   5385483.3153   2405403.1651   5   7   3.0425   4.5852   3.0635  -2.1633   2.7430  -0.9776   0.00    0.0
2158 455383.000  -2419145.0708   5385489.9367   2405402.5036   5   7   3.0426   4.5849   3.0635  -2.1631   2.7430  -0.9780   0.00    0.0
2158 455384.000  -2419141.7958   5385492.9102   2405399.9046   5   7   3.0428   4.5845   3.0636  -2.1630   2.7430  -0.9784   0.00    0.0
2158 455385.000  -2419139.6848   5385492.7609   2405396.7135   5   7   3.0429   4.5841   3.0636  -2.1628   2.7431  -0.9789   0.00    0.0
2158 455386.000  -2419136.7608   5385495.5458   2405394.6438   5   7   3.0430   4.5837   3.0637  -2.1626   2.7431  -0.9793   0.00    0.0
2158 455387.000  -2419133.3475   5385498.9811   2405393.5829   5   7   3.0432   4.5833   3.0637  -2.1625   2.7432  -0.9797   0.00    0.0
2158 455388.000  -2419128.4453   5385498.8477   2405389.4355   5   7   3.0433   4.5829   3.0637  -2.1623   2.7432  -0.9802   0.00    0.0
2158 455389.000  -2419123.1894   5385500.8851   2405388.8979   5   7   3.0434   4.5826   3.0638  -2.1622   2.7433  -0.9806   0.00    0.0
2158 455390.000  -2419117.3745   5385500.9406   2405387.8215   5   7   3.0436   4.5822   3.0638  -2.1620   2.7433  -0.9811   0.00    0.0
2158 455391.000  -2419113.4020   5385505.6456   2405393.2492   5   6   3.3750   6.3886   6.5021  -3.3415   5.7497  -3.0538   0.00    0.0
2158 455392.000  -2419106.2744   5385502.6776   2405390.4669   5   6   3.3755   6.3896   6.5033  -3.3424   5.7511  -3.0552   0.00    0.0
2158 455393.000  -2419099.4678   5385502.9566   2405393.2813   5   6   3.3760   6.3906   6.5045  -3.3433   5.7525  -3.0566   0.00    0.0
2158 455394.000  -2419094.2878   5385503.6862   2405394.8720   5   6   3.3766   6.3915   6.5057  -3.3443   5.7540  -3.0579   0.00    0.0
2158 455395.000  -2419090.6570   5385506.2098   2405399.8516   5   6   3.3771   6.3925   6.5069  -3.3452   5.7554  -3.0593   0.00    0.0
2158 455396.000  -2419086.4051   5385506.3373   2405402.9877   5   6   3.3777   6.3934   6.5081  -3.3461   5.7568  -3.0607   0.00    0.0
2158 455397.000  -2419082.6945   5385506.7237   2405403.0571   5   6   3.3782   6.3944   6.5093  -3.3471   5.7582  -3.0621   0.00    0.0
2158 455398.000  -2419080.8319   5385508.9694   2405405.8187   5   6   3.3788   6.3954   6.5105  -3.3480   5.7596  -3.0635   0.00    0.0
2158 455399.000  -2419079.3628   5385510.4759   2405406.6992   5   6   3.3793   6.3963   6.5117  -3.3490   5.7610  -3.0648   0.00    0.0
2158 455400.000  -2419077.4441   5385510.4388   2405407.5687   5   6   3.3799   6.3973   6.5129  -3.3499   5.7625  -3.0662   0.00    0.0
2158 455401.000  -2419076.9409   5385502.3975   2405401.4082   5   6   3.5433  15.0559  11.2583   1.8011  12.5844   0.5830   0.00    0.0
2158 455402.000  -2419075.6799   5385503.8259   2405400.8069   5   6   3.5432  15.0536  11.2575   1.7905  12.5829   0.5570   0.00    0.0
2158 455403.000  -2419074.8792   5385504.7179   2405399.7515   5   6   3.5432  15.0513  11.2566   1.7799  12.5814   0.5297   0.00    0.0
2158 455404.000  -2419074.5333   5385505.3763   2405398.7461   5   6   3.5431  15.0490  11.2558   1.7692  12.5800   0.5009   0.00    0.0
2158 455405.000  -2419074.4051   5385506.1156   2405398.5980   5   6   3.5430  15.0466  11.2550   1.7584  12.5785   0.4704   0.00    0.0
2158 455406.000  -2419074.7599   5385506.4038   2405398.7258   5   6   3.5429  15.0443  11.2541   1.7476  12.5770   0.4378   0.00    0.0
2158 455407.000  -2419074.2053   5385513.8120   2405403.7113   5   7   3.3428   6.3198   6.4066  -3.2746   5.6621  -2.9702   0.00    0.0
2158 455408.000  -2419074.2415   5385515.2865   2405404.8513   5   7   3.3434   6.3208   6.4077  -3.2755   5.6635  -2.9715   0.00    0.0
2158 455409.000  -2419074.5575   5385514.7297   2405404.4029   5   7   3.3439   6.3217   6.4089  -3.2764   5.6649  -2.9729   0.00    0.0
2158 455410.000  -2419074.5257   5385514.5639   2405404.5233   5   7   3.3444   6.3226   6.4100  -3.2773   5.6662  -2.9743   0.00    0.0
2158 455411.000  -2419074.7448   5385514.8260   2405404.9030   5   7   3.3449   6.3236   6.4112  -3.2782   5.6676  -2.9756   0.00    0.0
2158 455412.000  -2419074.6532   5385514.3898   2405404.5012   5   7   3.3455   6.3245   6.4124  -3.2791   5.6690  -2.9770   0.00    0.0
2158 455413.000  -2419074.8343   5385514.4769   2405404.4586   5   7   3.3460   6.3254   6.4135  -3.2800   5.6704  -2.9783   0.00    0.0
2158 455414.000  -2419075.0352   5385514.4319   2405404.5904   5   7   3.3465   6.3264   6.4147  -3.2810   5.6718  -2.9797   0.00    0.0
2158 455415.000  -2419075.1090   5385514.5446   2405404.7817   5   7   3.3471   6.3273   6.4159  -3.2819   5.6732  -2.9810   0.00    0.0
2158 455416.000  -2419075.2000   5385514.6266   2405404.8175   5   7   3.3476   6.3282   6.4170  -3.2828   5.6745  -2.9824   0.00    0.0
2158 455417.000  -2419075.1702   5385514.2228   2405404.3838   5   7   3.3481   6.3292   6.4182  -3.2837   5.6759  -2.9837   0.00    0.0
2158 455418.000  -2419075.3914   5385514.4961   2405404.7475   5   7   3.3487   6.3301   6.4193  -3.2846   5.6773  -2.9851   0.00    0.0
2158 455419.000  -2419075.5676   5385514.4943   2405404.6030   5   7   3.3492   6.3311   6.4205  -3.2855   5.6787  -2.9864   0.00    0.0
2158 455420.000  -2419075.7639   5385514.7859   2405404.9309   5   7   3.3497   6.3320   6.4217  -3.2865   5.6801  -2.9878   0.00    0.0
2158 455421.000  -2419075.9590   5385515.0783   2405405.2994   5   7   3.3503   6.3330   6.4228  -3.2874   5.6815  -2.9892   0.00    0.0
2158 455422.000  -2419075.8179   5385514.6559   2405405.0298   5   7   3.3508   6.3339   6.4240  -3.2883   5.6828  -2.9905   0.00    0.0
2158 455423.000  -2419075.8526   5385514.9536   2405405.4298   5   7   3.3513   6.3348   6.4252  -3.2892   5.6842  -2.9919   0.00    0.0
2158 455424.000  -2419075.8496   5385515.0608   2405405.5172   5   7   3.3519   6.3358   6.4263  -3.2901   5.6856  -2.9932   0.00    0.0
2158 455425.000  -2419075.9720   5385515.1723   2405405.7366   5   7   3.3524   6.3367   6.4275  -3.2911   5.6870  -2.9946   0.00    0.0
2158 455426.000  -2419075.8813   5385515.4287   2405405.8900   5   7   3.3530   6.3377   6.4286  -3.2920   5.6884  -2.9959   0.00    0.0
2158 455427.000  -2419075.8048   5385515.5738   2405406.0137   5   7   3.3535   6.3387   6.4298  -3.2929   5.6898  -2.9973   0.00    0.0
2158 455428.000  -2419075.6423   5385515.5805   2405405.8438   5   7   3.3540   6.3396   6.4310  -3.2939   5.6912  -2.9987   0.00    0.0
2158 455429.000  -2419075.7762   5385516.2509   2405406.5831   5   7   3.3546   6.3406   6.4321  -3.2948   5.6925  -3.0000   0.00    0.0
2158 455430.000  -2419075.9293   5385516.6419   2405406.8555   5   7   3.3551   6.3415   6.4333  -3.2957   5.6939  -3.0014   0.00    0.0
2158 455431.000  -2419076.0132   5385516.9995   2405407.1155   5   7   3.3557   6.3425   6.4345  -3.2967   5.6953  -3.0027   0.00    0.0
2158 455432.000  -2419075.9392   5385516.9421   2405407.0499   5   7   3.3562   6.3434   6.4356  -3.2976   5.6967  -3.0041   0.00    0.0
2158 455433.000  -2419075.8958   5385517.3223   2405407.3074   5   7   3.3568   6.3444   6.4368  -3.2985   5.6981  -3.0055   0.00    0.0
2158 455434.000  -2419075.9735   5385517.6860   2405407.5703   5   7   3.3573   6.3454   6.4380  -3.2995   5.6995  -3.0068   0.00    0.0
2158 455435.000  -2419076.0062   5385517.9281   2405407.6504   5   7   3.3579   6.3463   6.4391  -3.3004   5.7009  -3.0082   0.00    0.0
2158 455436.000  -2419076.0292   5385517.9380   2405407.7226   5   7   3.3584   6.3473   6.4403  -3.3013   5.7023  -3.0096   0.00    0.0
2158 455437.000  -2419076.1045   5385518.2617   2405408.0012   5   7   3.3590   6.3482   6.4415  -3.3023   5.7037  -3.0109   0.00    0.0
2158 455438.000  -2419076.3477   5385518.4109   2405408.1358   5   7   3.3595   6.3492   6.4426  -3.3032   5.7051  -3.0123   0.00    0.0
2158 455439.000  -2419076.4170   5385518.1079   2405407.7626   5   7   3.3601   6.3502   6.4438  -3.3042   5.7064  -3.0136   0.00    0.0
2158 455440.000  -2419076.3423   5385518.0904   2405407.7654   5   7   3.3606   6.3511   6.4450  -3.3051   5.7078  -3.0150   0.00    0.0
2158 455441.000  -2419076.2455   5385518.0296   2405407.6895   5   7   3.3612   6.3521   6.4461  -3.3060   5.7092  -3.0164   0.00    0.0
2158 455442.000  -2419076.2337   5385518.4427   2405408.0285   5   7   3.3617   6.3531   6.4473  -3.3070   5.7106  -3.0177   0.00    0.0
2158 455443.000  -2419075.9821   5385518.5385   2405406.6700   5   7   3.3623   6.3541   6.4485  -3.3079   5.7120  -3.0191   0.00    0.0
2158 455444.000  -2419075.8039   5385520.2930   2405404.5209   5   7   3.3628   6.3550   6.4497  -3.3089   5.7134  -3.0205   0.00    0.0
2158 455445.000  -2419075.8545   5385525.2903   2405402.9851   5   7   3.3634   6.3560   6.4508  -3.3098   5.7148  -3.0218   0.00    0.0
2158 455446.000  -2419073.6966   5385526.4525   2405396.4397   5   7   3.3639   6.3570   6.4520  -3.3108   5.7162  -3.0232   0.00    0.0
2158 455447.000  -2419070.9138   5385528.4834   2405389.0108   5   7   3.3645   6.3580   6.4532  -3.3117   5.7176  -3.0246   0.00    0.0
2158 455448.000  -2419068.9446   5385535.4240   2405385.1051   5   7   3.3650   6.3589   6.4543  -3.3127   5.7190  -3.0259   0.00    0.0
2158 455449.000  -2419064.8512   5385537.6156   2405377.2604   5   7   3.3656   6.3599   6.4555  -3.3136   5.7204  -3.0273   0.00    0.0
2158 455450.000  -2419060.8472   5385542.4929   2405372.0196   5   7   3.3662   6.3609   6.4567  -3.3146   5.7218  -3.0287   0.00    0.0
2158 455451.000  -2419056.0980   5385546.3295   2405365.8515   5   7   3.3667   6.3619   6.4579  -3.3155   5.7232  -3.0300   0.00    0.0
2158 455452.000  -2419051.3563   5385551.0851   2405361.0345   5   7   3.3673   6.3629   6.4590  -3.3165   5.7246  -3.0314   0.00    0.0
2158 455453.000  -2419046.0593   5385555.3461   2405356.3172   5   7   3.3678   6.3639   6.4602  -3.3174   5.7260  -3.0328   0.00    0.0
2158 455454.000  -2419040.8937   5385560.1222   2405352.3477   5   7   3.3684   6.3649   6.4614  -3.3184   5.7274  -3.0341   0.00    0.0
2158 455455.000  -2419038.7273   5385568.6399   2405352.6784   5   6   3.0728   4.9787   4.5190  -1.4771   3.7065  -0.9165   0.00    0.0
2158 455456.000  -2419037.8700   5385573.0782   2405342.3038   5   6   3.0729   4.9790   4.5193  -1.4769   3.7073  -0.9166   0.00    0.0
2158 455457.000  -2419027.3479   5385576.3309   2405339.0871   5   6   3.9376   6.4789   6.5766  -3.6692   5.6044  -2.6024   0.00    0.0
2158 455458.000  -2419022.4722   5385579.1229   2405324.9255   5   6   3.9378   6.4797   6.5779  -3.6698   5.6059  -2.6040   0.00    0.0
2158 455459.000  -2419015.8339   5385581.0923   2405313.6380   5   6   3.9381   6.4805   6.5791  -3.6703   5.6074  -2.6055   0.00    0.0
2158 455460.000  -2419009.2984   5385584.7535   2405319.1671   5   6   3.9384   6.4813   6.5804  -3.6709   5.6088  -2.6070   0.00    0.0
2158 455461.000  -2419006.9253   5385587.5863   2405316.3171   5   7   3.3724   6.3718   6.4696  -3.3251   5.7372  -3.0437   0.00    0.0
2158 455462.000  -2418997.5485   5385586.1230   2405320.2543   5   6   3.9389   6.4830   6.5828  -3.6720   5.6118  -2.6101   0.00    0.0
2158 455463.000  -2418998.6306   5385590.0724   2405324.1523   5   6   3.9392   6.4838   6.5841  -3.6726   5.6133  -2.6116   0.00    0.0
2158 455464.000  -2418997.7816   5385588.9371   2405321.9485   5   6   3.9394   6.4846   6.5853  -3.6731   5.6148  -2.6131   0.00    0.0
2158 455465.000  -2418996.4066   5385589.2897   2405322.4469   5   6   3.9397   6.4854   6.5865  -3.6737   5.6163  -2.6147   0.00    0.0
2158 455474.000  -2418996.6773   5385590.8365   2405321.5311   5   6   3.9422   6.4929   6.5976  -3.6789   5.6296  -2.6285   0.00    0.0
2158 455475.000  -2418997.1300   5385590.8416   2405319.1305   5   6   3.9425   6.4937   6.5989  -3.6795   5.6311  -2.6300   0.00    0.0
2158 455476.000  -2418995.9968   5385592.8436   2405321.3737   5   6   3.9427   6.4946   6.6001  -3.6801   5.6326  -2.6316   0.00    0.0
2158 455477.000  -2418993.9368   5385589.3697   2405319.1190   5   6   3.9430   6.4954   6.6014  -3.6807   5.6341  -2.6331   0.00    0.0
2158 455478.000  -2418992.8142   5385591.5890   2405326.0854   5   6   3.9433   6.4963   6.6026  -3.6813   5.6356  -2.6346   0.00    0.0
2158 455479.000  -2418994.1062   5385590.3976   2405326.7508   5   6   3.9436   6.4971   6.6038  -3.6818   5.6370  -2.6362   0.00    0.0
2158 455480.000  -2418998.2394   5385590.7027   2405323.8458   5   6   3.9439   6.4979   6.6051  -3.6824   5.6385  -2.6377   0.00    0.0
2158 455481.000  -2419001.0884   5385588.0764   2405321.1551   5   6   3.9442   6.4988   6.6063  -3.6830   5.6400  -2.6393   0.00    0.0
2158 455482.000  -2419000.4803   5385582.1535   2405324.1669   5   6   3.9444   6.4996   6.6076  -3.6836   5.6415  -2.6408   0.00    0.0
2158 455483.000  -2419010.6202   5385585.8987   2405338.4409   5   5   3.8549   5.0017   4.8714  -1.7494   3.6347   1.8251   0.00    0.0
2158 455484.000  -2419011.4118   5385579.5538   2405333.8673   5   6   3.9450   6.5013   6.6100  -3.6848   5.6445  -2.6439   0.00    0.0
2158 455485.000  -2419020.7561   5385580.4921   2405343.8483   5   6   3.9453   6.5022   6.6113  -3.6854   5.6460  -2.6454   0.00    0.0
2158 455486.000  -2419026.8205   5385577.7008   2405347.0615   5   6   3.9456   6.5030   6.6125  -3.6860   5.6475  -2.6470   0.00    0.0
2158 455487.000  -2419031.8194   5385574.4002   2405348.4334   5   6   3.9459   6.5039   6.6137  -3.6866   5.6490  -2.6485   0.00    0.0
2158 455488.000  -2419037.8472   5385570.8947   2405344.6421   5   6   3.9462   6.5047   6.6150  -3.6872   5.6504  -2.6501   0.00    0.0
2158 455489.000  -2419038.4300   5385565.8813   2405349.5178   5   5   3.8557   5.0031   4.8747  -1.7447   3.6408   1.8277   0.00    0.0
2158 455490.000  -2419040.3151   5385562.6057   2405355.8986   5   5   3.8558   5.0034   4.8753  -1.7439   3.6418   1.8281   0.00    0.0
2158 455491.000  -2419042.3445   5385567.7154   2405376.7582   5   6   3.8549   4.5262   3.0859  -1.6874   2.2843   1.9188   0.00    0.0
2158 455492.000  -2419046.1543   5385563.2415   2405373.3694   5   6   3.8551   4.5259   3.0861  -1.6866   2.2847   1.9190   0.00    0.0
2158 455493.000  -2419046.6122   5385558.8406   2405371.8532   5   6   3.8552   4.5256   3.0863  -1.6859   2.2850   1.9192   0.00    0.0
2158 455494.000  -2419053.4585   5385557.8068   2405371.1865   5   7   3.7175   4.7836   3.1601  -2.7845   2.5163   0.8146   0.00    0.0
2158 455495.000  -2419048.7088   5385556.2752   2405370.1404   5   7   3.7174   4.7831   3.1602  -2.7842   2.5164   0.8140   0.00    0.0
2158 455496.000  -2419043.0718   5385554.9164   2405368.5702   5   7   3.7174   4.7827   3.1603  -2.7838   2.5166   0.8134   0.00    0.0
2158 455497.000  -2419041.3637   5385554.9350   2405368.8753   5   7   3.7174   4.7823   3.1604  -2.7835   2.5167   0.8128   0.00    0.0
2158 455498.000  -2419041.2280   5385554.2982   2405368.0852   5   7   3.7174   4.7819   3.1605  -2.7832   2.5169   0.8122   0.00    0.0
2158 455499.000  -2419039.3894   5385554.3046   2405368.4748   5   7   3.7174   4.7814   3.1606  -2.7828   2.5170   0.8116   0.00    0.0
2158 455500.000  -2419039.5596   5385559.7019   2405369.4963   5   6   4.0126   7.1328   3.3760  -0.4146   3.5485   1.5162   0.00    0.0
2158 455501.000  -2419042.0584   5385558.1405   2405369.1324   5   6   4.0123   7.1317   3.3758  -0.4192   3.5479   1.5152   0.00    0.0
2158 455502.000  -2419042.6022   5385557.5412   2405368.9411   5   6   4.0120   7.1306   3.3756  -0.4237   3.5472   1.5142   0.00    0.0
2158 455503.000  -2419043.4161   5385554.6560   2405368.4926   5   7   3.7173   4.7797   3.1610  -2.7815   2.5176   0.8092   0.00    0.0
2158 455504.000  -2419042.9360   5385554.6074   2405368.4812   5   7   3.7173   4.7793   3.1611  -2.7811   2.5178   0.8086   0.00    0.0
2158 455505.000  -2419043.8112   5385554.6397   2405368.3839   5   7   3.7173   4.7789   3.1612  -2.7808   2.5179   0.8080   0.00    0.0
2158 455506.000  -2419042.2160   5385554.2169   2405368.3434   5   7   3.7172   4.7785   3.1613  -2.7805   2.5181   0.8074   0.00    0.0
2158 455507.000  -2419044.3317   5385554.4783   2405368.5716   5   7   3.7172   4.7780   3.1614  -2.7801   2.5182   0.8067   0.00    0.0
2158 455508.000  -2419049.2930   5385552.4652   2405367.9789   5   6   4.0103   7.1241   3.3745  -0.4497   3.5432   1.5081   0.00    0.0
2158 455509.000  -2419046.2244   5385554.5712   2405368.5765   5   6   4.0100   7.1231   3.3743  -0.4540   3.5425   1.5071   0.00    0.0
2158 455510.000  -2419045.7805   5385555.3773   2405368.9590   5   6   4.0097   7.1220   3.3741  -0.4581   3.5418   1.5060   0.00    0.0
2158 455511.000  -2419043.4552   5385556.8510   2405369.4345   5   6   4.0094   7.1209   3.3739  -0.4623   3.5412   1.5050   0.00    0.0
2158 455512.000  -2419042.5873   5385557.3871   2405369.5536   5   6   4.0091   7.1199   3.3737  -0.4664   3.5405   1.5040   0.00    0.0
2158 455513.000  -2419044.2657   5385556.4667   2405369.2180   5   6   4.0088   7.1188   3.3735  -0.4704   3.5399   1.5030   0.00    0.0
2158 455514.000  -2419044.7401   5385556.1337   2405369.0495   5   6   4.0085   7.1177   3.3733  -0.4744   3.5392   1.5020   0.00    0.0
2158 455515.000  -2419043.9959   5385556.8915   2405369.1771   5   6   4.0082   7.1167   3.3732  -0.4784   3.5385   1.5010   0.00    0.0
2158 455516.000  -2419044.7422   5385556.4076   2405369.0989   5   6   4.0080   7.1156   3.3730  -0.4824   3.5379   1.4999   0.00    0.0
2158 455517.000  -2419045.1723   5385555.8590   2405368.8937   5   6   4.0077   7.1145   3.3728  -0.4863   3.5372   1.4989   0.00    0.0
2158 455518.000  -2419045.1948   5385555.5812   2405368.8003   5   6   4.0074   7.1135   3.3726  -0.4902   3.5365   1.4979   0.00    0.0
2158 455519.000  -2419045.2792   5385555.6431   2405368.5847   5   6   4.0071   7.1124   3.3724  -0.4941   3.5359   1.4969   0.00    0.0
2158 455520.000  -2419045.6389   5385555.2359   2405368.2225   5   6   4.0068   7.1114   3.3723  -0.4979   3.5352   1.4959   0.00    0.0
2158 455521.000  -2419045.6675   5385555.2189   2405368.2388   5   6   4.0065   7.1103   3.3721  -0.5017   3.5346   1.4949   0.00    0.0
2158 455522.000  -2419045.6064   5385554.7318   2405367.9103   5   6   4.0063   7.1093   3.3719  -0.5055   3.5339   1.4938   0.00    0.0
2158 455523.000  -2419045.6286   5385554.7120   2405367.8212   5   6   4.0060   7.1082   3.3717  -0.5093   3.5333   1.4928   0.00    0.0
2158 455524.000  -2419046.0614   5385554.1446   2405367.7992   5   6   4.0057   7.1072   3.3715  -0.5130   3.5326   1.4918   0.00    0.0
2158 455525.000  -2419046.7563   5385553.1393   2405368.2581   5   6   4.0054   7.1061   3.3714  -0.5167   3.5320   1.4908   0.00    0.0
2158 455526.000  -2419048.2526   5385551.5407   2405369.6253   5   6   4.0051   7.1051   3.3712  -0.5203   3.5313   1.4898   0.00    0.0
2158 455527.000  -2419049.7874   5385549.6129   2405371.9844   5   6   4.0049   7.1040   3.3710  -0.5240   3.5307   1.4887   0.00    0.0
2158 455528.000  -2419052.1114   5385547.4596   2405375.3674   5   6   4.0046   7.1030   3.3708  -0.5276   3.5300   1.4877   0.00    0.0
2158 455529.000  -2419059.0898   5385549.9250   2405377.7500   5   7   3.5250   6.7307   3.3180   2.0057   3.7150   1.0407   0.00    0.0
2158 455530.000  -2419054.8526   5385542.2097   2405383.1347   5   7   3.5249   6.7296   3.3178   2.0045   3.7144   1.0394   0.00    0.0
2158 455531.000  -2419056.1602   5385541.3065   2405390.8244   5   7   3.5248   6.7285   3.3177   2.0033   3.7138   1.0380   0.00    0.0
2158 455532.000  -2419058.1617   5385533.1588   2405392.7470   5   6   3.5504  14.7912  11.1684  -1.2649  12.4204  -1.8617   0.00    0.0
2158 455533.000  -2419059.6736   5385530.4361   2405398.3120   5   6   3.5506  14.7895  11.1679  -1.2791  12.4194  -1.8694   0.00    0.0
2158 455534.000  -2419060.7574   5385526.4487   2405403.8949   5   6   3.5508  14.7878  11.1673  -1.2931  12.4183  -1.8770   0.00    0.0
2158 455535.000  -2419058.3179   5385521.2940   2405407.0621   5   6   3.5510  14.7861  11.1668  -1.3070  12.4173  -1.8846   0.00    0.0
2158 455536.000  -2419058.0236   5385518.5627   2405412.5306   5   6   3.5512  14.7844  11.1663  -1.3207  12.4163  -1.8921   0.00    0.0
2158 455537.000  -2419057.7769   5385516.9212   2405416.2059   5   6   3.5514  14.7827  11.1658  -1.3343  12.4153  -1.8996   0.00    0.0
2158 455538.000  -2419060.7766   5385517.1022   2405424.4064   5   6   3.5516  14.7810  11.1653  -1.3477  12.4143  -1.9071   0.00    0.0
2158 455539.000  -2419062.3889   5385515.8738   2405428.3039   5   6   3.5518  14.7794  11.1647  -1.3610  12.4133  -1.9146   0.00    0.0
2158 455540.000  -2419062.6404   5385514.7970   2405429.9326   5   6   3.5521  14.7777  11.1642  -1.3741  12.4123  -1.9220   0.00    0.0
2158 455541.000  -2419062.7910   5385514.1694   2405432.0179   5   6   3.5523  14.7760  11.1637  -1.3872  12.4113  -1.9294   0.00    0.0
2158 455542.000  -2419059.7342   5385511.8149   2405430.2835   5   6   3.5525  14.7744  11.1632  -1.4001  12.4103  -1.9368   0.00    0.0
2158 455543.000  -2419057.8226   5385510.6992   2405427.8598   5   6   3.5527  14.7727  11.1627  -1.4129  12.4093  -1.9441   0.00    0.0
2158 455544.000  -2419058.0916   5385510.4497   2405429.1010   5   6   3.5530  14.7711  11.1622  -1.4256  12.4083  -1.9514   0.00    0.0
2158 455545.000  -2419059.5012   5385512.1515   2405432.0298   5   6   3.5532  14.7694  11.1617  -1.4381  12.4073  -1.9587   0.00    0.0
2158 455546.000  -2419057.9347   5385509.3802   2405428.6643   5   6   3.5534  14.7678  11.1612  -1.4506  12.4064  -1.9659   0.00    0.0
2158 455547.000  -2419057.7269   5385509.4650   2405429.2371   5   6   3.5537  14.7661  11.1607  -1.4629  12.4054  -1.9731   0.00    0.0
2158 455548.000  -2419057.2742   5385513.9343   2405433.4307   5   6   3.5539  14.7645  11.1602  -1.4751  12.4044  -1.9803   0.00    0.0
2158 455549.000  -2419058.1412   5385513.2863   2405431.2234   5   6   3.5541  14.7628  11.1597  -1.4873  12.4034  -1.9875   0.00    0.0
2158 455550.000  -2419057.8230   5385513.7410   2405433.1203   5   6   3.5544  14.7612  11.1592  -1.4993  12.4025  -1.9946   0.00    0.0
2158 455551.000  -2419058.2040   5385518.3095   2405435.8363   5   6   3.5546  14.7596  11.1588  -1.5112  12.4015  -2.0017   0.00    0.0
2158 455552.000  -2419059.2297   5385520.6499   2405437.3929   5   6   3.5549  14.7580  11.1583  -1.5230  12.4005  -2.0088   0.00    0.0
2158 455553.000  -2419059.2936   5385517.1093   2405434.1613   5   6   3.5551  14.7564  11.1578  -1.5348  12.3996  -2.0159   0.00    0.0
2158 455554.000  -2419060.3863   5385519.6847   2405437.2533   5   6   3.5554  14.7548  11.1573  -1.5464  12.3986  -2.0229   0.00    0.0
2158 455555.000  -2419059.9101   5385513.0798   2405433.1017   5   6   3.5556  14.7532  11.1568  -1.5580  12.3977  -2.0299   0.00    0.0
2158 455558.000  -2419049.7324   5385500.5761   2405420.6869   5   5   4.0450  15.0935  11.1566  -2.9529  12.4160  -2.1260   0.00    0.0
2158 455559.000  -2419056.7974   5385516.0232   2405434.4167   5   5   4.0452  15.0921  11.1562  -2.9591  12.4151  -2.1330   0.00    0.0
2158 455560.000  -2419172.2885   5385606.8152   2405541.7529   5   5   7.7706   9.2094  12.0681  -7.5641  10.0350  -8.9747   0.00    0.0
2158 455561.000  -2419177.8968   5385607.0605   2405548.1355   5   5   7.7721   9.2105  12.0672  -7.5653  10.0355  -8.9752   0.00    0.0
2158 455562.000  -2419170.9418   5385596.8388   2405537.8485   5   5   7.7736   9.2116  12.0663  -7.5666  10.0360  -8.9757   0.00    0.0
2158 455565.000  -2419102.8726   5385538.7036   2405470.7516   5   5   7.7780   9.2150  12.0637  -7.5704  10.0374  -8.9774   0.00    0.0
2158 455570.000  -2419059.2768   5385503.1142   2405445.7982   5   8   3.0629   4.5224   3.0684  -2.1299   2.7469  -1.0357   0.00    0.0
2158 455571.000  -2419053.0981   5385500.7499   2405454.7162   5   8   3.0631   4.5222   3.0685  -2.1299   2.7470  -1.0362   0.00    0.0
2158 455572.000  -2419049.3795   5385496.0425   2405461.4982   5   7   3.5217   6.6847   3.3105   1.9548   3.6899   0.9801   0.00    0.0
2158 455573.000  -2419044.4013   5385495.5633   2405465.4535   5   7   3.5216   6.6837   3.3103   1.9536   3.6893   0.9786   0.00    0.0
2158 455574.000  -2419038.0320   5385490.7105   2405471.4918   5   7   3.5216   6.6827   3.3102   1.9524   3.6887   0.9772   0.00    0.0
2158 455575.000  -2419031.5695   5385494.5349   2405478.8929   5   6   3.9030   4.5566   3.1035  -1.8419   2.7198  -1.4556   0.00    0.0
2158 455576.000  -2419024.5911   5385495.6419   2405486.2512   5   5   6.6287   9.3273   3.4123   6.3411   4.3522   2.3409   0.00    0.0
2158 455577.000  -2419014.7364   5385505.9500   2405493.0240   5   5   6.6286   9.3249   3.4120   6.3396   4.3512   2.3397   0.00    0.0
2158 455578.000  -2419006.5764   5385512.5090   2405501.6472   5   5   6.6285   9.3224   3.4117   6.3381   4.3502   2.3386   0.00    0.0
2158 455579.000  -2419011.4639   5385497.1807   2405506.3366   5   7   3.5244   6.7459   3.3121   2.0439   3.7128   1.0414   0.00    0.0
2158 455580.000  -2419002.5035   5385499.1209   2405508.5937   5   6   3.5376   6.7474   3.3180   2.0287   3.7173   1.0100   0.00    0.0
2158 455581.000  -2418992.8174   5385501.6750   2405511.9526   5   5   3.5697  15.2840  11.4901  -1.5650  12.8329  -2.0602   0.00    0.0
2158 455582.000  -2418979.9812   5385511.9564   2405524.0757   5   6   6.5431   9.2334   3.4074   6.2300   4.3252   2.3000   0.00    0.0
2158 455583.000  -2418962.4050   5385502.5794   2405513.7402   5   5   8.1183  15.4883  13.6722  -4.5796  13.5415  -7.6385   0.00    0.0
2158 455584.000  -2418957.3676   5385530.4233   2405540.9952   5   6   6.5430   9.2287   3.4069   6.2271   4.3232   2.2978   0.00    0.0
2158 455585.000  -2418956.5132   5385518.9003   2405547.9099   5   5   8.1205  15.4845  13.6687  -4.5884  13.5387  -7.6415   0.00    0.0
2158 455586.000  -2418950.1588   5385516.7034   2405554.4114   5   5   8.1216  15.4826  13.6670  -4.5927  13.5374  -7.6431   0.00    0.0
2158 455588.000  -2418860.0362   5385569.6123   2405507.1245   5   4   9.4507  10.9061  16.8048  -9.4106  12.9946 -11.9642   0.00    0.0
2158 455591.000  -2418884.4249   5385593.2864   2405645.0463   5   5   6.6796  24.1745  22.6453  10.2317  23.0499  10.3059   0.00    0.0
2158 455593.000  -2418888.3478   5385525.7855   2405584.3833   5   6   3.5668  14.6956  11.1404  -1.9455  12.3641  -2.2796   0.00    0.0
2158 455595.000  -2418871.6971   5385513.1424   2405584.7226   5   6   3.5674  14.6928  11.1397  -1.9637  12.3625  -2.2920   0.00    0.0
2158 455596.000  -2418865.0129   5385515.4797   2405592.3662   5   5   8.1328  15.4642  13.6502  -4.6360  13.5238  -7.6582   0.00    0.0
2158 455597.000  -2418856.6801   5385516.1864   2405593.0188   5   5   8.1340  15.4624  13.6485  -4.6403  13.5225  -7.6597   0.00    0.0
2158 455598.000  -2418851.3104   5385524.9353   2405605.8501   5   5   8.1351  15.4606  13.6468  -4.6446  13.5212  -7.6612   0.00    0.0
2158 455599.000  -2418839.0565   5385534.8975   2405603.9429   5   5   8.1362  15.4588  13.6451  -4.6489  13.5199  -7.6627   0.00    0.0
2158 455600.000  -2418838.2672   5385517.7430   2405595.8533   5   5   8.1374  15.4570  13.6435  -4.6532  13.5186  -7.6643   0.00    0.0
2158 455601.000  -2418835.9613   5385517.4307   2405602.1170   5   5   8.1385  15.4552  13.6419  -4.6575  13.5172  -7.6658   0.00    0.0
2158 455602.000  -2418843.0054   5385521.7357   2405611.2499   5   5   8.1396  15.4534  13.6402  -4.6618  13.5159  -7.6673   0.00    0.0
2158 455603.000  -2418835.6539   5385520.8398   2405609.9870   5   5   8.1408  15.4516  13.6385  -4.6661  13.5146  -7.6688   0.00    0.0
2158 455604.000  -2418831.1122   5385520.7127   2405611.0699   5   5   8.1419  15.4499  13.6369  -4.6703  13.5133  -7.6703   0.00    0.0
2158 455605.000  -2418831.9748   5385518.7146   2405615.9683   5   5   8.1431  15.4481  13.6353  -4.6746  13.5120  -7.6718   0.00    0.0
2158 455606.000  -2418831.7689   5385524.8353   2405620.8656   5   5   8.1442  15.4463  13.6336  -4.6788  13.5107  -7.6733   0.00    0.0
2158 455607.000  -2418829.7289   5385542.3411   2405632.9075   5   6   3.5717  14.6761  11.1352  -2.0693  12.3529  -2.3646   0.00    0.0
2158 455608.000  -2418821.5847   5385531.5799   2405621.9854   5   5   8.1465  15.4428  13.6304  -4.6874  13.5082  -7.6763   0.00    0.0
2158 455609.000  -2418818.0544   5385532.3659   2405622.3336   5   5   8.1477  15.4411  13.6287  -4.6916  13.5069  -7.6778   0.00    0.0
2158 455610.000  -2418814.6678   5385534.7126   2405622.9933   5   5   8.1488  15.4393  13.6271  -4.6958  13.5056  -7.6794   0.00    0.0
2158 455611.000  -2418810.4341   5385536.5236   2405621.4128   5   5   8.1500  15.4376  13.6255  -4.7001  13.5043  -7.6809   0.00    0.0
2158 455612.000  -2418806.1212   5385538.4842   2405619.9620   5   5   8.1511  15.4358  13.6239  -4.7043  13.5031  -7.6824   0.00    0.0
2158 455613.000  -2418804.4045   5385539.3057   2405620.3290   5   5   8.1523  15.4341  13.6223  -4.7085  13.5018  -7.6839   0.00    0.0
2158 455614.000  -2418807.4340   5385536.5016   2405623.1023   5   5   8.1534  15.4324  13.6207  -4.7128  13.5006  -7.6854   0.00    0.0
2158 455615.000  -2418807.0561   5385535.9219   2405622.8618   5   5   8.1546  15.4307  13.6190  -4.7170  13.4993  -7.6869   0.00    0.0
2158 455616.000  -2418804.0890   5385537.8699   2405621.3736   5   5   8.1557  15.4290  13.6174  -4.7212  13.4981  -7.6884   0.00    0.0
2158 455617.000  -2418802.6298   5385539.1790   2405620.4838   5   5   8.1569  15.4273  13.6158  -4.7254  13.4968  -7.6899   0.00    0.0
2158 455618.000  -2418798.3942   5385545.2485   2405619.7390   5   5   8.1581  15.4256  13.6142  -4.7296  13.4956  -7.6914   0.00    0.0
2158 455619.000  -2418799.0824   5385545.1248   2405620.7828   5   5   8.1592  15.4239  13.6127  -4.7338  13.4943  -7.6929   0.00    0.0
2158 455620.000  -2418798.6753   5385546.3265   2405621.3687   5   5   8.1604  15.4222  13.6111  -4.7380  13.4931  -7.6945   0.00    0.0
2158 455621.000  -2418797.9369   5385548.8315   2405622.0816   5   5   8.1616  15.4205  13.6095  -4.7422  13.4919  -7.6960   0.00    0.0
2158 455622.000  -2418801.8844   5385547.4768   2405625.9346   5   5   8.1627  15.4188  13.6079  -4.7464  13.4906  -7.6975   0.00    0.0
2158 455623.000  -2418805.7897   5385544.0165   2405628.5065   5   5   8.1639  15.4172  13.6063  -4.7505  13.4894  -7.6990   0.00    0.0
2158 455624.000  -2418806.4494   5385543.2162   2405629.1623   5   5   8.1651  15.4155  13.6047  -4.7547  13.4882  -7.7005   0.00    0.0
2158 455625.000  -2418809.2900   5385537.1909   2405629.2489   5   5   8.1662  15.4139  13.6032  -4.7589  13.4870  -7.7020   0.00    0.0
2158 455626.000  -2418812.4735   5385533.2542   2405631.3423   5   5   8.1674  15.4122  13.6016  -4.7631  13.4858  -7.7035   0.00    0.0
2158 455627.000  -2418812.3038   5385532.7023   2405631.3780   5   5   8.1686  15.4106  13.6000  -4.7672  13.4846  -7.7050   0.00    0.0
2158 455628.000  -2418813.9591   5385530.8007   2405632.3855   5   5   8.1698  15.4089  13.5985  -4.7714  13.4834  -7.7065   0.00    0.0
2158 455629.000  -2418814.7889   5385530.0278   2405633.4261   5   5   8.1709  15.4073  13.5969  -4.7756  13.4822  -7.7080   0.00    0.0
2158 455630.000  -2418812.5245   5385530.6354   2405632.6782   5   5   8.1721  15.4057  13.5953  -4.7797  13.4810  -7.7095   0.00    0.0
2158 455631.000  -2418811.3144   5385529.2074   2405633.5355   5   5   8.1733  15.4040  13.5938  -4.7839  13.4798  -7.7110   0.00    0.0
2158 455632.000  -2418809.9385   5385526.6783   2405635.1102   5   5   8.1745  15.4024  13.5922  -4.7880  13.4786  -7.7125   0.00    0.0
2158 455633.000  -2418805.4223   5385528.4790   2405637.3623   5   5   8.1756  15.4008  13.5907  -4.7921  13.4774  -7.7140   0.00    0.0
2158 455634.000  -2418799.1222   5385530.5985   2405639.4054   5   5   8.1768  15.3992  13.5891  -4.7963  13.4763  -7.7155   0.00    0.0
2158 455635.000  -2418787.9752   5385535.6632   2405639.1110   5   5   8.1780  15.3976  13.5876  -4.8004  13.4751  -7.7170   0.00    0.0
2158 455636.000  -2418783.2150   5385536.1982   2405643.5875   5   5   8.1792  15.3960  13.5861  -4.8045  13.4739  -7.7185   0.00    0.0
2158 455637.000  -2418773.8733   5385540.7458   2405644.9181   5   5   8.1804  15.3944  13.5845  -4.8087  13.4727  -7.7200   0.00    0.0
2158 455638.000  -2418770.4618   5385540.1362   2405649.1154   5   4   8.3734  15.4049  13.6976  -4.9245  13.5116  -7.9230   0.00    0.0
2158 455639.000  -2418777.1562   5385530.8832   2405658.4726   5   4   8.3745  15.4033  13.6960  -4.9285  13.5104  -7.9244   0.00    0.0
2158 455640.000  -2418774.3243   5385529.0672   2405661.6480   5   4   8.3757  15.4017  13.6944  -4.9325  13.5092  -7.9257   0.00    0.0
2158 455641.000  -2418769.1533   5385530.9155   2405664.8508   5   4   8.3768  15.4001  13.6928  -4.9365  13.5081  -7.9271   0.00    0.0
2158 455642.000  -2418765.6790   5385539.0263   2405670.8958   5   5   8.1863  15.3865  13.5769  -4.8292  13.4670  -7.7275   0.00    0.0
2158 455643.000  -2418738.2517   5385556.5537   2405659.2159   5   4   8.3792  15.3970  13.6896  -4.9445  13.5057  -7.9299   0.00    0.0
2158 455644.000  -2418727.7125   5385563.6827   2405657.0938   5   5   8.1887  15.3833  13.5738  -4.8374  13.4647  -7.7306   0.00    0.0
2158 455645.000  -2418731.4104   5385569.1102   2405662.9638   5   5   8.1899  15.3818  13.5723  -4.8415  13.4635  -7.7320   0.00    0.0
2158 455646.000  -2418758.0882   5385567.8210   2405684.5784   5   5   8.1911  15.3802  13.5708  -4.8456  13.4624  -7.7335   0.00    0.0
2158 455647.000  -2418774.7903   5385563.0623   2405697.7448   5   5   8.1922  15.3787  13.5693  -4.8496  13.4613  -7.7350   0.00    0.0
2158 455648.000  -2418784.5454   5385566.6137   2405707.0777   5   5   8.1934  15.3771  13.5678  -4.8537  13.4601  -7.7365   0.00    0.0
2158 455649.000  -2418785.9013   5385575.2128   2405709.8371   5   5   8.1946  15.3756  13.5663  -4.8578  13.4590  -7.7380   0.00    0.0
2158 455650.000  -2418771.9148   5385592.6571   2405701.2483   5   5   8.1959  15.3740  13.5648  -4.8618  13.4579  -7.7395   0.00    0.0
2158 455651.000  -2418761.0487   5385613.7368   2405703.8925   5   5   8.1971  15.3725  13.5633  -4.8659  13.4567  -7.7410   0.00    0.0
2158 455652.000  -2418779.3820   5385600.8088   2405717.2175   5   5   8.1982  15.3710  13.5618  -4.8700  13.4556  -7.7425   0.00    0.0
2158 455653.000  -2418798.6993   5385617.3424   2405748.1034   5   5   8.1994  15.3694  13.5602  -4.8740  13.4545  -7.7440   0.00    0.0
2158 455654.000  -2418815.0901   5385584.6941   2405748.0536   5   5   8.2006  15.3680  13.5588  -4.8781  13.4535  -7.7455   0.00    0.0
2158 455655.000  -2418842.3437   5385572.8133   2405773.0082   5   5   8.2018  15.3665  13.5573  -4.8821  13.4524  -7.7469   0.00    0.0
2158 455656.000  -2418846.7549   5385568.1600   2405778.9875   5   5   8.2030  15.3650  13.5558  -4.8861  13.4513  -7.7484   0.00    0.0
2158 455657.000  -2418845.8760   5385573.6890   2405783.2310   5   5   8.2042  15.3635  13.5543  -4.8902  13.4502  -7.7499   0.00    0.0
2158 455658.000  -2418837.1028   5385588.4450   2405784.0651   5   5   8.2055  15.3620  13.5529  -4.8942  13.4491  -7.7514   0.00    0.0
2158 455659.000  -2418841.3948   5385585.8040   2405787.0067   5   5   8.2067  15.3605  13.5514  -4.8982  13.4480  -7.7529   0.00    0.0
2158 455660.000  -2418855.6501   5385593.1547   2405806.4820   5   5   8.2079  15.3590  13.5499  -4.9023  13.4469  -7.7544   0.00    0.0
2158 455661.000  -2418860.1222   5385593.1697   2405809.5953   5   5   8.2091  15.3576  13.5484  -4.9063  13.4458  -7.7559   0.00    0.0
2158 455662.000  -2418867.5965   5385595.0755   2405817.2406   5   5   8.2103  15.3561  13.5470  -4.9103  13.4448  -7.7574   0.00    0.0
2158 455663.000  -2418862.0326   5385604.5157   2405820.3909   5   5   8.2115  15.3546  13.5455  -4.9143  13.4437  -7.7589   0.00    0.0
2158 455664.000  -2418868.3150   5385610.5951   2405830.1414   5   5   8.2127  15.3532  13.5441  -4.9183  13.4426  -7.7604   0.00    0.0
2158 455665.000  -2418871.9657   5385613.7804   2405836.5485   5   5   8.2139  15.3517  13.5426  -4.9223  13.4416  -7.7619   0.00    0.0
2158 455666.000  -2418877.3117   5385613.5253   2405843.9873   5   5   8.2152  15.3503  13.5411  -4.9263  13.4405  -7.7634   0.00    0.0
2158 455667.000  -2418887.1481   5385617.9254   2405851.8040   5   5   8.2164  15.3488  13.5397  -4.9303  13.4395  -7.7648   0.00    0.0
2158 455668.000  -2418884.0691   5385619.1331   2405851.0450   5   5   8.2176  15.3474  13.5383  -4.9343  13.4384  -7.7663   0.00    0.0
2158 455669.000  -2418880.1586   5385627.8028   2405859.0817   5   5   8.2188  15.3460  13.5368  -4.9383  13.4374  -7.7678   0.00    0.0
2158 455670.000  -2418875.0421   5385636.2819   2405865.4178   5   4   8.4111  15.3565  13.6474  -5.0505  13.4756  -7.9670   0.00    0.0
2158 455671.000  -2418857.2908   5385639.6015   2405857.9693   5   4   8.4123  15.3551  13.6459  -5.0544  13.4746  -7.9684   0.00    0.0
2158 455672.000  -2418846.2933   5385639.8673   2405856.6056   5   4   8.4135  15.3537  13.6444  -5.0583  13.4735  -7.9697   0.00    0.0
2158 455673.000  -2418794.2542   5385690.0774   2405831.8502   5   5   3.7710  16.6760  11.1942   1.5607  12.7321  -2.4433   0.00    0.0
2158 455674.000  -2418802.3433   5385688.3561   2405842.9607   5   5   3.7716  16.6731  11.1936   1.5489  12.7305  -2.4496   0.00    0.0
2158 455675.000  -2418797.3927   5385631.0156   2405839.7850   5   5   4.0751  14.9640  11.1189  -3.6037  12.3392  -2.8186   0.00    0.0
2158 455676.000  -2418798.4347   5385629.9616   2405844.5520   5   5   4.0755  14.9632  11.1187  -3.6087  12.3388  -2.8238   0.00    0.0
2158 455677.000  -2418801.1631   5385655.3206   2405852.3037   5   4   4.7867  42.5816  12.3717 -10.6357  19.1973  -4.6498   0.00    0.0
2158 455678.000  -2418802.0669   5385654.2131   2405855.8791   5   4   4.7862  42.5738  12.3682 -10.6338  19.1878  -4.6500   0.00    0.0
2158 455679.000  -2418804.1141   5385651.8342   2405861.7107   5   4   4.7858  42.5659  12.3646 -10.6318  19.1783  -4.6501   0.00    0.0
2158 455681.000  -2418668.9111   5385534.4187   2405753.3764   5   4   9.6776  11.0803  16.7043  -9.6122  13.0863 -12.0821   0.00    0.0
2158 455682.000  -2418677.5167   5385536.2039   2405763.9207   5   4   9.6802  11.0822  16.7034  -9.6144  13.0873 -12.0835   0.00    0.0
2158 455685.000  -2418741.0182   5385509.2854   2405818.6879   5   4   8.4293  15.3360  13.6252  -5.1086  13.4604  -7.9877   0.00    0.0
2158 455686.000  -2418740.9031   5385510.4495   2405822.2874   5   4   8.4305  15.3346  13.6237  -5.1124  13.4594  -7.9891   0.00    0.0
2158 455687.000  -2418732.9212   5385512.5502   2405820.7711   5   4   8.4317  15.3333  13.6222  -5.1163  13.4584  -7.9905   0.00    0.0
2158 455688.000  -2418729.8616   5385518.5611   2405823.8094   5   4   8.4329  15.3319  13.6208  -5.1201  13.4574  -7.9919   0.00    0.0
2158 455689.000  -2418717.8055   5385525.7337   2405819.9765   5   4   8.4342  15.3306  13.6193  -5.1239  13.4564  -7.9933   0.00    0.0
2158 455690.000  -2418710.1728   5385532.9991   2405819.3955   5   5   8.2448  15.3174  13.5075  -5.0217  13.4166  -7.7993   0.00    0.0
2158 455691.000  -2418705.1991   5385540.1277   2405819.6786   5   5   8.2461  15.3160  13.5061  -5.0256  13.4156  -7.8008   0.00    0.0
2158 455692.000  -2418710.0878   5385545.5759   2405825.5492   5   5   8.2473  15.3147  13.5048  -5.0295  13.4146  -7.8023   0.00    0.0
2158 455693.000  -2418708.7004   5385550.0649   2405827.5536   5   5   8.2486  15.3134  13.5034  -5.0334  13.4137  -7.8038   0.00    0.0
2158 455694.000  -2418707.3554   5385555.2597   2405830.0180   5   5   8.2499  15.3121  13.5020  -5.0373  13.4127  -7.8053   0.00    0.0
2158 455695.000  -2418709.2419   5385559.5588   2405834.9917   5   5   8.2511  15.3108  13.5007  -5.0412  13.4118  -7.8068   0.00    0.0
2158 455696.000  -2418710.9080   5385567.5277   2405842.0238   5   5   8.2524  15.3095  13.4993  -5.0451  13.4109  -7.8083   0.00    0.0
2158 455697.000  -2418708.6906   5385580.6997   2405847.1331   5   5   8.2536  15.3082  13.4979  -5.0490  13.4099  -7.8098   0.00    0.0
2158 455698.000  -2418698.3057   5385583.7543   2405844.9771   5   4   8.4453  15.3188  13.6063  -5.1582  13.4477  -8.0057   0.00    0.0
2158 455699.000  -2418703.4367   5385576.0851   2405852.9529   5   4   8.4465  15.3175  13.6049  -5.1620  13.4467  -8.0071   0.00    0.0
2158 455700.000  -2418692.7963   5385575.2172   2405850.5970   5   4   8.4478  15.3163  13.6035  -5.1658  13.4458  -8.0085   0.00    0.0
2158 455701.000  -2418684.8848   5385573.1692   2405850.0109   5   4   8.4490  15.3150  13.6021  -5.1696  13.4449  -8.0098   0.00    0.0
2158 455702.000  -2418689.9298   5385570.6372   2405857.4786   5   4   8.4502  15.3138  13.6007  -5.1734  13.4439  -8.0112   0.00    0.0
2158 455703.000  -2418686.2198   5385568.3590   2405858.0781   5   5   8.2612  15.3007  13.4899  -5.0724  13.4044  -7.8187   0.00    0.0
2158 455704.000  -2418681.1999   5385572.0341   2405858.2264   5   5   8.2625  15.2994  13.4886  -5.0763  13.4035  -7.8202   0.00    0.0
2158 455705.000  -2418680.5863   5385571.1867   2405858.8509   5   4   8.4540  15.3100  13.5965  -5.1848  13.4412  -8.0154   0.00    0.0
2158 455706.000  -2418673.1191   5385568.2570   2405853.5064   5   5   8.2650  15.2969  13.4859  -5.0841  13.4017  -7.8232   0.00    0.0
2158 455707.000  -2418670.3938   5385563.2034   2405851.2503   5   5   8.2663  15.2957  13.4846  -5.0879  13.4008  -7.8247   0.00    0.0
2158 455708.000  -2418664.1980   5385563.9167   2405846.7391   5   5   8.2676  15.2945  13.4833  -5.0918  13.3999  -7.8262   0.00    0.0
2158 455709.000  -2418659.8104   5385559.4961   2405842.9859   5   5   8.2689  15.2933  13.4820  -5.0957  13.3991  -7.8277   0.00    0.0
2158 455710.000  -2418655.4903   5385555.0292   2405839.2077   5   5   8.2701  15.2921  13.4807  -5.0996  13.3982  -7.8292   0.00    0.0
2158 455711.000  -2418655.5068   5385558.6928   2405843.3892   5   6   3.6210  14.5590  11.1109  -2.8185  12.2904  -2.9167   0.00    0.0
2158 455712.000  -2418655.7787   5385556.9038   2405843.8329   5   6   3.6216  14.5581  11.1108  -2.8247  12.2899  -2.9215   0.00    0.0
2158 455713.000  -2418655.8712   5385557.3362   2405843.9056   5   6   3.6222  14.5572  11.1107  -2.8309  12.2895  -2.9262   0.00    0.0
2158 455714.000  -2418656.0827   5385551.4526   2405842.7658   5   6   3.6228  14.5564  11.1106  -2.8370  12.2891  -2.9310   0.00    0.0
2158 455715.000  -2418655.7032   5385547.5812   2405841.7592   5   6   3.6234  14.5555  11.1105  -2.8432  12.2887  -2.9358   0.00    0.0
2158 455716.000  -2418655.7967   5385546.0856   2405841.6512   5   6   3.6239  14.5546  11.1104  -2.8494  12.2882  -2.9405   0.00    0.0
2158 455717.000  -2418655.6888   5385545.2896   2405841.2896   5   6   3.6245  14.5538  11.1103  -2.8555  12.2878  -2.9453   0.00    0.0
2158 455718.000  -2418657.2907   5385535.6351   2405836.3097   5   5   8.2804  15.2826  13.4704  -5.1304  13.3913  -7.8412   0.00    0.0
2158 455719.000  -2418657.2946   5385537.3697   2405836.6882   5   5   8.2817  15.2814  13.4691  -5.1342  13.3904  -7.8427   0.00    0.0
2158 455720.000  -2418658.0775   5385538.8543   2405837.5147   5   5   8.2830  15.2802  13.4678  -5.1380  13.3896  -7.8442   0.00    0.0
2158 455721.000  -2418663.2341   5385534.7788   2405840.4800   5   5   8.2843  15.2791  13.4665  -5.1419  13.3888  -7.8457   0.00    0.0
2158 455722.000  -2418668.6578   5385534.4366   2405844.1967   5   5   8.2856  15.2779  13.4653  -5.1457  13.3879  -7.8471   0.00    0.0
2158 455723.000  -2418672.9871   5385534.6134   2405847.1812   5   5   8.2869  15.2768  13.4640  -5.1495  13.3871  -7.8486   0.00    0.0
2158 455724.000  -2418669.3188   5385529.7011   2405844.6363   5   5   8.2882  15.2756  13.4627  -5.1533  13.3863  -7.8501   0.00    0.0
2158 455725.000  -2418664.6085   5385532.1540   2405842.6222   5   5   8.2895  15.2745  13.4615  -5.1572  13.3855  -7.8516   0.00    0.0
2158 455726.000  -2418662.8173   5385535.3614   2405844.9680   5   5   8.2908  15.2734  13.4602  -5.1610  13.3846  -7.8531   0.00    0.0
2158 455727.000  -2418648.4730   5385527.8806   2405840.7956   5   6   3.5947  14.6095  11.0129  -2.4654  12.2541  -2.6517   0.00    0.0
2158 455728.000  -2418643.3344   5385517.9342   2405841.5383   5   6   3.5952  14.6085  11.0127  -2.4725  12.2535  -2.6569   0.00    0.0
2158 455729.000  -2418639.0236   5385506.3160   2405842.8746   5   6   3.5956  14.6075  11.0125  -2.4796  12.2530  -2.6621   0.00    0.0
2158 455730.000  -2418635.2624   5385509.4352   2405845.9497   5   6   3.5961  14.6064  11.0123  -2.4867  12.2524  -2.6672   0.00    0.0
2158 455731.000  -2418630.4712   5385539.9646   2405865.9187   5   7   3.5568   6.6821   6.7950  -3.6262   6.1291  -3.4302   0.00    0.0
2158 455732.000  -2418626.5244   5385544.2330   2405874.6278   5   7   3.5576   6.6834   6.7962  -3.6275   6.1306  -3.4317   0.00    0.0
2158 455733.000  -2418624.3441   5385541.4000   2405877.4073   5   7   3.5584   6.6847   6.7974  -3.6287   6.1321  -3.4332   0.00    0.0
2158 455734.000  -2418626.3358   5385504.6861   2405857.2589   5   6   3.5982  14.6023  11.0114  -2.5148  12.2502  -2.6878   0.00    0.0
2158 455735.000  -2418624.8867   5385505.6809   2405860.5503   5   6   3.5987  14.6013  11.0111  -2.5218  12.2496  -2.6930   0.00    0.0
2158 455736.000  -2418625.0793   5385507.6008   2405863.4540   5   6   3.5992  14.6003  11.0109  -2.5287  12.2491  -2.6981   0.00    0.0
2158 455737.000  -2418622.7787   5385511.0982   2405865.4664   5   6   3.5997  14.5992  11.0107  -2.5357  12.2485  -2.7032   0.00    0.0
2158 455738.000  -2418622.7613   5385544.4767   2405886.2650   5   7   3.5624   6.6912   6.8036  -3.6350   6.1396  -3.4406   0.00    0.0
2158 455739.000  -2418623.3260   5385544.6494   2405882.8568   5   7   3.5632   6.6925   6.8048  -3.6363   6.1411  -3.4421   0.00    0.0
2158 455740.000  -2418621.9279   5385536.9414   2405874.6062   5   7   3.5640   6.6938   6.8061  -3.6376   6.1426  -3.4436   0.00    0.0
2158 455741.000  -2418621.4792   5385528.3625   2405866.6758   5   7   3.5648   6.6951   6.8073  -3.6388   6.1441  -3.4451   0.00    0.0
2158 455742.000  -2418670.2027   5385559.4723   2405894.6321   5   5   3.8971   5.1023   5.0407  -1.5422   3.9094   1.9467   0.00    0.0
2158 455743.000  -2418674.3415   5385558.1773   2405894.1336   5   5   3.8973   5.1028   5.0415  -1.5414   3.9105   1.9472   0.00    0.0
2158 455744.000  -2418625.9363   5385526.7819   2405880.6223   5   6   3.6229   6.8258   7.9703  -3.7546   6.5746  -3.8102   0.00    0.0
2158 455745.000  -2418627.7214   5385529.3437   2405882.0194   5   6   3.6240   6.8274   7.9720  -3.7562   6.5767  -3.8125   0.00    0.0
2158 455746.000  -2418629.8468   5385530.6302   2405884.4443   5   6   3.6250   6.8290   7.9737  -3.7579   6.5787  -3.8147   0.00    0.0
2158 455747.000  -2418632.3798   5385533.3870   2405888.9511   5   6   3.6261   6.8306   7.9754  -3.7595   6.5808  -3.8169   0.00    0.0
2158 455748.000  -2418631.7599   5385532.8101   2405887.1519   5   6   3.6271   6.8322   7.9771  -3.7611   6.5829  -3.8192   0.00    0.0
2158 455749.000  -2418631.8480   5385533.0447   2405885.3098   5   6   3.6282   6.8338   7.9789  -3.7627   6.5849  -3.8214   0.00    0.0
2158 455750.000  -2418631.2282   5385532.7460   2405883.5787   5   6   3.6292   6.8354   7.9806  -3.7644   6.5870  -3.8237   0.00    0.0
2158 455751.000  -2418629.8501   5385514.4072   2405872.2409   5   5   3.8234  16.4654  11.1618  -0.6491  12.6161  -2.8926   0.00    0.0
2158 455752.000  -2418626.3214   5385511.5933   2405869.7056   5   5   3.8241  16.4630  11.1615  -0.6765  12.6147  -2.8979   0.00    0.0
2158 455753.000  -2418602.3920   5385504.4913   2405836.1912   5   5   8.0772   9.4278  11.9129  -7.8175  10.1286  -9.0903   0.00    0.0
2158 455754.000  -2418616.5600   5385537.1063   2405867.8216   5   6   3.6479  14.5247  11.1081  -3.0742  12.2747  -3.1160   0.00    0.0
2158 455755.000  -2418614.8123   5385536.8170   2405867.1658   5   6   3.6485  14.5239  11.1081  -3.0799  12.2744  -3.1205   0.00    0.0
2158 455756.000  -2418614.7262   5385538.5608   2405867.1450   5   6   3.6492  14.5232  11.1080  -3.0856  12.2741  -3.1250   0.00    0.0
2158 455757.000  -2418614.5556   5385540.6608   2405867.0514   5   6   3.6499  14.5225  11.1080  -3.0913  12.2738  -3.1295   0.00    0.0
2158 455758.000  -2418615.2669   5385546.5348   2405868.4225   5   6   3.6506  14.5218  11.1080  -3.0969  12.2736  -3.1339   0.00    0.0
2158 455759.000  -2418615.2831   5385550.2699   2405868.7002   5   6   3.6512  14.5212  11.1080  -3.1026  12.2733  -3.1384   0.00    0.0
2158 455760.000  -2418614.0167   5385550.3871   2405867.1697   5   6   3.6519  14.5205  11.1080  -3.1082  12.2730  -3.1429   0.00    0.0
2158 455761.000  -2418613.4249   5385551.8525   2405866.1639   5   6   3.6526  14.5198  11.1080  -3.1139  12.2727  -3.1473   0.00    0.0
2158 455762.000  -2418614.6018   5385551.8339   2405866.6543   5   6   3.6533  14.5191  11.1080  -3.1195  12.2724  -3.1517   0.00    0.0
2158 455763.000  -2418614.9219   5385552.8421   2405866.8208   5   6   3.6540  14.5184  11.1080  -3.1251  12.2722  -3.1562   0.00    0.0
2158 455764.000  -2418614.2914   5385552.2441   2405866.3615   5   6   3.6547  14.5178  11.1080  -3.1307  12.2719  -3.1606   0.00    0.0
2158 455765.000  -2418612.6710   5385550.6671   2405864.9595   5   6   3.6553  14.5171  11.1080  -3.1363  12.2716  -3.1650   0.00    0.0
2158 455766.000  -2418612.0968   5385550.2195   2405864.4444   5   6   3.6560  14.5165  11.1080  -3.1419  12.2714  -3.1695   0.00    0.0
2158 455767.000  -2418613.7669   5385516.4813   2405841.2739   5   5   8.1013   9.4442  11.9032  -7.8368  10.1359  -9.1000   0.00    0.0
2158 455768.000  -2418611.7956   5385550.6774   2405862.6246   5   6   3.6574  14.5152  11.1080  -3.1530  12.2709  -3.1783   0.00    0.0
2158 455769.000  -2418611.5302   5385550.6228   2405861.4478   5   6   3.6581  14.5145  11.1080  -3.1586  12.2706  -3.1827   0.00    0.0
2158 455770.000  -2418618.1435   5385520.9779   2405846.0386   5   5   8.1066   9.4477  11.9012  -7.8410  10.1374  -9.1021   0.00    0.0
2158 455771.000  -2418617.8592   5385520.7186   2405845.8623   5   5   8.1083   9.4489  11.9005  -7.8424  10.1379  -9.1028   0.00    0.0
2158 455772.000  -2418624.5714   5385526.2930   2405852.3653   5   5   8.1100   9.4501  11.8998  -7.8438  10.1385  -9.1035   0.00    0.0
2158 455773.000  -2418628.6746   5385529.6622   2405856.4290   5   5   8.1118   9.4512  11.8991  -7.8451  10.1390  -9.1042   0.00    0.0
2158 455774.000  -2418633.9904   5385533.8286   2405861.1364   5   5   8.1135   9.4524  11.8985  -7.8465  10.1395  -9.1050   0.00    0.0
2158 455775.000  -2418611.7977   5385552.8087   2405858.0949   5   6   3.6623  14.5107  11.1082  -3.1917  12.2692  -3.2090   0.00    0.0
2158 455776.000  -2418610.8906   5385552.9541   2405857.2187   5   6   3.6630  14.5101  11.1082  -3.1972  12.2690  -3.2133   0.00    0.0
2158 455777.000  -2418610.3811   5385552.0911   2405856.5801   5   6   3.6638  14.5095  11.1082  -3.2027  12.2687  -3.2177   0.00    0.0
2158 455778.000  -2418615.5823   5385549.5425   2405861.2283   5   6   3.6645  14.5089  11.1082  -3.2082  12.2685  -3.2221   0.00    0.0
2158 455779.000  -2418618.3786   5385546.0718   2405863.8707   5   6   3.6652  14.5083  11.1083  -3.2136  12.2683  -3.2264   0.00    0.0
2158 455780.000  -2418619.5709   5385544.7080   2405866.4255   5   6   3.6659  14.5077  11.1083  -3.2191  12.2681  -3.2307   0.00    0.0
2158 455781.000  -2418622.2799   5385542.7686   2405868.0709   5   6   3.6666  14.5071  11.1084  -3.2245  12.2679  -3.2351   0.00    0.0
2158 455782.000  -2418622.7130   5385541.8546   2405868.4830   5   6   3.6674  14.5065  11.1084  -3.2300  12.2676  -3.2394   0.00    0.0
2158 455783.000  -2418623.8014   5385541.7669   2405870.1084   5   6   3.6681  14.5059  11.1084  -3.2354  12.2674  -3.2437   0.00    0.0
2158 455784.000  -2418624.5923   5385544.6490   2405870.5781   5   6   3.6688  14.5054  11.1085  -3.2408  12.2672  -3.2480   0.00    0.0
2158 455785.000  -2418625.2559   5385544.4063   2405871.1226   5   6   3.6695  14.5048  11.1085  -3.2462  12.2670  -3.2524   0.00    0.0
2158 455786.000  -2418629.9684   5385514.6094   2405867.5515   5   5   3.8514  16.3814  11.1531  -1.2983  12.5721  -3.0731   0.00    0.0
2158 455787.000  -2418598.4236   5385501.8885   2405823.3254   5   5   8.1363   9.4677  11.8898  -7.8647  10.1463  -9.1143   0.00    0.0
2158 455788.000  -2418595.6113   5385498.9616   2405819.1497   5   5   8.1381   9.4689  11.8892  -7.8661  10.1469  -9.1150   0.00    0.0
2158 455799.000  -2418634.5229   5385516.7460   2405877.8657   5   5   3.8625  16.3518  11.1508  -1.4674  12.5570  -3.1376   0.00    0.0
2158 455800.000  -2418630.4070   5385525.8011   2405880.1646   5   5   3.8634  16.3496  11.1506  -1.4796  12.5558  -3.1425   0.00    0.0
2158 455801.000  -2418623.4657   5385532.2025   2405881.0335   5   5   3.8643  16.3473  11.1505  -1.4917  12.5547  -3.1474   0.00    0.0
2158 455802.000  -2418604.0644   5385566.8689   2405878.0878   5   6   3.6822  14.4956  11.1096  -3.3370  12.2641  -3.3249   0.00    0.0
2158 455803.000  -2418599.2732   5385563.4942   2405878.3437   5   6   3.6829  14.4951  11.1097  -3.3423  12.2639  -3.3291   0.00    0.0
2158 455804.000  -2418610.9124   5385545.0655   2405887.6119   5   5   8.1664   9.4878  11.8787  -7.8886  10.1553  -9.1266   0.00    0.0
2158 455805.000  -2418612.7876   5385543.8456   2405897.0278   5   5   8.1681   9.4890  11.8780  -7.8900  10.1558  -9.1273   0.00    0.0
2158 455806.000  -2418613.8617   5385545.7526   2405902.4313   5   5   8.1699   9.4902  11.8774  -7.8914  10.1563  -9.1281   0.00    0.0
2158 455807.000  -2418608.4046   5385544.2424   2405899.4519   5   5   8.1717   9.4913  11.8767  -7.8928  10.1568  -9.1288   0.00    0.0
